{
"type": "FeatureCollection",
"name": "BFA_schools",
"crs": { "type": "name", "properties": { "name": "urn:ogc:def:crs:OGC:1.3:CRS84" } },
"features": [
{ "type": "Feature", "properties": { "osm_id": 12535949910, "name": "Préscolaire", "amenity": "kindergarten", "building": null, "operator": "", "capacity": "", "addr_city": "", "country": "Burkina Faso", "iso3": "BFA", "source": "HOTOSM/OSM", "latitude": 11.868098, "longitude": -0.048407 }, "geometry": { "type": "Point", "coordinates": [ -0.0484072, 11.8680977 ] } },
{ "type": "Feature", "properties": { "osm_id": 8222215145, "name": "Lycée de Cinkassé", "amenity": "school", "building": null, "operator": "", "capacity": "", "addr_city": "", "country": "Burkina Faso", "iso3": "BFA", "source": "HOTOSM/OSM", "latitude": 11.09309, "longitude": 0.040223 }, "geometry": { "type": "Point", "coordinates": [ 0.0402228, 11.0930901 ] } },
{ "type": "Feature", "properties": { "osm_id": 11935098766, "name": "Medersa", "amenity": "school", "building": null, "operator": "", "capacity": "", "addr_city": "", "country": "Burkina Faso", "iso3": "BFA", "source": "HOTOSM/OSM", "latitude": 12.633331, "longitude": -1.827939 }, "geometry": { "type": "Point", "coordinates": [ -1.8279389, 12.6333313 ] } },
{ "type": "Feature", "properties": { "osm_id": 5656995433, "name": "Ecole primaire de Zaka", "amenity": "school", "building": null, "operator": "", "capacity": "", "addr_city": "", "country": "Burkina Faso", "iso3": "BFA", "source": "HOTOSM/OSM", "latitude": 12.009419, "longitude": -0.171608 }, "geometry": { "type": "Point", "coordinates": [ -0.1716077, 12.0094195 ] } },
{ "type": "Feature", "properties": { "osm_id": 7007431185, "name": "SITENGA", "amenity": "school", "building": null, "operator": "", "capacity": "", "addr_city": "", "country": "Burkina Faso", "iso3": "BFA", "source": "HOTOSM/OSM", "latitude": 12.1058, "longitude": -0.190262 }, "geometry": { "type": "Point", "coordinates": [ -0.1902622, 12.1057998 ] } },
{ "type": "Feature", "properties": { "osm_id": 6799318888, "name": "SITENGA", "amenity": "school", "building": null, "operator": "", "capacity": "", "addr_city": "", "country": "Burkina Faso", "iso3": "BFA", "source": "HOTOSM/OSM", "latitude": 12.102629, "longitude": -0.19104 }, "geometry": { "type": "Point", "coordinates": [ -0.1910403, 12.1026291 ] } },
{ "type": "Feature", "properties": { "osm_id": 6831839886, "name": "École de SITENGA", "amenity": "school", "building": null, "operator": "", "capacity": "", "addr_city": "", "country": "Burkina Faso", "iso3": "BFA", "source": "HOTOSM/OSM", "latitude": 12.102237, "longitude": -0.190971 }, "geometry": { "type": "Point", "coordinates": [ -0.1909712, 12.1022366 ] } },
{ "type": "Feature", "properties": { "osm_id": 6813329985, "name": "SITENGA", "amenity": "school", "building": null, "operator": "", "capacity": "", "addr_city": "", "country": "Burkina Faso", "iso3": "BFA", "source": "HOTOSM/OSM", "latitude": 12.102202, "longitude": -0.190957 }, "geometry": { "type": "Point", "coordinates": [ -0.1909568, 12.1022016 ] } },
{ "type": "Feature", "properties": { "osm_id": 3944555808, "name": "Ecole primaire publique A", "amenity": "school", "building": null, "operator": "", "capacity": "", "addr_city": "", "country": "Burkina Faso", "iso3": "BFA", "source": "HOTOSM/OSM", "latitude": 12.998589, "longitude": -3.957491 }, "geometry": { "type": "Point", "coordinates": [ -3.9574908, 12.9985893 ] } },
{ "type": "Feature", "properties": { "osm_id": 3944555809, "name": "Ecole primaire publique B", "amenity": "school", "building": null, "operator": "", "capacity": "", "addr_city": "", "country": "Burkina Faso", "iso3": "BFA", "source": "HOTOSM/OSM", "latitude": 13.015177, "longitude": -3.95154 }, "geometry": { "type": "Point", "coordinates": [ -3.9515403, 13.0151773 ] } },
{ "type": "Feature", "properties": { "osm_id": 8787238189, "name": "Ecole Franco-Arabe", "amenity": "school", "building": null, "operator": "", "capacity": "", "addr_city": "", "country": "Burkina Faso", "iso3": "BFA", "source": "HOTOSM/OSM", "latitude": 11.11597, "longitude": -0.014237 }, "geometry": { "type": "Point", "coordinates": [ -0.0142372, 11.1159697 ] } },
{ "type": "Feature", "properties": { "osm_id": 8186783405, "name": "Saint Joseph de Gounghin", "amenity": "school", "building": null, "operator": "", "capacity": "", "addr_city": "", "country": "Burkina Faso", "iso3": "BFA", "source": "HOTOSM/OSM", "latitude": 12.157906, "longitude": -0.069619 }, "geometry": { "type": "Point", "coordinates": [ -0.0696194, 12.1579055 ] } },
{ "type": "Feature", "properties": { "osm_id": 5770299648, "name": "Ecole", "amenity": "school", "building": null, "operator": "", "capacity": "", "addr_city": "", "country": "Burkina Faso", "iso3": "BFA", "source": "HOTOSM/OSM", "latitude": 11.951851, "longitude": -0.286323 }, "geometry": { "type": "Point", "coordinates": [ -0.2863231, 11.9518511 ] } },
{ "type": "Feature", "properties": { "osm_id": 3944555813, "name": "Lycée communal de Bomborokuy", "amenity": "school", "building": null, "operator": "", "capacity": "", "addr_city": "", "country": "Burkina Faso", "iso3": "BFA", "source": "HOTOSM/OSM", "latitude": 12.999548, "longitude": -3.945729 }, "geometry": { "type": "Point", "coordinates": [ -3.9457293, 12.9995478 ] } },
{ "type": "Feature", "properties": { "osm_id": 8413323578, "name": "Ecole primaire d'Amné-Rimaïbé", "amenity": "school", "building": null, "operator": "", "capacity": "", "addr_city": "", "country": "Burkina Faso", "iso3": "BFA", "source": "HOTOSM/OSM", "latitude": 13.96248, "longitude": -2.524307 }, "geometry": { "type": "Point", "coordinates": [ -2.5243074, 13.9624802 ] } },
{ "type": "Feature", "properties": { "osm_id": 430862669, "name": "Ecole La Paix", "amenity": "school", "building": null, "operator": "", "capacity": "", "addr_city": "", "country": "Burkina Faso", "iso3": "BFA", "source": "HOTOSM/OSM", "latitude": 12.326197, "longitude": -1.547498 }, "geometry": { "type": "Point", "coordinates": [ -1.5474984, 12.3261973 ] } },
{ "type": "Feature", "properties": { "osm_id": 8412895552, "name": "Ecole primaire de Tougnougou", "amenity": "school", "building": null, "operator": "", "capacity": "", "addr_city": "", "country": "Burkina Faso", "iso3": "BFA", "source": "HOTOSM/OSM", "latitude": 14.114624, "longitude": -2.474015 }, "geometry": { "type": "Point", "coordinates": [ -2.4740146, 14.1146236 ] } },
{ "type": "Feature", "properties": { "osm_id": 8412896287, "name": "Ecole", "amenity": "school", "building": null, "operator": "", "capacity": "", "addr_city": "", "country": "Burkina Faso", "iso3": "BFA", "source": "HOTOSM/OSM", "latitude": 14.07104, "longitude": -2.458084 }, "geometry": { "type": "Point", "coordinates": [ -2.4580836, 14.0710397 ] } },
{ "type": "Feature", "properties": { "osm_id": 8412892925, "name": "Ecole primaire de Madougou", "amenity": "school", "building": null, "operator": "", "capacity": "", "addr_city": "", "country": "Burkina Faso", "iso3": "BFA", "source": "HOTOSM/OSM", "latitude": 14.050764, "longitude": -2.524567 }, "geometry": { "type": "Point", "coordinates": [ -2.5245675, 14.0507635 ] } },
{ "type": "Feature", "properties": { "osm_id": 8412894703, "name": "Ecole primaire d'Orel-Balinguel", "amenity": "school", "building": null, "operator": "", "capacity": "", "addr_city": "", "country": "Burkina Faso", "iso3": "BFA", "source": "HOTOSM/OSM", "latitude": 14.05985, "longitude": -2.593921 }, "geometry": { "type": "Point", "coordinates": [ -2.5939214, 14.05985 ] } },
{ "type": "Feature", "properties": { "osm_id": 8408675613, "name": "Ecole primaire de Séno-Diao", "amenity": "school", "building": null, "operator": "", "capacity": "", "addr_city": "", "country": "Burkina Faso", "iso3": "BFA", "source": "HOTOSM/OSM", "latitude": 14.080585, "longitude": -2.549475 }, "geometry": { "type": "Point", "coordinates": [ -2.5494745, 14.0805852 ] } },
{ "type": "Feature", "properties": { "osm_id": 8412896202, "name": "Ecole", "amenity": "school", "building": null, "operator": "", "capacity": "", "addr_city": "", "country": "Burkina Faso", "iso3": "BFA", "source": "HOTOSM/OSM", "latitude": 14.078497, "longitude": -2.457736 }, "geometry": { "type": "Point", "coordinates": [ -2.4577363, 14.0784974 ] } },
{ "type": "Feature", "properties": { "osm_id": 8412896211, "name": "Ecole primaire de Koriré", "amenity": "school", "building": null, "operator": "", "capacity": "", "addr_city": "", "country": "Burkina Faso", "iso3": "BFA", "source": "HOTOSM/OSM", "latitude": 14.078868, "longitude": -2.458827 }, "geometry": { "type": "Point", "coordinates": [ -2.4588266, 14.0788682 ] } },
{ "type": "Feature", "properties": { "osm_id": 8412891160, "name": "Ecole primaire de Sandogo", "amenity": "school", "building": null, "operator": "", "capacity": "", "addr_city": "", "country": "Burkina Faso", "iso3": "BFA", "source": "HOTOSM/OSM", "latitude": 13.975747, "longitude": -2.543308 }, "geometry": { "type": "Point", "coordinates": [ -2.5433081, 13.9757472 ] } },
{ "type": "Feature", "properties": { "osm_id": 8412891754, "name": "Ecole primaire de Biré", "amenity": "school", "building": null, "operator": "", "capacity": "", "addr_city": "", "country": "Burkina Faso", "iso3": "BFA", "source": "HOTOSM/OSM", "latitude": 14.012371, "longitude": -2.528846 }, "geometry": { "type": "Point", "coordinates": [ -2.5288457, 14.012371 ] } },
{ "type": "Feature", "properties": { "osm_id": 8403150276, "name": "Ecole primaire", "amenity": "school", "building": null, "operator": "", "capacity": "", "addr_city": "", "country": "Burkina Faso", "iso3": "BFA", "source": "HOTOSM/OSM", "latitude": 14.095061, "longitude": -2.640381 }, "geometry": { "type": "Point", "coordinates": [ -2.6403813, 14.0950615 ] } },
{ "type": "Feature", "properties": { "osm_id": 8402871157, "name": "Ecole primaire", "amenity": "school", "building": null, "operator": "", "capacity": "", "addr_city": "", "country": "Burkina Faso", "iso3": "BFA", "source": "HOTOSM/OSM", "latitude": 12.201438, "longitude": -1.889474 }, "geometry": { "type": "Point", "coordinates": [ -1.8894741, 12.2014384 ] } },
{ "type": "Feature", "properties": { "osm_id": 8402871656, "name": "Ecole primaire", "amenity": "school", "building": null, "operator": "", "capacity": "", "addr_city": "", "country": "Burkina Faso", "iso3": "BFA", "source": "HOTOSM/OSM", "latitude": 12.200775, "longitude": -1.880207 }, "geometry": { "type": "Point", "coordinates": [ -1.8802071, 12.2007752 ] } },
{ "type": "Feature", "properties": { "osm_id": 8402871657, "name": "Ecole", "amenity": "school", "building": null, "operator": "", "capacity": "", "addr_city": "", "country": "Burkina Faso", "iso3": "BFA", "source": "HOTOSM/OSM", "latitude": 12.201247, "longitude": -1.881773 }, "geometry": { "type": "Point", "coordinates": [ -1.8817735, 12.2012471 ] } },
{ "type": "Feature", "properties": { "osm_id": 8402871777, "name": "Ecole", "amenity": "school", "building": null, "operator": "", "capacity": "", "addr_city": "", "country": "Burkina Faso", "iso3": "BFA", "source": "HOTOSM/OSM", "latitude": 12.205221, "longitude": -1.883957 }, "geometry": { "type": "Point", "coordinates": [ -1.8839568, 12.2052214 ] } },
{ "type": "Feature", "properties": { "osm_id": 12246826534, "name": "Ecole primaire", "amenity": "school", "building": null, "operator": "", "capacity": "", "addr_city": "", "country": "Burkina Faso", "iso3": "BFA", "source": "HOTOSM/OSM", "latitude": 11.827487, "longitude": -1.370593 }, "geometry": { "type": "Point", "coordinates": [ -1.3705927, 11.8274866 ] } },
{ "type": "Feature", "properties": { "osm_id": 2390756521, "name": "Ecole soeurs apotre du sacre coeur;Essakane SA", "amenity": "school", "building": null, "operator": "", "capacity": "", "addr_city": "", "country": "Burkina Faso", "iso3": "BFA", "source": "HOTOSM/OSM", "latitude": 12.361342, "longitude": -1.499137 }, "geometry": { "type": "Point", "coordinates": [ -1.4991365, 12.3613421 ] } },
{ "type": "Feature", "properties": { "osm_id": 6184998083, "name": "Ecole primaire de Wapassi", "amenity": "school", "building": null, "operator": "", "capacity": "", "addr_city": "", "country": "Burkina Faso", "iso3": "BFA", "source": "HOTOSM/OSM", "latitude": 12.311218, "longitude": -1.251664 }, "geometry": { "type": "Point", "coordinates": [ -1.2516636, 12.3112182 ] } },
{ "type": "Feature", "properties": { "osm_id": 8425472759, "name": "Ecole primaire de Goussirdou", "amenity": "school", "building": null, "operator": "", "capacity": "", "addr_city": "", "country": "Burkina Faso", "iso3": "BFA", "source": "HOTOSM/OSM", "latitude": 13.879194, "longitude": -2.582353 }, "geometry": { "type": "Point", "coordinates": [ -2.5823531, 13.8791939 ] } },
{ "type": "Feature", "properties": { "osm_id": 8425472867, "name": "Ecole primaire de Ouagara", "amenity": "school", "building": null, "operator": "", "capacity": "", "addr_city": "", "country": "Burkina Faso", "iso3": "BFA", "source": "HOTOSM/OSM", "latitude": 13.888057, "longitude": -2.57131 }, "geometry": { "type": "Point", "coordinates": [ -2.5713104, 13.8880574 ] } },
{ "type": "Feature", "properties": { "osm_id": 8425473267, "name": "Ecole primaire de Baani", "amenity": "school", "building": null, "operator": "", "capacity": "", "addr_city": "", "country": "Burkina Faso", "iso3": "BFA", "source": "HOTOSM/OSM", "latitude": 13.907955, "longitude": -2.616114 }, "geometry": { "type": "Point", "coordinates": [ -2.616114, 13.9079548 ] } },
{ "type": "Feature", "properties": { "osm_id": 11932721464, "name": "Ecole primaire", "amenity": "school", "building": null, "operator": "", "capacity": "", "addr_city": "", "country": "Burkina Faso", "iso3": "BFA", "source": "HOTOSM/OSM", "latitude": 12.633281, "longitude": -1.837003 }, "geometry": { "type": "Point", "coordinates": [ -1.8370034, 12.6332809 ] } },
{ "type": "Feature", "properties": { "osm_id": 8390599479, "name": "Ecole primaire Secteur 5", "amenity": "school", "building": null, "operator": "", "capacity": "", "addr_city": "", "country": "Burkina Faso", "iso3": "BFA", "source": "HOTOSM/OSM", "latitude": 12.199337, "longitude": -1.849287 }, "geometry": { "type": "Point", "coordinates": [ -1.8492866, 12.1993372 ] } },
{ "type": "Feature", "properties": { "osm_id": 8394825307, "name": "Ecole", "amenity": "school", "building": null, "operator": "", "capacity": "", "addr_city": "", "country": "Burkina Faso", "iso3": "BFA", "source": "HOTOSM/OSM", "latitude": 12.191615, "longitude": -1.876514 }, "geometry": { "type": "Point", "coordinates": [ -1.8765137, 12.191615 ] } },
{ "type": "Feature", "properties": { "osm_id": 6036682155, "name": "", "amenity": "school", "building": null, "operator": "", "capacity": "", "addr_city": "", "country": "Burkina Faso", "iso3": "BFA", "source": "HOTOSM/OSM", "latitude": 12.456577, "longitude": -3.458735 }, "geometry": { "type": "Point", "coordinates": [ -3.4587354, 12.4565765 ] } },
{ "type": "Feature", "properties": { "osm_id": 8425106795, "name": "Ecole franco-arabe de Péténangué", "amenity": "school", "building": null, "operator": "", "capacity": "", "addr_city": "", "country": "Burkina Faso", "iso3": "BFA", "source": "HOTOSM/OSM", "latitude": 13.944265, "longitude": -2.587721 }, "geometry": { "type": "Point", "coordinates": [ -2.5877215, 13.9442653 ] } },
{ "type": "Feature", "properties": { "osm_id": 11913478620, "name": "Ecole primaire", "amenity": "school", "building": null, "operator": "", "capacity": "", "addr_city": "", "country": "Burkina Faso", "iso3": "BFA", "source": "HOTOSM/OSM", "latitude": 12.590673, "longitude": -1.763632 }, "geometry": { "type": "Point", "coordinates": [ -1.7636316, 12.5906734 ] } },
{ "type": "Feature", "properties": { "osm_id": 11916809681, "name": "Ecole primaire", "amenity": "school", "building": null, "operator": "", "capacity": "", "addr_city": "", "country": "Burkina Faso", "iso3": "BFA", "source": "HOTOSM/OSM", "latitude": 12.586146, "longitude": -1.789719 }, "geometry": { "type": "Point", "coordinates": [ -1.7897187, 12.5861461 ] } },
{ "type": "Feature", "properties": { "osm_id": 11927682138, "name": "Ecole primaire", "amenity": "school", "building": null, "operator": "", "capacity": "", "addr_city": "", "country": "Burkina Faso", "iso3": "BFA", "source": "HOTOSM/OSM", "latitude": 12.597547, "longitude": -1.804598 }, "geometry": { "type": "Point", "coordinates": [ -1.8045983, 12.5975474 ] } },
{ "type": "Feature", "properties": { "osm_id": 11927954696, "name": "Ecole primaire", "amenity": "school", "building": null, "operator": "", "capacity": "", "addr_city": "", "country": "Burkina Faso", "iso3": "BFA", "source": "HOTOSM/OSM", "latitude": 12.631306, "longitude": -1.774344 }, "geometry": { "type": "Point", "coordinates": [ -1.7743443, 12.6313062 ] } },
{ "type": "Feature", "properties": { "osm_id": 8396833054, "name": "Ecole", "amenity": "school", "building": null, "operator": "", "capacity": "", "addr_city": "", "country": "Burkina Faso", "iso3": "BFA", "source": "HOTOSM/OSM", "latitude": 12.20279, "longitude": -1.872187 }, "geometry": { "type": "Point", "coordinates": [ -1.8721873, 12.2027899 ] } },
{ "type": "Feature", "properties": { "osm_id": 8396829590, "name": "Ecole", "amenity": "school", "building": null, "operator": "", "capacity": "", "addr_city": "", "country": "Burkina Faso", "iso3": "BFA", "source": "HOTOSM/OSM", "latitude": 12.205847, "longitude": -1.873886 }, "geometry": { "type": "Point", "coordinates": [ -1.8738864, 12.2058467 ] } },
{ "type": "Feature", "properties": { "osm_id": 8396829572, "name": "Ecole", "amenity": "school", "building": null, "operator": "", "capacity": "", "addr_city": "", "country": "Burkina Faso", "iso3": "BFA", "source": "HOTOSM/OSM", "latitude": 12.201375, "longitude": -1.876991 }, "geometry": { "type": "Point", "coordinates": [ -1.8769911, 12.2013755 ] } },
{ "type": "Feature", "properties": { "osm_id": 8396522366, "name": "Lycée Muicipal de Kokologho", "amenity": "school", "building": null, "operator": "", "capacity": "", "addr_city": "", "country": "Burkina Faso", "iso3": "BFA", "source": "HOTOSM/OSM", "latitude": 12.195763, "longitude": -1.882396 }, "geometry": { "type": "Point", "coordinates": [ -1.8823957, 12.1957626 ] } },
{ "type": "Feature", "properties": { "osm_id": 8394847866, "name": "CEG/Lycée", "amenity": "school", "building": null, "operator": "", "capacity": "", "addr_city": "", "country": "Burkina Faso", "iso3": "BFA", "source": "HOTOSM/OSM", "latitude": 12.197346, "longitude": -1.865521 }, "geometry": { "type": "Point", "coordinates": [ -1.8655206, 12.1973461 ] } },
{ "type": "Feature", "properties": { "osm_id": 8394611954, "name": "Ecole", "amenity": "school", "building": null, "operator": "", "capacity": "", "addr_city": "", "country": "Burkina Faso", "iso3": "BFA", "source": "HOTOSM/OSM", "latitude": 12.190619, "longitude": -1.892068 }, "geometry": { "type": "Point", "coordinates": [ -1.8920678, 12.1906188 ] } },
{ "type": "Feature", "properties": { "osm_id": 8394611955, "name": "Ecole primaire Secteur 4", "amenity": "school", "building": null, "operator": "", "capacity": "", "addr_city": "", "country": "Burkina Faso", "iso3": "BFA", "source": "HOTOSM/OSM", "latitude": 12.190171, "longitude": -1.891046 }, "geometry": { "type": "Point", "coordinates": [ -1.8910459, 12.1901705 ] } },
{ "type": "Feature", "properties": { "osm_id": 8425107512, "name": "Ecole primaire de Mougounouboko", "amenity": "school", "building": null, "operator": "", "capacity": "", "addr_city": "", "country": "Burkina Faso", "iso3": "BFA", "source": "HOTOSM/OSM", "latitude": 13.992735, "longitude": -2.58613 }, "geometry": { "type": "Point", "coordinates": [ -2.5861296, 13.9927351 ] } },
{ "type": "Feature", "properties": { "osm_id": 8425107000, "name": "Ecole primaire de Samni", "amenity": "school", "building": null, "operator": "", "capacity": "", "addr_city": "", "country": "Burkina Faso", "iso3": "BFA", "source": "HOTOSM/OSM", "latitude": 13.933445, "longitude": -2.55935 }, "geometry": { "type": "Point", "coordinates": [ -2.5593504, 13.933445 ] } },
{ "type": "Feature", "properties": { "osm_id": 12915151272, "name": "CEG", "amenity": "school", "building": null, "operator": "", "capacity": "", "addr_city": "", "country": "Burkina Faso", "iso3": "BFA", "source": "HOTOSM/OSM", "latitude": 12.386855, "longitude": -1.675937 }, "geometry": { "type": "Point", "coordinates": [ -1.6759367, 12.3868554 ] } },
{ "type": "Feature", "properties": { "osm_id": 12915348574, "name": "Ecole", "amenity": "school", "building": null, "operator": "", "capacity": "", "addr_city": "", "country": "Burkina Faso", "iso3": "BFA", "source": "HOTOSM/OSM", "latitude": 12.389221, "longitude": -1.66322 }, "geometry": { "type": "Point", "coordinates": [ -1.6632204, 12.389221 ] } },
{ "type": "Feature", "properties": { "osm_id": 12915364693, "name": "Ecole primaire", "amenity": "school", "building": null, "operator": "", "capacity": "", "addr_city": "", "country": "Burkina Faso", "iso3": "BFA", "source": "HOTOSM/OSM", "latitude": 12.393079, "longitude": -1.65921 }, "geometry": { "type": "Point", "coordinates": [ -1.6592105, 12.3930786 ] } },
{ "type": "Feature", "properties": { "osm_id": 12915364736, "name": "Ecole", "amenity": "school", "building": null, "operator": "", "capacity": "", "addr_city": "", "country": "Burkina Faso", "iso3": "BFA", "source": "HOTOSM/OSM", "latitude": 12.390234, "longitude": -1.647434 }, "geometry": { "type": "Point", "coordinates": [ -1.6474342, 12.3902336 ] } },
{ "type": "Feature", "properties": { "osm_id": 12915364769, "name": "Lycée privé Les Délices de l'Eternel", "amenity": "school", "building": null, "operator": "", "capacity": "", "addr_city": "", "country": "Burkina Faso", "iso3": "BFA", "source": "HOTOSM/OSM", "latitude": 12.400664, "longitude": -1.655584 }, "geometry": { "type": "Point", "coordinates": [ -1.6555841, 12.4006639 ] } },
{ "type": "Feature", "properties": { "osm_id": 12915364787, "name": "Ecole primaire", "amenity": "school", "building": null, "operator": "", "capacity": "", "addr_city": "", "country": "Burkina Faso", "iso3": "BFA", "source": "HOTOSM/OSM", "latitude": 12.400338, "longitude": -1.662082 }, "geometry": { "type": "Point", "coordinates": [ -1.6620818, 12.4003377 ] } },
{ "type": "Feature", "properties": { "osm_id": 12915364788, "name": "Ecole", "amenity": "school", "building": null, "operator": "", "capacity": "", "addr_city": "", "country": "Burkina Faso", "iso3": "BFA", "source": "HOTOSM/OSM", "latitude": 12.402762, "longitude": -1.660987 }, "geometry": { "type": "Point", "coordinates": [ -1.6609874, 12.4027622 ] } },
{ "type": "Feature", "properties": { "osm_id": 12915364789, "name": "Centre Al-Rhamane pour la Science et la Connaissance", "amenity": "school", "building": null, "operator": "", "capacity": "", "addr_city": "", "country": "Burkina Faso", "iso3": "BFA", "source": "HOTOSM/OSM", "latitude": 12.40153, "longitude": -1.66275 }, "geometry": { "type": "Point", "coordinates": [ -1.6627496, 12.4015296 ] } },
{ "type": "Feature", "properties": { "osm_id": 8388064781, "name": "Ecole", "amenity": "school", "building": null, "operator": "", "capacity": "", "addr_city": "", "country": "Burkina Faso", "iso3": "BFA", "source": "HOTOSM/OSM", "latitude": 12.181298, "longitude": -1.848994 }, "geometry": { "type": "Point", "coordinates": [ -1.8489942, 12.1812984 ] } },
{ "type": "Feature", "properties": { "osm_id": 8425106800, "name": "Ecole primaire de Péténangué", "amenity": "school", "building": null, "operator": "", "capacity": "", "addr_city": "", "country": "Burkina Faso", "iso3": "BFA", "source": "HOTOSM/OSM", "latitude": 13.943126, "longitude": -2.58993 }, "geometry": { "type": "Point", "coordinates": [ -2.5899303, 13.9431264 ] } },
{ "type": "Feature", "properties": { "osm_id": 8390841279, "name": "Ecole franco-arabe", "amenity": "school", "building": null, "operator": "", "capacity": "", "addr_city": "", "country": "Burkina Faso", "iso3": "BFA", "source": "HOTOSM/OSM", "latitude": 12.193836, "longitude": -1.859468 }, "geometry": { "type": "Point", "coordinates": [ -1.8594682, 12.1938356 ] } },
{ "type": "Feature", "properties": { "osm_id": 8390598861, "name": "Ecole", "amenity": "school", "building": null, "operator": "", "capacity": "", "addr_city": "", "country": "Burkina Faso", "iso3": "BFA", "source": "HOTOSM/OSM", "latitude": 12.204824, "longitude": -1.860488 }, "geometry": { "type": "Point", "coordinates": [ -1.8604875, 12.2048242 ] } },
{ "type": "Feature", "properties": { "osm_id": 9269281268, "name": "Ecole primaire", "amenity": "school", "building": null, "operator": "", "capacity": "", "addr_city": "", "country": "Burkina Faso", "iso3": "BFA", "source": "HOTOSM/OSM", "latitude": 12.218404, "longitude": -1.459395 }, "geometry": { "type": "Point", "coordinates": [ -1.4593953, 12.2184037 ] } },
{ "type": "Feature", "properties": { "osm_id": 11930357559, "name": "Ecole primaire", "amenity": "school", "building": null, "operator": "", "capacity": "", "addr_city": "", "country": "Burkina Faso", "iso3": "BFA", "source": "HOTOSM/OSM", "latitude": 12.597328, "longitude": -1.829485 }, "geometry": { "type": "Point", "coordinates": [ -1.8294851, 12.5973276 ] } },
{ "type": "Feature", "properties": { "osm_id": 12918046434, "name": "Ecole primaire", "amenity": "school", "building": null, "operator": "", "capacity": "", "addr_city": "", "country": "Burkina Faso", "iso3": "BFA", "source": "HOTOSM/OSM", "latitude": 12.35525, "longitude": -1.670528 }, "geometry": { "type": "Point", "coordinates": [ -1.6705281, 12.3552499 ] } },
{ "type": "Feature", "properties": { "osm_id": 9267029929, "name": "Ecole primaire", "amenity": "school", "building": null, "operator": "", "capacity": "", "addr_city": "", "country": "Burkina Faso", "iso3": "BFA", "source": "HOTOSM/OSM", "latitude": 12.207748, "longitude": -1.442334 }, "geometry": { "type": "Point", "coordinates": [ -1.4423344, 12.2077479 ] } },
{ "type": "Feature", "properties": { "osm_id": 12919795865, "name": "Ecole primaire", "amenity": "school", "building": null, "operator": "", "capacity": "", "addr_city": "", "country": "Burkina Faso", "iso3": "BFA", "source": "HOTOSM/OSM", "latitude": 12.400999, "longitude": -1.730604 }, "geometry": { "type": "Point", "coordinates": [ -1.7306042, 12.4009992 ] } },
{ "type": "Feature", "properties": { "osm_id": 12919367044, "name": "Ecole primaire", "amenity": "school", "building": null, "operator": "", "capacity": "", "addr_city": "", "country": "Burkina Faso", "iso3": "BFA", "source": "HOTOSM/OSM", "latitude": 12.371157, "longitude": -1.727671 }, "geometry": { "type": "Point", "coordinates": [ -1.7276712, 12.3711573 ] } },
{ "type": "Feature", "properties": { "osm_id": 9821057844, "name": "Ecole primaire", "amenity": "school", "building": null, "operator": "", "capacity": "", "addr_city": "", "country": "Burkina Faso", "iso3": "BFA", "source": "HOTOSM/OSM", "latitude": 12.29307, "longitude": -2.152313 }, "geometry": { "type": "Point", "coordinates": [ -2.1523134, 12.2930698 ] } },
{ "type": "Feature", "properties": { "osm_id": 12070619421, "name": "Ecole primaire", "amenity": "school", "building": null, "operator": "", "capacity": "", "addr_city": "", "country": "Burkina Faso", "iso3": "BFA", "source": "HOTOSM/OSM", "latitude": 12.389668, "longitude": -1.743681 }, "geometry": { "type": "Point", "coordinates": [ -1.7436813, 12.3896677 ] } },
{ "type": "Feature", "properties": { "osm_id": 8381901384, "name": "Ecole", "amenity": "school", "building": null, "operator": "", "capacity": "", "addr_city": "", "country": "Burkina Faso", "iso3": "BFA", "source": "HOTOSM/OSM", "latitude": 12.192426, "longitude": -1.985594 }, "geometry": { "type": "Point", "coordinates": [ -1.9855937, 12.1924265 ] } },
{ "type": "Feature", "properties": { "osm_id": 8380780487, "name": "Ecole primaire", "amenity": "school", "building": null, "operator": "", "capacity": "", "addr_city": "", "country": "Burkina Faso", "iso3": "BFA", "source": "HOTOSM/OSM", "latitude": 12.171431, "longitude": -1.955078 }, "geometry": { "type": "Point", "coordinates": [ -1.9550782, 12.171431 ] } },
{ "type": "Feature", "properties": { "osm_id": 8396417917, "name": "La SALLE", "amenity": "college", "building": null, "operator": "", "capacity": "", "addr_city": "", "country": "Burkina Faso", "iso3": "BFA", "source": "HOTOSM/OSM", "latitude": 11.245539, "longitude": -4.293858 }, "geometry": { "type": "Point", "coordinates": [ -4.2938585, 11.245539 ] } },
{ "type": "Feature", "properties": { "osm_id": 11927682124, "name": "Ecole", "amenity": "school", "building": null, "operator": "", "capacity": "", "addr_city": "", "country": "Burkina Faso", "iso3": "BFA", "source": "HOTOSM/OSM", "latitude": 12.596613, "longitude": -1.803709 }, "geometry": { "type": "Point", "coordinates": [ -1.8037091, 12.5966129 ] } },
{ "type": "Feature", "properties": { "osm_id": 8381900943, "name": "Ecole", "amenity": "school", "building": null, "operator": "", "capacity": "", "addr_city": "", "country": "Burkina Faso", "iso3": "BFA", "source": "HOTOSM/OSM", "latitude": 12.174181, "longitude": -1.971113 }, "geometry": { "type": "Point", "coordinates": [ -1.9711125, 12.1741814 ] } },
{ "type": "Feature", "properties": { "osm_id": 8381901348, "name": "Ecole primaire de Sakoinsé B", "amenity": "school", "building": null, "operator": "", "capacity": "", "addr_city": "", "country": "Burkina Faso", "iso3": "BFA", "source": "HOTOSM/OSM", "latitude": 12.191949, "longitude": -1.970387 }, "geometry": { "type": "Point", "coordinates": [ -1.970387, 12.1919493 ] } },
{ "type": "Feature", "properties": { "osm_id": 8381902445, "name": "CEG de Sakoinsé", "amenity": "school", "building": null, "operator": "", "capacity": "", "addr_city": "", "country": "Burkina Faso", "iso3": "BFA", "source": "HOTOSM/OSM", "latitude": 12.188571, "longitude": -1.988749 }, "geometry": { "type": "Point", "coordinates": [ -1.9887494, 12.1885712 ] } },
{ "type": "Feature", "properties": { "osm_id": 9263041331, "name": "Ecole primaire stellite de Kakoumana", "amenity": "school", "building": null, "operator": "", "capacity": "", "addr_city": "", "country": "Burkina Faso", "iso3": "BFA", "source": "HOTOSM/OSM", "latitude": 10.241736, "longitude": -4.938795 }, "geometry": { "type": "Point", "coordinates": [ -4.9387949, 10.2417358 ] } },
{ "type": "Feature", "properties": { "osm_id": 12921861098, "name": "Ecole primaire", "amenity": "school", "building": null, "operator": "", "capacity": "", "addr_city": "", "country": "Burkina Faso", "iso3": "BFA", "source": "HOTOSM/OSM", "latitude": 12.357055, "longitude": -1.732004 }, "geometry": { "type": "Point", "coordinates": [ -1.7320043, 12.3570551 ] } },
{ "type": "Feature", "properties": { "osm_id": 11927954989, "name": "CEG", "amenity": "school", "building": null, "operator": "", "capacity": "", "addr_city": "", "country": "Burkina Faso", "iso3": "BFA", "source": "HOTOSM/OSM", "latitude": 12.631885, "longitude": -1.799993 }, "geometry": { "type": "Point", "coordinates": [ -1.7999929, 12.6318846 ] } },
{ "type": "Feature", "properties": { "osm_id": 12922235648, "name": "Ecole primaire", "amenity": "school", "building": null, "operator": "", "capacity": "", "addr_city": "", "country": "Burkina Faso", "iso3": "BFA", "source": "HOTOSM/OSM", "latitude": 12.344278, "longitude": -1.780842 }, "geometry": { "type": "Point", "coordinates": [ -1.7808419, 12.344278 ] } },
{ "type": "Feature", "properties": { "osm_id": 7125214115, "name": "Ecole primaire d'Ourfaré", "amenity": "school", "building": null, "operator": "", "capacity": "", "addr_city": "", "country": "Burkina Faso", "iso3": "BFA", "source": "HOTOSM/OSM", "latitude": 13.972207, "longitude": -0.63722 }, "geometry": { "type": "Point", "coordinates": [ -0.6372197, 13.9722065 ] } },
{ "type": "Feature", "properties": { "osm_id": 11923089344, "name": "Ecole primaire", "amenity": "school", "building": null, "operator": "", "capacity": "", "addr_city": "", "country": "Burkina Faso", "iso3": "BFA", "source": "HOTOSM/OSM", "latitude": 12.677502, "longitude": -1.766045 }, "geometry": { "type": "Point", "coordinates": [ -1.7660455, 12.6775025 ] } },
{ "type": "Feature", "properties": { "osm_id": 11923088238, "name": "Ecole primaire", "amenity": "school", "building": null, "operator": "", "capacity": "", "addr_city": "", "country": "Burkina Faso", "iso3": "BFA", "source": "HOTOSM/OSM", "latitude": 12.678722, "longitude": -1.794555 }, "geometry": { "type": "Point", "coordinates": [ -1.7945547, 12.6787219 ] } },
{ "type": "Feature", "properties": { "osm_id": 11923088239, "name": "CEG", "amenity": "school", "building": null, "operator": "", "capacity": "", "addr_city": "", "country": "Burkina Faso", "iso3": "BFA", "source": "HOTOSM/OSM", "latitude": 12.677768, "longitude": -1.795587 }, "geometry": { "type": "Point", "coordinates": [ -1.7955874, 12.6777681 ] } },
{ "type": "Feature", "properties": { "osm_id": 11923089681, "name": "Ecole primaire", "amenity": "school", "building": null, "operator": "", "capacity": "", "addr_city": "", "country": "Burkina Faso", "iso3": "BFA", "source": "HOTOSM/OSM", "latitude": 12.693746, "longitude": -1.759286 }, "geometry": { "type": "Point", "coordinates": [ -1.7592864, 12.6937458 ] } },
{ "type": "Feature", "properties": { "osm_id": 9238153367, "name": "", "amenity": "school", "building": null, "operator": "", "capacity": "", "addr_city": "", "country": "Burkina Faso", "iso3": "BFA", "source": "HOTOSM/OSM", "latitude": 12.592972, "longitude": 1.892357 }, "geometry": { "type": "Point", "coordinates": [ 1.8923573, 12.5929715 ] } },
{ "type": "Feature", "properties": { "osm_id": 8358288457, "name": "Ecole Franco-arabe", "amenity": "school", "building": null, "operator": "", "capacity": "", "addr_city": "", "country": "Burkina Faso", "iso3": "BFA", "source": "HOTOSM/OSM", "latitude": 12.255217, "longitude": -1.384527 }, "geometry": { "type": "Point", "coordinates": [ -1.3845268, 12.2552168 ] } },
{ "type": "Feature", "properties": { "osm_id": 8357809252, "name": "Ecole", "amenity": "school", "building": null, "operator": "", "capacity": "", "addr_city": "", "country": "Burkina Faso", "iso3": "BFA", "source": "HOTOSM/OSM", "latitude": 12.219683, "longitude": -1.419685 }, "geometry": { "type": "Point", "coordinates": [ -1.4196852, 12.219683 ] } },
{ "type": "Feature", "properties": { "osm_id": 13021551158, "name": "Ecole", "amenity": "school", "building": null, "operator": "", "capacity": "", "addr_city": "", "country": "Burkina Faso", "iso3": "BFA", "source": "HOTOSM/OSM", "latitude": 12.28662, "longitude": -1.679826 }, "geometry": { "type": "Point", "coordinates": [ -1.6798259, 12.2866195 ] } },
{ "type": "Feature", "properties": { "osm_id": 6255993978, "name": "Institut Supérieur de Management et de Technologie", "amenity": "university", "building": null, "operator": "", "capacity": "", "addr_city": "", "country": "Burkina Faso", "iso3": "BFA", "source": "HOTOSM/OSM", "latitude": 12.373568, "longitude": -1.493669 }, "geometry": { "type": "Point", "coordinates": [ -1.4936685, 12.373568 ] } },
{ "type": "Feature", "properties": { "osm_id": 8290474860, "name": "Préscolaire", "amenity": "kindergarten", "building": null, "operator": "", "capacity": "", "addr_city": "", "country": "Burkina Faso", "iso3": "BFA", "source": "HOTOSM/OSM", "latitude": 12.05539, "longitude": -1.861563 }, "geometry": { "type": "Point", "coordinates": [ -1.861563, 12.0553899 ] } },
{ "type": "Feature", "properties": { "osm_id": 8345735434, "name": "Ecole primaire de Rouré", "amenity": "school", "building": null, "operator": "", "capacity": "", "addr_city": "", "country": "Burkina Faso", "iso3": "BFA", "source": "HOTOSM/OSM", "latitude": 12.068983, "longitude": -2.023774 }, "geometry": { "type": "Point", "coordinates": [ -2.0237736, 12.0689835 ] } },
{ "type": "Feature", "properties": { "osm_id": 9230050164, "name": "Ecole", "amenity": "school", "building": null, "operator": "", "capacity": "", "addr_city": "", "country": "Burkina Faso", "iso3": "BFA", "source": "HOTOSM/OSM", "latitude": 12.210471, "longitude": -1.394197 }, "geometry": { "type": "Point", "coordinates": [ -1.3941975, 12.2104711 ] } },
{ "type": "Feature", "properties": { "osm_id": 8346235604, "name": "Lycée de Soula", "amenity": "school", "building": null, "operator": "", "capacity": "", "addr_city": "", "country": "Burkina Faso", "iso3": "BFA", "source": "HOTOSM/OSM", "latitude": 12.031194, "longitude": -2.079707 }, "geometry": { "type": "Point", "coordinates": [ -2.0797071, 12.0311937 ] } },
{ "type": "Feature", "properties": { "osm_id": 11920818459, "name": "Ecole primaire", "amenity": "school", "building": null, "operator": "", "capacity": "", "addr_city": "", "country": "Burkina Faso", "iso3": "BFA", "source": "HOTOSM/OSM", "latitude": 12.62475, "longitude": -1.807629 }, "geometry": { "type": "Point", "coordinates": [ -1.8076292, 12.6247498 ] } },
{ "type": "Feature", "properties": { "osm_id": 11920818470, "name": "CEG", "amenity": "school", "building": null, "operator": "", "capacity": "", "addr_city": "", "country": "Burkina Faso", "iso3": "BFA", "source": "HOTOSM/OSM", "latitude": 12.625922, "longitude": -1.803729 }, "geometry": { "type": "Point", "coordinates": [ -1.8037292, 12.6259224 ] } },
{ "type": "Feature", "properties": { "osm_id": 6109354388, "name": "Centre d'éveil \"Les Flambeaux de SCHECKINA\"", "amenity": "school", "building": null, "operator": "", "capacity": "", "addr_city": "", "country": "Burkina Faso", "iso3": "BFA", "source": "HOTOSM/OSM", "latitude": 12.32324, "longitude": -1.463352 }, "geometry": { "type": "Point", "coordinates": [ -1.4633522, 12.3232396 ] } },
{ "type": "Feature", "properties": { "osm_id": 6109357786, "name": "Complexe scolaire \"La Solution\"", "amenity": "school", "building": null, "operator": "", "capacity": "", "addr_city": "", "country": "Burkina Faso", "iso3": "BFA", "source": "HOTOSM/OSM", "latitude": 12.325256, "longitude": -1.467037 }, "geometry": { "type": "Point", "coordinates": [ -1.4670369, 12.3252558 ] } },
{ "type": "Feature", "properties": { "osm_id": 8340225442, "name": "Ecole primaire de Sam", "amenity": "school", "building": null, "operator": "", "capacity": "", "addr_city": "", "country": "Burkina Faso", "iso3": "BFA", "source": "HOTOSM/OSM", "latitude": 12.083602, "longitude": -2.004839 }, "geometry": { "type": "Point", "coordinates": [ -2.0048386, 12.083602 ] } },
{ "type": "Feature", "properties": { "osm_id": 8339853457, "name": "Ecole franco-arabe", "amenity": "school", "building": null, "operator": "", "capacity": "", "addr_city": "", "country": "Burkina Faso", "iso3": "BFA", "source": "HOTOSM/OSM", "latitude": 12.08831, "longitude": -1.978987 }, "geometry": { "type": "Point", "coordinates": [ -1.9789875, 12.0883098 ] } },
{ "type": "Feature", "properties": { "osm_id": 8337654281, "name": "Ecole primaire de Nidaga", "amenity": "school", "building": null, "operator": "", "capacity": "", "addr_city": "", "country": "Burkina Faso", "iso3": "BFA", "source": "HOTOSM/OSM", "latitude": 12.066666, "longitude": -1.994747 }, "geometry": { "type": "Point", "coordinates": [ -1.9947468, 12.0666662 ] } },
{ "type": "Feature", "properties": { "osm_id": 6090715803, "name": "Ecole", "amenity": "school", "building": null, "operator": "", "capacity": "", "addr_city": "", "country": "Burkina Faso", "iso3": "BFA", "source": "HOTOSM/OSM", "latitude": 12.296353, "longitude": -1.31876 }, "geometry": { "type": "Point", "coordinates": [ -1.3187604, 12.2963529 ] } },
{ "type": "Feature", "properties": { "osm_id": 8334109878, "name": "Ecole primaire de Kamboinsé", "amenity": "school", "building": null, "operator": "", "capacity": "", "addr_city": "", "country": "Burkina Faso", "iso3": "BFA", "source": "HOTOSM/OSM", "latitude": 11.853577, "longitude": -1.716811 }, "geometry": { "type": "Point", "coordinates": [ -1.7168109, 11.8535765 ] } },
{ "type": "Feature", "properties": { "osm_id": 8324415015, "name": "Ecole franco-arabe", "amenity": "school", "building": null, "operator": "", "capacity": "", "addr_city": "", "country": "Burkina Faso", "iso3": "BFA", "source": "HOTOSM/OSM", "latitude": 11.795512, "longitude": -1.719724 }, "geometry": { "type": "Point", "coordinates": [ -1.7197238, 11.7955116 ] } },
{ "type": "Feature", "properties": { "osm_id": 12950353964, "name": "Ecole primaire", "amenity": "school", "building": null, "operator": "", "capacity": "", "addr_city": "", "country": "Burkina Faso", "iso3": "BFA", "source": "HOTOSM/OSM", "latitude": 12.269948, "longitude": -1.759936 }, "geometry": { "type": "Point", "coordinates": [ -1.7599363, 12.2699479 ] } },
{ "type": "Feature", "properties": { "osm_id": 8319933433, "name": "Ecole primaire de Lado", "amenity": "school", "building": null, "operator": "", "capacity": "", "addr_city": "", "country": "Burkina Faso", "iso3": "BFA", "source": "HOTOSM/OSM", "latitude": 11.965875, "longitude": -1.729361 }, "geometry": { "type": "Point", "coordinates": [ -1.729361, 11.965875 ] } },
{ "type": "Feature", "properties": { "osm_id": 9794493983, "name": "Ecole primaire", "amenity": "school", "building": null, "operator": "", "capacity": "", "addr_city": "", "country": "Burkina Faso", "iso3": "BFA", "source": "HOTOSM/OSM", "latitude": 12.313854, "longitude": -2.059625 }, "geometry": { "type": "Point", "coordinates": [ -2.0596254, 12.3138545 ] } },
{ "type": "Feature", "properties": { "osm_id": 4883793166, "name": "Ecole primaire", "amenity": "school", "building": null, "operator": "", "capacity": "", "addr_city": "", "country": "Burkina Faso", "iso3": "BFA", "source": "HOTOSM/OSM", "latitude": 12.191513, "longitude": -2.226278 }, "geometry": { "type": "Point", "coordinates": [ -2.2262777, 12.1915135 ] } },
{ "type": "Feature", "properties": { "osm_id": 8305984580, "name": "Ecole primaire Soukoyiri", "amenity": "school", "building": null, "operator": "", "capacity": "", "addr_city": "", "country": "Burkina Faso", "iso3": "BFA", "source": "HOTOSM/OSM", "latitude": 12.130763, "longitude": -1.915591 }, "geometry": { "type": "Point", "coordinates": [ -1.9155908, 12.1307633 ] } },
{ "type": "Feature", "properties": { "osm_id": 9794494524, "name": "Ecole primaire", "amenity": "school", "building": null, "operator": "", "capacity": "", "addr_city": "", "country": "Burkina Faso", "iso3": "BFA", "source": "HOTOSM/OSM", "latitude": 12.316539, "longitude": -2.072961 }, "geometry": { "type": "Point", "coordinates": [ -2.0729613, 12.3165391 ] } },
{ "type": "Feature", "properties": { "osm_id": 8318360908, "name": "Ecole primaire de Kossoghin", "amenity": "school", "building": null, "operator": "", "capacity": "", "addr_city": "", "country": "Burkina Faso", "iso3": "BFA", "source": "HOTOSM/OSM", "latitude": 12.073132, "longitude": -1.732415 }, "geometry": { "type": "Point", "coordinates": [ -1.7324147, 12.0731316 ] } },
{ "type": "Feature", "properties": { "osm_id": 8316629433, "name": "Ecole primaire de Toéghin", "amenity": "school", "building": null, "operator": "", "capacity": "", "addr_city": "", "country": "Burkina Faso", "iso3": "BFA", "source": "HOTOSM/OSM", "latitude": 12.077251, "longitude": -1.686156 }, "geometry": { "type": "Point", "coordinates": [ -1.6861559, 12.0772508 ] } },
{ "type": "Feature", "properties": { "osm_id": 8313191107, "name": "Ecole primaire de Komki-Peulh", "amenity": "school", "building": null, "operator": "", "capacity": "", "addr_city": "", "country": "Burkina Faso", "iso3": "BFA", "source": "HOTOSM/OSM", "latitude": 12.178482, "longitude": -1.81679 }, "geometry": { "type": "Point", "coordinates": [ -1.8167903, 12.1784825 ] } },
{ "type": "Feature", "properties": { "osm_id": 6075689731, "name": "Ecole primaire", "amenity": "school", "building": null, "operator": "", "capacity": "", "addr_city": "", "country": "Burkina Faso", "iso3": "BFA", "source": "HOTOSM/OSM", "latitude": 12.334632, "longitude": -1.426702 }, "geometry": { "type": "Point", "coordinates": [ -1.4267018, 12.3346316 ] } },
{ "type": "Feature", "properties": { "osm_id": 8308186476, "name": "Ecole primaire Secteur 4", "amenity": "school", "building": null, "operator": "", "capacity": "", "addr_city": "", "country": "Burkina Faso", "iso3": "BFA", "source": "HOTOSM/OSM", "latitude": 12.176604, "longitude": -1.891105 }, "geometry": { "type": "Point", "coordinates": [ -1.8911049, 12.176604 ] } },
{ "type": "Feature", "properties": { "osm_id": 8296197087, "name": "Ecole primaire de Yipalin", "amenity": "school", "building": null, "operator": "", "capacity": "", "addr_city": "", "country": "Burkina Faso", "iso3": "BFA", "source": "HOTOSM/OSM", "latitude": 12.073538, "longitude": -1.921824 }, "geometry": { "type": "Point", "coordinates": [ -1.9218242, 12.0735382 ] } },
{ "type": "Feature", "properties": { "osm_id": 8296196948, "name": "Ecole", "amenity": "school", "building": null, "operator": "", "capacity": "", "addr_city": "", "country": "Burkina Faso", "iso3": "BFA", "source": "HOTOSM/OSM", "latitude": 12.077635, "longitude": -1.913717 }, "geometry": { "type": "Point", "coordinates": [ -1.9137172, 12.0776351 ] } },
{ "type": "Feature", "properties": { "osm_id": 8298291545, "name": "Ecole", "amenity": "school", "building": null, "operator": "", "capacity": "", "addr_city": "", "country": "Burkina Faso", "iso3": "BFA", "source": "HOTOSM/OSM", "latitude": 12.104121, "longitude": -1.90273 }, "geometry": { "type": "Point", "coordinates": [ -1.9027296, 12.1041205 ] } },
{ "type": "Feature", "properties": { "osm_id": 8298292224, "name": "Ecole primaire de Doundouni", "amenity": "school", "building": null, "operator": "", "capacity": "", "addr_city": "", "country": "Burkina Faso", "iso3": "BFA", "source": "HOTOSM/OSM", "latitude": 12.099063, "longitude": -1.916251 }, "geometry": { "type": "Point", "coordinates": [ -1.9162506, 12.0990628 ] } },
{ "type": "Feature", "properties": { "osm_id": 6074081310, "name": "Ecole primaire", "amenity": "school", "building": null, "operator": "", "capacity": "", "addr_city": "", "country": "Burkina Faso", "iso3": "BFA", "source": "HOTOSM/OSM", "latitude": 12.298029, "longitude": -1.430118 }, "geometry": { "type": "Point", "coordinates": [ -1.4301176, 12.2980288 ] } },
{ "type": "Feature", "properties": { "osm_id": 8297008458, "name": "Ecole primaire de Gounghin", "amenity": "school", "building": null, "operator": "", "capacity": "", "addr_city": "", "country": "Burkina Faso", "iso3": "BFA", "source": "HOTOSM/OSM", "latitude": 12.091474, "longitude": -1.902724 }, "geometry": { "type": "Point", "coordinates": [ -1.9027242, 12.0914741 ] } },
{ "type": "Feature", "properties": { "osm_id": 12821333515, "name": "Ecole primaire", "amenity": "school", "building": null, "operator": "", "capacity": "", "addr_city": "", "country": "Burkina Faso", "iso3": "BFA", "source": "HOTOSM/OSM", "latitude": 12.359855, "longitude": -0.91102 }, "geometry": { "type": "Point", "coordinates": [ -0.9110203, 12.3598546 ] } },
{ "type": "Feature", "properties": { "osm_id": 8285801768, "name": "CEG de Penguen", "amenity": "school", "building": null, "operator": "", "capacity": "", "addr_city": "", "country": "Burkina Faso", "iso3": "BFA", "source": "HOTOSM/OSM", "latitude": 12.06083, "longitude": -1.813525 }, "geometry": { "type": "Point", "coordinates": [ -1.8135247, 12.06083 ] } },
{ "type": "Feature", "properties": { "osm_id": 9864213715, "name": "Ecole primaire", "amenity": "school", "building": null, "operator": "", "capacity": "", "addr_city": "", "country": "Burkina Faso", "iso3": "BFA", "source": "HOTOSM/OSM", "latitude": 12.353299, "longitude": -2.101921 }, "geometry": { "type": "Point", "coordinates": [ -2.1019211, 12.3532992 ] } },
{ "type": "Feature", "properties": { "osm_id": 9864213716, "name": "Ecole primaire", "amenity": "school", "building": null, "operator": "", "capacity": "", "addr_city": "", "country": "Burkina Faso", "iso3": "BFA", "source": "HOTOSM/OSM", "latitude": 12.353019, "longitude": -2.103218 }, "geometry": { "type": "Point", "coordinates": [ -2.103218, 12.3530189 ] } },
{ "type": "Feature", "properties": { "osm_id": 6071150159, "name": "Ecole primaire", "amenity": "school", "building": null, "operator": "", "capacity": "", "addr_city": "", "country": "Burkina Faso", "iso3": "BFA", "source": "HOTOSM/OSM", "latitude": 12.308607, "longitude": -1.423678 }, "geometry": { "type": "Point", "coordinates": [ -1.4236777, 12.3086068 ] } },
{ "type": "Feature", "properties": { "osm_id": 6071150296, "name": "Ecole", "amenity": "school", "building": null, "operator": "", "capacity": "", "addr_city": "", "country": "Burkina Faso", "iso3": "BFA", "source": "HOTOSM/OSM", "latitude": 12.308904, "longitude": -1.422609 }, "geometry": { "type": "Point", "coordinates": [ -1.4226088, 12.3089043 ] } },
{ "type": "Feature", "properties": { "osm_id": 6071150331, "name": "Ecole", "amenity": "school", "building": null, "operator": "", "capacity": "", "addr_city": "", "country": "Burkina Faso", "iso3": "BFA", "source": "HOTOSM/OSM", "latitude": 12.309064, "longitude": -1.421859 }, "geometry": { "type": "Point", "coordinates": [ -1.4218591, 12.3090641 ] } },
{ "type": "Feature", "properties": { "osm_id": 6071150543, "name": "Ecole", "amenity": "school", "building": null, "operator": "", "capacity": "", "addr_city": "", "country": "Burkina Faso", "iso3": "BFA", "source": "HOTOSM/OSM", "latitude": 12.31133, "longitude": -1.424836 }, "geometry": { "type": "Point", "coordinates": [ -1.4248364, 12.3113296 ] } },
{ "type": "Feature", "properties": { "osm_id": 8294477543, "name": "Ecole primaire de Sancé", "amenity": "school", "building": null, "operator": "", "capacity": "", "addr_city": "", "country": "Burkina Faso", "iso3": "BFA", "source": "HOTOSM/OSM", "latitude": 12.08646, "longitude": -1.854872 }, "geometry": { "type": "Point", "coordinates": [ -1.8548723, 12.0864595 ] } },
{ "type": "Feature", "properties": { "osm_id": 8294477859, "name": "Ecole franco-arabe", "amenity": "school", "building": null, "operator": "", "capacity": "", "addr_city": "", "country": "Burkina Faso", "iso3": "BFA", "source": "HOTOSM/OSM", "latitude": 12.078958, "longitude": -1.850582 }, "geometry": { "type": "Point", "coordinates": [ -1.8505821, 12.0789583 ] } },
{ "type": "Feature", "properties": { "osm_id": 12598901363, "name": "Ecole primaire Natenga", "amenity": "school", "building": null, "operator": "", "capacity": "", "addr_city": "", "country": "Burkina Faso", "iso3": "BFA", "source": "HOTOSM/OSM", "latitude": 11.836481, "longitude": -0.030129 }, "geometry": { "type": "Point", "coordinates": [ -0.0301293, 11.8364806 ] } },
{ "type": "Feature", "properties": { "osm_id": 8290474903, "name": "Ecole primaire de Goumsa", "amenity": "school", "building": null, "operator": "", "capacity": "", "addr_city": "", "country": "Burkina Faso", "iso3": "BFA", "source": "HOTOSM/OSM", "latitude": 12.054035, "longitude": -1.862735 }, "geometry": { "type": "Point", "coordinates": [ -1.8627352, 12.0540351 ] } },
{ "type": "Feature", "properties": { "osm_id": 338321777, "name": "College Daroul Houda", "amenity": "school", "building": null, "operator": "", "capacity": "", "addr_city": "", "country": "Burkina Faso", "iso3": "BFA", "source": "HOTOSM/OSM", "latitude": 12.330006, "longitude": -1.525677 }, "geometry": { "type": "Point", "coordinates": [ -1.5256765, 12.3300057 ] } },
{ "type": "Feature", "properties": { "osm_id": 2866037513, "name": "Ecole primaire d'Absindo", "amenity": "school", "building": null, "operator": "", "capacity": "", "addr_city": "", "country": "Burkina Faso", "iso3": "BFA", "source": "HOTOSM/OSM", "latitude": 12.107449, "longitude": -1.777766 }, "geometry": { "type": "Point", "coordinates": [ -1.7777663, 12.1074493 ] } },
{ "type": "Feature", "properties": { "osm_id": 8281289709, "name": "Ecole primaire de Dapouri B", "amenity": "school", "building": null, "operator": "", "capacity": "", "addr_city": "", "country": "Burkina Faso", "iso3": "BFA", "source": "HOTOSM/OSM", "latitude": 12.024778, "longitude": -1.823764 }, "geometry": { "type": "Point", "coordinates": [ -1.823764, 12.0247784 ] } },
{ "type": "Feature", "properties": { "osm_id": 8278357704, "name": "Ecole primaire de Goumsin B", "amenity": "school", "building": null, "operator": "", "capacity": "", "addr_city": "", "country": "Burkina Faso", "iso3": "BFA", "source": "HOTOSM/OSM", "latitude": 12.000203, "longitude": -1.803759 }, "geometry": { "type": "Point", "coordinates": [ -1.8037587, 12.000203 ] } },
{ "type": "Feature", "properties": { "osm_id": 9173292829, "name": "Ecole de Zanikampa", "amenity": "school", "building": null, "operator": "", "capacity": "", "addr_city": "", "country": "Burkina Faso", "iso3": "BFA", "source": "HOTOSM/OSM", "latitude": 11.275147, "longitude": -5.229661 }, "geometry": { "type": "Point", "coordinates": [ -5.2296612, 11.2751473 ] } },
{ "type": "Feature", "properties": { "osm_id": 8283676588, "name": "Ecole primaire de Kayao A", "amenity": "school", "building": null, "operator": "", "capacity": "", "addr_city": "", "country": "Burkina Faso", "iso3": "BFA", "source": "HOTOSM/OSM", "latitude": 12.009403, "longitude": -1.835205 }, "geometry": { "type": "Point", "coordinates": [ -1.835205, 12.0094025 ] } },
{ "type": "Feature", "properties": { "osm_id": 8277360722, "name": "Centre de formation technique", "amenity": "school", "building": null, "operator": "", "capacity": "", "addr_city": "", "country": "Burkina Faso", "iso3": "BFA", "source": "HOTOSM/OSM", "latitude": 12.00194, "longitude": -1.798279 }, "geometry": { "type": "Point", "coordinates": [ -1.798279, 12.0019398 ] } },
{ "type": "Feature", "properties": { "osm_id": 6051763747, "name": "Ecole primaire", "amenity": "school", "building": null, "operator": "", "capacity": "", "addr_city": "", "country": "Burkina Faso", "iso3": "BFA", "source": "HOTOSM/OSM", "latitude": 12.314983, "longitude": -1.420875 }, "geometry": { "type": "Point", "coordinates": [ -1.4208747, 12.3149826 ] } },
{ "type": "Feature", "properties": { "osm_id": 6050183743, "name": "Ecole", "amenity": "school", "building": null, "operator": "", "capacity": "", "addr_city": "", "country": "Burkina Faso", "iso3": "BFA", "source": "HOTOSM/OSM", "latitude": 12.306425, "longitude": -1.417832 }, "geometry": { "type": "Point", "coordinates": [ -1.4178318, 12.3064252 ] } },
{ "type": "Feature", "properties": { "osm_id": 6036682173, "name": "", "amenity": "kindergarten", "building": null, "operator": "", "capacity": "", "addr_city": "", "country": "Burkina Faso", "iso3": "BFA", "source": "HOTOSM/OSM", "latitude": 12.470143, "longitude": -3.467935 }, "geometry": { "type": "Point", "coordinates": [ -3.4679353, 12.4701429 ] } },
{ "type": "Feature", "properties": { "osm_id": 6036682103, "name": "CEEP La Joie des Enfants", "amenity": "kindergarten", "building": null, "operator": "", "capacity": "", "addr_city": "", "country": "Burkina Faso", "iso3": "BFA", "source": "HOTOSM/OSM", "latitude": 12.468168, "longitude": -3.448339 }, "geometry": { "type": "Point", "coordinates": [ -3.4483391, 12.4681683 ] } },
{ "type": "Feature", "properties": { "osm_id": 6036682157, "name": "", "amenity": "kindergarten", "building": null, "operator": "", "capacity": "", "addr_city": "", "country": "Burkina Faso", "iso3": "BFA", "source": "HOTOSM/OSM", "latitude": 12.462217, "longitude": -3.46559 }, "geometry": { "type": "Point", "coordinates": [ -3.4655897, 12.4622166 ] } },
{ "type": "Feature", "properties": { "osm_id": 8250215204, "name": "Préscolaire", "amenity": "kindergarten", "building": null, "operator": "", "capacity": "", "addr_city": "", "country": "Burkina Faso", "iso3": "BFA", "source": "HOTOSM/OSM", "latitude": 11.836794, "longitude": -1.750762 }, "geometry": { "type": "Point", "coordinates": [ -1.7507623, 11.8367943 ] } },
{ "type": "Feature", "properties": { "osm_id": 12272884367, "name": "Etablissement préscolaire", "amenity": "kindergarten", "building": null, "operator": "", "capacity": "", "addr_city": "", "country": "Burkina Faso", "iso3": "BFA", "source": "HOTOSM/OSM", "latitude": 11.950245, "longitude": -1.237986 }, "geometry": { "type": "Point", "coordinates": [ -1.2379856, 11.9502451 ] } },
{ "type": "Feature", "properties": { "osm_id": 8283356142, "name": "Ecole primaire de Goumsin A", "amenity": "school", "building": null, "operator": "", "capacity": "", "addr_city": "", "country": "Burkina Faso", "iso3": "BFA", "source": "HOTOSM/OSM", "latitude": 12.005901, "longitude": -1.815 }, "geometry": { "type": "Point", "coordinates": [ -1.8149999, 12.0059014 ] } },
{ "type": "Feature", "properties": { "osm_id": 8283356159, "name": "CEG de Goumsin", "amenity": "school", "building": null, "operator": "", "capacity": "", "addr_city": "", "country": "Burkina Faso", "iso3": "BFA", "source": "HOTOSM/OSM", "latitude": 12.007964, "longitude": -1.815493 }, "geometry": { "type": "Point", "coordinates": [ -1.8154934, 12.0079635 ] } },
{ "type": "Feature", "properties": { "osm_id": 11917434385, "name": "Ecole primaire", "amenity": "school", "building": null, "operator": "", "capacity": "", "addr_city": "", "country": "Burkina Faso", "iso3": "BFA", "source": "HOTOSM/OSM", "latitude": 12.60564, "longitude": -1.798928 }, "geometry": { "type": "Point", "coordinates": [ -1.7989281, 12.6056397 ] } },
{ "type": "Feature", "properties": { "osm_id": 6050113453, "name": "Ecole primaire", "amenity": "school", "building": null, "operator": "", "capacity": "", "addr_city": "", "country": "Burkina Faso", "iso3": "BFA", "source": "HOTOSM/OSM", "latitude": 12.301251, "longitude": -1.419393 }, "geometry": { "type": "Point", "coordinates": [ -1.4193928, 12.3012515 ] } },
{ "type": "Feature", "properties": { "osm_id": 6050113779, "name": "Ecole", "amenity": "school", "building": null, "operator": "", "capacity": "", "addr_city": "", "country": "Burkina Faso", "iso3": "BFA", "source": "HOTOSM/OSM", "latitude": 12.301879, "longitude": -1.416048 }, "geometry": { "type": "Point", "coordinates": [ -1.4160481, 12.3018791 ] } },
{ "type": "Feature", "properties": { "osm_id": 5752961424, "name": "Lycée Évangélique Bethel", "amenity": "school", "building": null, "operator": "", "capacity": "", "addr_city": "", "country": "Burkina Faso", "iso3": "BFA", "source": "HOTOSM/OSM", "latitude": 12.162353, "longitude": -1.560045 }, "geometry": { "type": "Point", "coordinates": [ -1.5600449, 12.1623533 ] } },
{ "type": "Feature", "properties": { "osm_id": 6043482877, "name": "Ecole", "amenity": "school", "building": null, "operator": "", "capacity": "", "addr_city": "", "country": "Burkina Faso", "iso3": "BFA", "source": "HOTOSM/OSM", "latitude": 12.311559, "longitude": -1.40627 }, "geometry": { "type": "Point", "coordinates": [ -1.4062701, 12.3115589 ] } },
{ "type": "Feature", "properties": { "osm_id": 6043483348, "name": "Ecole", "amenity": "school", "building": null, "operator": "", "capacity": "", "addr_city": "", "country": "Burkina Faso", "iso3": "BFA", "source": "HOTOSM/OSM", "latitude": 12.31541, "longitude": -1.408499 }, "geometry": { "type": "Point", "coordinates": [ -1.408499, 12.3154097 ] } },
{ "type": "Feature", "properties": { "osm_id": 6042181575, "name": "Ecole primaire de Kolan", "amenity": "school", "building": null, "operator": "", "capacity": "", "addr_city": "", "country": "Burkina Faso", "iso3": "BFA", "source": "HOTOSM/OSM", "latitude": 12.656169, "longitude": -2.795067 }, "geometry": { "type": "Point", "coordinates": [ -2.795067, 12.6561693 ] } },
{ "type": "Feature", "properties": { "osm_id": 6042028893, "name": "Ecole primaire de Sien", "amenity": "school", "building": null, "operator": "", "capacity": "", "addr_city": "", "country": "Burkina Faso", "iso3": "BFA", "source": "HOTOSM/OSM", "latitude": 12.689158, "longitude": -2.899167 }, "geometry": { "type": "Point", "coordinates": [ -2.8991675, 12.6891575 ] } },
{ "type": "Feature", "properties": { "osm_id": 6042028916, "name": "Lycée privé Moderne Saint Moïse", "amenity": "school", "building": null, "operator": "", "capacity": "", "addr_city": "", "country": "Burkina Faso", "iso3": "BFA", "source": "HOTOSM/OSM", "latitude": 12.693645, "longitude": -2.889874 }, "geometry": { "type": "Point", "coordinates": [ -2.8898737, 12.6936451 ] } },
{ "type": "Feature", "properties": { "osm_id": 9776427172, "name": "Ecole primaire", "amenity": "school", "building": null, "operator": "", "capacity": "", "addr_city": "", "country": "Burkina Faso", "iso3": "BFA", "source": "HOTOSM/OSM", "latitude": 12.297301, "longitude": -2.137674 }, "geometry": { "type": "Point", "coordinates": [ -2.1376736, 12.2973015 ] } },
{ "type": "Feature", "properties": { "osm_id": 11916194219, "name": "Ecole primaire", "amenity": "school", "building": null, "operator": "", "capacity": "", "addr_city": "", "country": "Burkina Faso", "iso3": "BFA", "source": "HOTOSM/OSM", "latitude": 12.587308, "longitude": -1.774398 }, "geometry": { "type": "Point", "coordinates": [ -1.7743979, 12.5873083 ] } },
{ "type": "Feature", "properties": { "osm_id": 11916194366, "name": "Medersa", "amenity": "school", "building": null, "operator": "", "capacity": "", "addr_city": "", "country": "Burkina Faso", "iso3": "BFA", "source": "HOTOSM/OSM", "latitude": 12.590567, "longitude": -1.775463 }, "geometry": { "type": "Point", "coordinates": [ -1.7754628, 12.5905674 ] } },
{ "type": "Feature", "properties": { "osm_id": 11916194624, "name": "CEG de Roglbanga", "amenity": "school", "building": null, "operator": "", "capacity": "", "addr_city": "", "country": "Burkina Faso", "iso3": "BFA", "source": "HOTOSM/OSM", "latitude": 12.626679, "longitude": -1.734808 }, "geometry": { "type": "Point", "coordinates": [ -1.7348085, 12.6266788 ] } },
{ "type": "Feature", "properties": { "osm_id": 5714864333, "name": "Ecole primaire A de Toanghin", "amenity": "school", "building": null, "operator": "", "capacity": "", "addr_city": "", "country": "Burkina Faso", "iso3": "BFA", "source": "HOTOSM/OSM", "latitude": 11.998106, "longitude": -1.24522 }, "geometry": { "type": "Point", "coordinates": [ -1.2452203, 11.9981064 ] } },
{ "type": "Feature", "properties": { "osm_id": 6041977829, "name": "Lycée privé", "amenity": "school", "building": null, "operator": "", "capacity": "", "addr_city": "", "country": "Burkina Faso", "iso3": "BFA", "source": "HOTOSM/OSM", "latitude": 12.675835, "longitude": -2.916741 }, "geometry": { "type": "Point", "coordinates": [ -2.9167414, 12.6758355 ] } },
{ "type": "Feature", "properties": { "osm_id": 6041977820, "name": "CEG de Zouma", "amenity": "school", "building": null, "operator": "", "capacity": "", "addr_city": "", "country": "Burkina Faso", "iso3": "BFA", "source": "HOTOSM/OSM", "latitude": 12.66099, "longitude": -2.940873 }, "geometry": { "type": "Point", "coordinates": [ -2.9408732, 12.6609898 ] } },
{ "type": "Feature", "properties": { "osm_id": 11901695153, "name": "Ecole primaire Yandingha", "amenity": "school", "building": null, "operator": "", "capacity": "", "addr_city": "", "country": "Burkina Faso", "iso3": "BFA", "source": "HOTOSM/OSM", "latitude": 12.584727, "longitude": -1.674833 }, "geometry": { "type": "Point", "coordinates": [ -1.674833, 12.5847272 ] } },
{ "type": "Feature", "properties": { "osm_id": 6036682158, "name": "Ecole primaire", "amenity": "school", "building": null, "operator": "", "capacity": "", "addr_city": "", "country": "Burkina Faso", "iso3": "BFA", "source": "HOTOSM/OSM", "latitude": 12.461259, "longitude": -3.462051 }, "geometry": { "type": "Point", "coordinates": [ -3.4620506, 12.4612594 ] } },
{ "type": "Feature", "properties": { "osm_id": 6036682159, "name": "Ecole primaire", "amenity": "school", "building": null, "operator": "", "capacity": "", "addr_city": "", "country": "Burkina Faso", "iso3": "BFA", "source": "HOTOSM/OSM", "latitude": 12.459596, "longitude": -3.463373 }, "geometry": { "type": "Point", "coordinates": [ -3.4633729, 12.4595963 ] } },
{ "type": "Feature", "properties": { "osm_id": 6036682168, "name": "Lycée Provincial de Dédougou", "amenity": "school", "building": null, "operator": "", "capacity": "", "addr_city": "", "country": "Burkina Faso", "iso3": "BFA", "source": "HOTOSM/OSM", "latitude": 12.464062, "longitude": -3.468212 }, "geometry": { "type": "Point", "coordinates": [ -3.4682116, 12.4640617 ] } },
{ "type": "Feature", "properties": { "osm_id": 6036682171, "name": "Ecole primaire", "amenity": "school", "building": null, "operator": "", "capacity": "", "addr_city": "", "country": "Burkina Faso", "iso3": "BFA", "source": "HOTOSM/OSM", "latitude": 12.48412, "longitude": -3.47494 }, "geometry": { "type": "Point", "coordinates": [ -3.4749399, 12.4841198 ] } },
{ "type": "Feature", "properties": { "osm_id": 6036682172, "name": "Ecole primaire", "amenity": "school", "building": null, "operator": "", "capacity": "", "addr_city": "", "country": "Burkina Faso", "iso3": "BFA", "source": "HOTOSM/OSM", "latitude": 12.479626, "longitude": -3.467466 }, "geometry": { "type": "Point", "coordinates": [ -3.4674659, 12.4796259 ] } },
{ "type": "Feature", "properties": { "osm_id": 6036682177, "name": "Ecole primaire", "amenity": "school", "building": null, "operator": "", "capacity": "", "addr_city": "", "country": "Burkina Faso", "iso3": "BFA", "source": "HOTOSM/OSM", "latitude": 12.470172, "longitude": -3.456329 }, "geometry": { "type": "Point", "coordinates": [ -3.4563294, 12.4701718 ] } },
{ "type": "Feature", "properties": { "osm_id": 6036680235, "name": "Collège privé Avenir", "amenity": "school", "building": null, "operator": "", "capacity": "", "addr_city": "", "country": "Burkina Faso", "iso3": "BFA", "source": "HOTOSM/OSM", "latitude": 12.480178, "longitude": -3.433485 }, "geometry": { "type": "Point", "coordinates": [ -3.433485, 12.4801785 ] } },
{ "type": "Feature", "properties": { "osm_id": 6036680266, "name": "Ecole primaire Grand Forakuy B", "amenity": "school", "building": null, "operator": "", "capacity": "", "addr_city": "", "country": "Burkina Faso", "iso3": "BFA", "source": "HOTOSM/OSM", "latitude": 12.468566, "longitude": -3.439284 }, "geometry": { "type": "Point", "coordinates": [ -3.439284, 12.4685663 ] } },
{ "type": "Feature", "properties": { "osm_id": 6036680250, "name": "Collège privé Moderne de La Jeunesse", "amenity": "school", "building": null, "operator": "", "capacity": "", "addr_city": "", "country": "Burkina Faso", "iso3": "BFA", "source": "HOTOSM/OSM", "latitude": 12.466514, "longitude": -3.430627 }, "geometry": { "type": "Point", "coordinates": [ -3.4306271, 12.4665144 ] } },
{ "type": "Feature", "properties": { "osm_id": 6036680257, "name": "Collège franco-arabe d'Aroul Istikama", "amenity": "school", "building": null, "operator": "", "capacity": "", "addr_city": "", "country": "Burkina Faso", "iso3": "BFA", "source": "HOTOSM/OSM", "latitude": 12.467388, "longitude": -3.433474 }, "geometry": { "type": "Point", "coordinates": [ -3.4334743, 12.4673878 ] } },
{ "type": "Feature", "properties": { "osm_id": 6036680284, "name": "Lycée privé Bethel", "amenity": "school", "building": null, "operator": "", "capacity": "", "addr_city": "", "country": "Burkina Faso", "iso3": "BFA", "source": "HOTOSM/OSM", "latitude": 12.470206, "longitude": -3.444973 }, "geometry": { "type": "Point", "coordinates": [ -3.4449729, 12.4702058 ] } },
{ "type": "Feature", "properties": { "osm_id": 6036682102, "name": "Ecole primaire privée La Clarté", "amenity": "school", "building": null, "operator": "", "capacity": "", "addr_city": "", "country": "Burkina Faso", "iso3": "BFA", "source": "HOTOSM/OSM", "latitude": 12.467665, "longitude": -3.448382 }, "geometry": { "type": "Point", "coordinates": [ -3.448382, 12.4676654 ] } },
{ "type": "Feature", "properties": { "osm_id": 6036682108, "name": "Ecole primaire Grans Forakuy C", "amenity": "school", "building": null, "operator": "", "capacity": "", "addr_city": "", "country": "Burkina Faso", "iso3": "BFA", "source": "HOTOSM/OSM", "latitude": 12.464845, "longitude": -3.450429 }, "geometry": { "type": "Point", "coordinates": [ -3.4504285, 12.4648448 ] } },
{ "type": "Feature", "properties": { "osm_id": 6036682146, "name": "Ecole primaire", "amenity": "school", "building": null, "operator": "", "capacity": "", "addr_city": "", "country": "Burkina Faso", "iso3": "BFA", "source": "HOTOSM/OSM", "latitude": 12.436218, "longitude": -3.45264 }, "geometry": { "type": "Point", "coordinates": [ -3.45264, 12.4362177 ] } },
{ "type": "Feature", "properties": { "osm_id": 6036682148, "name": "Ecole primaire", "amenity": "school", "building": null, "operator": "", "capacity": "", "addr_city": "", "country": "Burkina Faso", "iso3": "BFA", "source": "HOTOSM/OSM", "latitude": 12.448019, "longitude": -3.451192 }, "geometry": { "type": "Point", "coordinates": [ -3.4511916, 12.4480186 ] } },
{ "type": "Feature", "properties": { "osm_id": 6036682149, "name": "Lycée privé Sainte Cécile", "amenity": "school", "building": null, "operator": "", "capacity": "", "addr_city": "", "country": "Burkina Faso", "iso3": "BFA", "source": "HOTOSM/OSM", "latitude": 12.44171, "longitude": -3.451394 }, "geometry": { "type": "Point", "coordinates": [ -3.4513941, 12.4417103 ] } },
{ "type": "Feature", "properties": { "osm_id": 6036682150, "name": "Ecole primaire Sainte Cécile", "amenity": "school", "building": null, "operator": "", "capacity": "", "addr_city": "", "country": "Burkina Faso", "iso3": "BFA", "source": "HOTOSM/OSM", "latitude": 12.4423, "longitude": -3.452451 }, "geometry": { "type": "Point", "coordinates": [ -3.4524509, 12.4422996 ] } },
{ "type": "Feature", "properties": { "osm_id": 6036682151, "name": "CEG/Lycée", "amenity": "school", "building": null, "operator": "", "capacity": "", "addr_city": "", "country": "Burkina Faso", "iso3": "BFA", "source": "HOTOSM/OSM", "latitude": 12.447596, "longitude": -3.449533 }, "geometry": { "type": "Point", "coordinates": [ -3.4495327, 12.4475956 ] } },
{ "type": "Feature", "properties": { "osm_id": 6036682152, "name": "CEG/Lycée", "amenity": "school", "building": null, "operator": "", "capacity": "", "addr_city": "", "country": "Burkina Faso", "iso3": "BFA", "source": "HOTOSM/OSM", "latitude": 12.447909, "longitude": -3.450801 }, "geometry": { "type": "Point", "coordinates": [ -3.4508014, 12.4479086 ] } },
{ "type": "Feature", "properties": { "osm_id": 6036682153, "name": "Ecole primaire", "amenity": "school", "building": null, "operator": "", "capacity": "", "addr_city": "", "country": "Burkina Faso", "iso3": "BFA", "source": "HOTOSM/OSM", "latitude": 12.450113, "longitude": -3.447451 }, "geometry": { "type": "Point", "coordinates": [ -3.4474513, 12.4501126 ] } },
{ "type": "Feature", "properties": { "osm_id": 6036682156, "name": "Ecole primaire", "amenity": "school", "building": null, "operator": "", "capacity": "", "addr_city": "", "country": "Burkina Faso", "iso3": "BFA", "source": "HOTOSM/OSM", "latitude": 12.460238, "longitude": -3.463904 }, "geometry": { "type": "Point", "coordinates": [ -3.463904, 12.460238 ] } },
{ "type": "Feature", "properties": { "osm_id": 6036336256, "name": "Ecole primaire de Souri B", "amenity": "school", "building": null, "operator": "", "capacity": "", "addr_city": "", "country": "Burkina Faso", "iso3": "BFA", "source": "HOTOSM/OSM", "latitude": 12.425664, "longitude": -3.513369 }, "geometry": { "type": "Point", "coordinates": [ -3.5133693, 12.4256644 ] } },
{ "type": "Feature", "properties": { "osm_id": 9767298457, "name": "Ecole", "amenity": "school", "building": null, "operator": "", "capacity": "", "addr_city": "", "country": "Burkina Faso", "iso3": "BFA", "source": "HOTOSM/OSM", "latitude": 12.303292, "longitude": -2.129934 }, "geometry": { "type": "Point", "coordinates": [ -2.1299341, 12.3032923 ] } },
{ "type": "Feature", "properties": { "osm_id": 8258583322, "name": "Ecole primaire", "amenity": "school", "building": null, "operator": "", "capacity": "", "addr_city": "", "country": "Burkina Faso", "iso3": "BFA", "source": "HOTOSM/OSM", "latitude": 11.946674, "longitude": -1.831001 }, "geometry": { "type": "Point", "coordinates": [ -1.8310006, 11.9466737 ] } },
{ "type": "Feature", "properties": { "osm_id": 6036283669, "name": "Ecole primaire de Kamandéna", "amenity": "school", "building": null, "operator": "", "capacity": "", "addr_city": "", "country": "Burkina Faso", "iso3": "BFA", "source": "HOTOSM/OSM", "latitude": 12.383591, "longitude": -3.530922 }, "geometry": { "type": "Point", "coordinates": [ -3.5309216, 12.3835912 ] } },
{ "type": "Feature", "properties": { "osm_id": 8255957411, "name": "Ecole primaire de Basnéré", "amenity": "school", "building": null, "operator": "", "capacity": "", "addr_city": "", "country": "Burkina Faso", "iso3": "BFA", "source": "HOTOSM/OSM", "latitude": 11.910247, "longitude": -1.787522 }, "geometry": { "type": "Point", "coordinates": [ -1.787522, 11.9102473 ] } },
{ "type": "Feature", "properties": { "osm_id": 9764974117, "name": "Ecole", "amenity": "school", "building": null, "operator": "", "capacity": "", "addr_city": "", "country": "Burkina Faso", "iso3": "BFA", "source": "HOTOSM/OSM", "latitude": 12.305229, "longitude": -2.055154 }, "geometry": { "type": "Point", "coordinates": [ -2.0551541, 12.3052289 ] } },
{ "type": "Feature", "properties": { "osm_id": 9765029066, "name": "Ecole", "amenity": "school", "building": null, "operator": "", "capacity": "", "addr_city": "", "country": "Burkina Faso", "iso3": "BFA", "source": "HOTOSM/OSM", "latitude": 12.304992, "longitude": -2.076282 }, "geometry": { "type": "Point", "coordinates": [ -2.0762819, 12.3049918 ] } },
{ "type": "Feature", "properties": { "osm_id": 6450530579, "name": "Ecole primaire", "amenity": "school", "building": null, "operator": "", "capacity": "", "addr_city": "", "country": "Burkina Faso", "iso3": "BFA", "source": "HOTOSM/OSM", "latitude": 12.27419, "longitude": -2.017871 }, "geometry": { "type": "Point", "coordinates": [ -2.0178714, 12.2741902 ] } },
{ "type": "Feature", "properties": { "osm_id": 8251732129, "name": "Ecole primaire", "amenity": "school", "building": null, "operator": "", "capacity": "", "addr_city": "", "country": "Burkina Faso", "iso3": "BFA", "source": "HOTOSM/OSM", "latitude": 11.864167, "longitude": -1.759645 }, "geometry": { "type": "Point", "coordinates": [ -1.7596445, 11.8641669 ] } },
{ "type": "Feature", "properties": { "osm_id": 8250215052, "name": "CEG de Kinkirsgogo", "amenity": "school", "building": null, "operator": "", "capacity": "", "addr_city": "", "country": "Burkina Faso", "iso3": "BFA", "source": "HOTOSM/OSM", "latitude": 11.832335, "longitude": -1.741977 }, "geometry": { "type": "Point", "coordinates": [ -1.7419767, 11.8323354 ] } },
{ "type": "Feature", "properties": { "osm_id": 8250215053, "name": "Ecole primaire de Kinkirsgogo A", "amenity": "school", "building": null, "operator": "", "capacity": "", "addr_city": "", "country": "Burkina Faso", "iso3": "BFA", "source": "HOTOSM/OSM", "latitude": 11.833602, "longitude": -1.743048 }, "geometry": { "type": "Point", "coordinates": [ -1.7430483, 11.8336021 ] } },
{ "type": "Feature", "properties": { "osm_id": 8250215060, "name": "Ecole primaire de Kinkirsgogo B", "amenity": "school", "building": null, "operator": "", "capacity": "", "addr_city": "", "country": "Burkina Faso", "iso3": "BFA", "source": "HOTOSM/OSM", "latitude": 11.833212, "longitude": -1.759302 }, "geometry": { "type": "Point", "coordinates": [ -1.7593025, 11.8332122 ] } },
{ "type": "Feature", "properties": { "osm_id": 5752924431, "name": "COMPLEXE SCOLAIRE BON PASTEUR", "amenity": "school", "building": null, "operator": "", "capacity": "", "addr_city": "", "country": "Burkina Faso", "iso3": "BFA", "source": "HOTOSM/OSM", "latitude": 12.18672, "longitude": -1.641988 }, "geometry": { "type": "Point", "coordinates": [ -1.6419883, 12.18672 ] } },
{ "type": "Feature", "properties": { "osm_id": 10959836691, "name": "Ecole primaire", "amenity": "school", "building": null, "operator": "", "capacity": "", "addr_city": "", "country": "Burkina Faso", "iso3": "BFA", "source": "HOTOSM/OSM", "latitude": 12.209425, "longitude": -1.659939 }, "geometry": { "type": "Point", "coordinates": [ -1.6599387, 12.2094251 ] } },
{ "type": "Feature", "properties": { "osm_id": 13540438810, "name": "Ecole primaire", "amenity": "school", "building": null, "operator": "", "capacity": "", "addr_city": "", "country": "Burkina Faso", "iso3": "BFA", "source": "HOTOSM/OSM", "latitude": 13.522536, "longitude": -2.153774 }, "geometry": { "type": "Point", "coordinates": [ -2.1537736, 13.5225358 ] } },
{ "type": "Feature", "properties": { "osm_id": 13540439146, "name": "Ecole primaire", "amenity": "school", "building": null, "operator": "", "capacity": "", "addr_city": "", "country": "Burkina Faso", "iso3": "BFA", "source": "HOTOSM/OSM", "latitude": 13.520792, "longitude": -2.148586 }, "geometry": { "type": "Point", "coordinates": [ -2.1485862, 13.5207924 ] } },
{ "type": "Feature", "properties": { "osm_id": 13540498148, "name": "Ecole primaire", "amenity": "school", "building": null, "operator": "", "capacity": "", "addr_city": "", "country": "Burkina Faso", "iso3": "BFA", "source": "HOTOSM/OSM", "latitude": 13.514651, "longitude": -2.178341 }, "geometry": { "type": "Point", "coordinates": [ -2.1783413, 13.5146508 ] } },
{ "type": "Feature", "properties": { "osm_id": 6034076820, "name": "Ecole primaire de Worokui", "amenity": "school", "building": null, "operator": "", "capacity": "", "addr_city": "", "country": "Burkina Faso", "iso3": "BFA", "source": "HOTOSM/OSM", "latitude": 12.315399, "longitude": -3.508506 }, "geometry": { "type": "Point", "coordinates": [ -3.5085064, 12.3153992 ] } },
{ "type": "Feature", "properties": { "osm_id": 6034076842, "name": "CEG de Kari", "amenity": "school", "building": null, "operator": "", "capacity": "", "addr_city": "", "country": "Burkina Faso", "iso3": "BFA", "source": "HOTOSM/OSM", "latitude": 12.299891, "longitude": -3.552326 }, "geometry": { "type": "Point", "coordinates": [ -3.5523257, 12.2998907 ] } },
{ "type": "Feature", "properties": { "osm_id": 6034076855, "name": "Ecole primaire de Kari A", "amenity": "school", "building": null, "operator": "", "capacity": "", "addr_city": "", "country": "Burkina Faso", "iso3": "BFA", "source": "HOTOSM/OSM", "latitude": 12.296825, "longitude": -3.561767 }, "geometry": { "type": "Point", "coordinates": [ -3.561767, 12.2968246 ] } },
{ "type": "Feature", "properties": { "osm_id": 6034076856, "name": "Ecole primaire de Kari B", "amenity": "school", "building": null, "operator": "", "capacity": "", "addr_city": "", "country": "Burkina Faso", "iso3": "BFA", "source": "HOTOSM/OSM", "latitude": 12.293439, "longitude": -3.551856 }, "geometry": { "type": "Point", "coordinates": [ -3.5518563, 12.2934386 ] } },
{ "type": "Feature", "properties": { "osm_id": 6034077109, "name": "Ecole primaire de Zakuy", "amenity": "school", "building": null, "operator": "", "capacity": "", "addr_city": "", "country": "Burkina Faso", "iso3": "BFA", "source": "HOTOSM/OSM", "latitude": 12.282296, "longitude": -3.512133 }, "geometry": { "type": "Point", "coordinates": [ -3.5121328, 12.2822965 ] } },
{ "type": "Feature", "properties": { "osm_id": 6034077116, "name": "Ecole primaire de Zéoula", "amenity": "school", "building": null, "operator": "", "capacity": "", "addr_city": "", "country": "Burkina Faso", "iso3": "BFA", "source": "HOTOSM/OSM", "latitude": 12.264659, "longitude": -3.483279 }, "geometry": { "type": "Point", "coordinates": [ -3.4832789, 12.2646591 ] } },
{ "type": "Feature", "properties": { "osm_id": 6034077117, "name": "Ecole primaire", "amenity": "school", "building": null, "operator": "", "capacity": "", "addr_city": "", "country": "Burkina Faso", "iso3": "BFA", "source": "HOTOSM/OSM", "latitude": 12.23711, "longitude": -3.466044 }, "geometry": { "type": "Point", "coordinates": [ -3.4660444, 12.2371097 ] } },
{ "type": "Feature", "properties": { "osm_id": 6034007634, "name": "Ecole primaire de Karo-Dona", "amenity": "school", "building": null, "operator": "", "capacity": "", "addr_city": "", "country": "Burkina Faso", "iso3": "BFA", "source": "HOTOSM/OSM", "latitude": 12.283384, "longitude": -3.334935 }, "geometry": { "type": "Point", "coordinates": [ -3.3349353, 12.2833841 ] } },
{ "type": "Feature", "properties": { "osm_id": 6033645762, "name": "Ecole primaire Fakouna A", "amenity": "school", "building": null, "operator": "", "capacity": "", "addr_city": "", "country": "Burkina Faso", "iso3": "BFA", "source": "HOTOSM/OSM", "latitude": 12.356003, "longitude": -3.432609 }, "geometry": { "type": "Point", "coordinates": [ -3.4326093, 12.3560032 ] } },
{ "type": "Feature", "properties": { "osm_id": 6033617049, "name": "Ecole primaire Passakonga A", "amenity": "school", "building": null, "operator": "", "capacity": "", "addr_city": "", "country": "Burkina Faso", "iso3": "BFA", "source": "HOTOSM/OSM", "latitude": 12.513298, "longitude": -3.431217 }, "geometry": { "type": "Point", "coordinates": [ -3.4312172, 12.513298 ] } },
{ "type": "Feature", "properties": { "osm_id": 6033617185, "name": "Ecole", "amenity": "school", "building": null, "operator": "", "capacity": "", "addr_city": "", "country": "Burkina Faso", "iso3": "BFA", "source": "HOTOSM/OSM", "latitude": 12.490235, "longitude": -3.46639 }, "geometry": { "type": "Point", "coordinates": [ -3.4663904, 12.4902346 ] } },
{ "type": "Feature", "properties": { "osm_id": 6033617280, "name": "CEG/Collège/Lycée", "amenity": "school", "building": null, "operator": "", "capacity": "", "addr_city": "", "country": "Burkina Faso", "iso3": "BFA", "source": "HOTOSM/OSM", "latitude": 12.49383, "longitude": -3.462254 }, "geometry": { "type": "Point", "coordinates": [ -3.4622544, 12.4938301 ] } },
{ "type": "Feature", "properties": { "osm_id": 6033617281, "name": "Ecole", "amenity": "school", "building": null, "operator": "", "capacity": "", "addr_city": "", "country": "Burkina Faso", "iso3": "BFA", "source": "HOTOSM/OSM", "latitude": 12.493175, "longitude": -3.462381 }, "geometry": { "type": "Point", "coordinates": [ -3.4623805, 12.4931754 ] } },
{ "type": "Feature", "properties": { "osm_id": 6033572993, "name": "Collège privé Yorossi de Soukuy", "amenity": "school", "building": null, "operator": "", "capacity": "", "addr_city": "", "country": "Burkina Faso", "iso3": "BFA", "source": "HOTOSM/OSM", "latitude": 12.607522, "longitude": -3.477538 }, "geometry": { "type": "Point", "coordinates": [ -3.4775376, 12.6075218 ] } },
{ "type": "Feature", "properties": { "osm_id": 6033573050, "name": "Ecole primaire Soukuy B", "amenity": "school", "building": null, "operator": "", "capacity": "", "addr_city": "", "country": "Burkina Faso", "iso3": "BFA", "source": "HOTOSM/OSM", "latitude": 12.601467, "longitude": -3.472567 }, "geometry": { "type": "Point", "coordinates": [ -3.4725675, 12.6014673 ] } },
{ "type": "Feature", "properties": { "osm_id": 6033573051, "name": "Ecole primaire de Soukuy A", "amenity": "school", "building": null, "operator": "", "capacity": "", "addr_city": "", "country": "Burkina Faso", "iso3": "BFA", "source": "HOTOSM/OSM", "latitude": 12.602014, "longitude": -3.471776 }, "geometry": { "type": "Point", "coordinates": [ -3.4717762, 12.6020144 ] } },
{ "type": "Feature", "properties": { "osm_id": 6033573075, "name": "Ecole ND", "amenity": "school", "building": null, "operator": "", "capacity": "", "addr_city": "", "country": "Burkina Faso", "iso3": "BFA", "source": "HOTOSM/OSM", "latitude": 12.605457, "longitude": -3.451459 }, "geometry": { "type": "Point", "coordinates": [ -3.4514585, 12.6054565 ] } },
{ "type": "Feature", "properties": { "osm_id": 6033573080, "name": "Ecole primaire de Dakuy", "amenity": "school", "building": null, "operator": "", "capacity": "", "addr_city": "", "country": "Burkina Faso", "iso3": "BFA", "source": "HOTOSM/OSM", "latitude": 12.595743, "longitude": -3.42874 }, "geometry": { "type": "Point", "coordinates": [ -3.4287402, 12.5957426 ] } },
{ "type": "Feature", "properties": { "osm_id": 6033573087, "name": "Ecole primaire de Yonkuy", "amenity": "school", "building": null, "operator": "", "capacity": "", "addr_city": "", "country": "Burkina Faso", "iso3": "BFA", "source": "HOTOSM/OSM", "latitude": 12.607736, "longitude": -3.447443 }, "geometry": { "type": "Point", "coordinates": [ -3.4474433, 12.6077364 ] } },
{ "type": "Feature", "properties": { "osm_id": 6033521392, "name": "Ecole primaire de Magnimasso", "amenity": "school", "building": null, "operator": "", "capacity": "", "addr_city": "", "country": "Burkina Faso", "iso3": "BFA", "source": "HOTOSM/OSM", "latitude": 12.651016, "longitude": -3.465548 }, "geometry": { "type": "Point", "coordinates": [ -3.4655482, 12.6510163 ] } },
{ "type": "Feature", "properties": { "osm_id": 6033521393, "name": "Ecole primaire de Boron", "amenity": "school", "building": null, "operator": "", "capacity": "", "addr_city": "", "country": "Burkina Faso", "iso3": "BFA", "source": "HOTOSM/OSM", "latitude": 12.657132, "longitude": -3.492389 }, "geometry": { "type": "Point", "coordinates": [ -3.492389, 12.6571323 ] } },
{ "type": "Feature", "properties": { "osm_id": 6034136069, "name": "Ecole primaire de Koré", "amenity": "school", "building": null, "operator": "", "capacity": "", "addr_city": "", "country": "Burkina Faso", "iso3": "BFA", "source": "HOTOSM/OSM", "latitude": 12.339738, "longitude": -3.621217 }, "geometry": { "type": "Point", "coordinates": [ -3.6212169, 12.3397385 ] } },
{ "type": "Feature", "properties": { "osm_id": 5689112382, "name": "Ecole primaire de Paradé", "amenity": "school", "building": null, "operator": "", "capacity": "", "addr_city": "", "country": "Burkina Faso", "iso3": "BFA", "source": "HOTOSM/OSM", "latitude": 12.356817, "longitude": -3.334745 }, "geometry": { "type": "Point", "coordinates": [ -3.3347449, 12.3568167 ] } },
{ "type": "Feature", "properties": { "osm_id": 6033572988, "name": "Ecole primaire de Bokuy", "amenity": "school", "building": null, "operator": "", "capacity": "", "addr_city": "", "country": "Burkina Faso", "iso3": "BFA", "source": "HOTOSM/OSM", "latitude": 12.587451, "longitude": -3.465642 }, "geometry": { "type": "Point", "coordinates": [ -3.465642, 12.587451 ] } },
{ "type": "Feature", "properties": { "osm_id": 13546290340, "name": "Ecole", "amenity": "school", "building": null, "operator": "", "capacity": "", "addr_city": "", "country": "Burkina Faso", "iso3": "BFA", "source": "HOTOSM/OSM", "latitude": 12.239089, "longitude": -1.41871 }, "geometry": { "type": "Point", "coordinates": [ -1.4187102, 12.2390888 ] } },
{ "type": "Feature", "properties": { "osm_id": 6032511218, "name": "Ecole primaire de Soro", "amenity": "school", "building": null, "operator": "", "capacity": "", "addr_city": "", "country": "Burkina Faso", "iso3": "BFA", "source": "HOTOSM/OSM", "latitude": 12.779144, "longitude": -3.494575 }, "geometry": { "type": "Point", "coordinates": [ -3.494575, 12.7791442 ] } },
{ "type": "Feature", "properties": { "osm_id": 8244718075, "name": "Ecole", "amenity": "school", "building": null, "operator": "", "capacity": "", "addr_city": "", "country": "Burkina Faso", "iso3": "BFA", "source": "HOTOSM/OSM", "latitude": 11.770984, "longitude": -1.835846 }, "geometry": { "type": "Point", "coordinates": [ -1.835846, 11.7709838 ] } },
{ "type": "Feature", "properties": { "osm_id": 8244718120, "name": "Ecole", "amenity": "school", "building": null, "operator": "", "capacity": "", "addr_city": "", "country": "Burkina Faso", "iso3": "BFA", "source": "HOTOSM/OSM", "latitude": 11.769768, "longitude": -1.837194 }, "geometry": { "type": "Point", "coordinates": [ -1.8371938, 11.769768 ] } },
{ "type": "Feature", "properties": { "osm_id": 8243164119, "name": "Saïd ben Ahmad", "amenity": "school", "building": null, "operator": "", "capacity": "", "addr_city": "", "country": "Burkina Faso", "iso3": "BFA", "source": "HOTOSM/OSM", "latitude": 12.397505, "longitude": -1.618613 }, "geometry": { "type": "Point", "coordinates": [ -1.6186132, 12.3975047 ] } },
{ "type": "Feature", "properties": { "osm_id": 8243164919, "name": "Groupe Scolaire la Relève Vaillante", "amenity": "school", "building": null, "operator": "", "capacity": "", "addr_city": "", "country": "Burkina Faso", "iso3": "BFA", "source": "HOTOSM/OSM", "latitude": 12.423118, "longitude": -1.600397 }, "geometry": { "type": "Point", "coordinates": [ -1.6003966, 12.4231176 ] } },
{ "type": "Feature", "properties": { "osm_id": 8243164125, "name": "Les Écoles Privées Sainte Philomène", "amenity": "school", "building": null, "operator": "", "capacity": "", "addr_city": "", "country": "Burkina Faso", "iso3": "BFA", "source": "HOTOSM/OSM", "latitude": 12.424005, "longitude": -1.598277 }, "geometry": { "type": "Point", "coordinates": [ -1.5982765, 12.4240046 ] } },
{ "type": "Feature", "properties": { "osm_id": 6036682408, "name": "ISPESAHA Dédougou", "amenity": "college", "building": null, "operator": "", "capacity": "", "addr_city": "", "country": "Burkina Faso", "iso3": "BFA", "source": "HOTOSM/OSM", "latitude": 12.467034, "longitude": -3.464164 }, "geometry": { "type": "Point", "coordinates": [ -3.4641641, 12.4670343 ] } },
{ "type": "Feature", "properties": { "osm_id": 6036682147, "name": "Lycée professionnel", "amenity": "college", "building": null, "operator": "", "capacity": "", "addr_city": "", "country": "Burkina Faso", "iso3": "BFA", "source": "HOTOSM/OSM", "latitude": 12.434599, "longitude": -3.442111 }, "geometry": { "type": "Point", "coordinates": [ -3.442111, 12.434599 ] } },
{ "type": "Feature", "properties": { "osm_id": 6033617279, "name": "Ecole privée de santé Sainte Edwige Annexe Dédougou", "amenity": "college", "building": null, "operator": "", "capacity": "", "addr_city": "", "country": "Burkina Faso", "iso3": "BFA", "source": "HOTOSM/OSM", "latitude": 12.497856, "longitude": -3.459107 }, "geometry": { "type": "Point", "coordinates": [ -3.4591068, 12.4978563 ] } },
{ "type": "Feature", "properties": { "osm_id": 11910791798, "name": "Ecole coranique", "amenity": "school", "building": null, "operator": "", "capacity": "", "addr_city": "", "country": "Burkina Faso", "iso3": "BFA", "source": "HOTOSM/OSM", "latitude": 12.620423, "longitude": -1.727766 }, "geometry": { "type": "Point", "coordinates": [ -1.7277664, 12.6204233 ] } },
{ "type": "Feature", "properties": { "osm_id": 12851427549, "name": "CEG", "amenity": "school", "building": null, "operator": "", "capacity": "", "addr_city": "", "country": "Burkina Faso", "iso3": "BFA", "source": "HOTOSM/OSM", "latitude": 12.821612, "longitude": -1.067871 }, "geometry": { "type": "Point", "coordinates": [ -1.0678706, 12.8216116 ] } },
{ "type": "Feature", "properties": { "osm_id": 11910158844, "name": "Ecole primaire", "amenity": "school", "building": null, "operator": "", "capacity": "", "addr_city": "", "country": "Burkina Faso", "iso3": "BFA", "source": "HOTOSM/OSM", "latitude": 12.610176, "longitude": -1.724915 }, "geometry": { "type": "Point", "coordinates": [ -1.7249152, 12.6101759 ] } },
{ "type": "Feature", "properties": { "osm_id": 8240292893, "name": "Ecole primaire Bakata B", "amenity": "school", "building": null, "operator": "", "capacity": "", "addr_city": "", "country": "Burkina Faso", "iso3": "BFA", "source": "HOTOSM/OSM", "latitude": 11.779612, "longitude": -1.849258 }, "geometry": { "type": "Point", "coordinates": [ -1.8492584, 11.779612 ] } },
{ "type": "Feature", "properties": { "osm_id": 13566443349, "name": "Ecole primaire", "amenity": "school", "building": null, "operator": "", "capacity": "", "addr_city": "", "country": "Burkina Faso", "iso3": "BFA", "source": "HOTOSM/OSM", "latitude": 12.261509, "longitude": -1.434335 }, "geometry": { "type": "Point", "coordinates": [ -1.4343354, 12.2615086 ] } },
{ "type": "Feature", "properties": { "osm_id": 13566718127, "name": "Ecole", "amenity": "school", "building": null, "operator": "", "capacity": "", "addr_city": "", "country": "Burkina Faso", "iso3": "BFA", "source": "HOTOSM/OSM", "latitude": 12.257352, "longitude": -1.424621 }, "geometry": { "type": "Point", "coordinates": [ -1.4246205, 12.2573517 ] } },
{ "type": "Feature", "properties": { "osm_id": 8234523317, "name": "lycée privé Elisa", "amenity": "school", "building": null, "operator": "", "capacity": "", "addr_city": "", "country": "Burkina Faso", "iso3": "BFA", "source": "HOTOSM/OSM", "latitude": 12.3854, "longitude": -1.428712 }, "geometry": { "type": "Point", "coordinates": [ -1.4287119, 12.3854 ] } },
{ "type": "Feature", "properties": { "osm_id": 8231648356, "name": "Ecole primaire de Bouli", "amenity": "school", "building": null, "operator": "", "capacity": "", "addr_city": "", "country": "Burkina Faso", "iso3": "BFA", "source": "HOTOSM/OSM", "latitude": 11.824927, "longitude": -1.861082 }, "geometry": { "type": "Point", "coordinates": [ -1.8610816, 11.8249269 ] } },
{ "type": "Feature", "properties": { "osm_id": 8225580590, "name": "Ecole", "amenity": "school", "building": null, "operator": "", "capacity": "", "addr_city": "", "country": "Burkina Faso", "iso3": "BFA", "source": "HOTOSM/OSM", "latitude": 11.914665, "longitude": -1.855359 }, "geometry": { "type": "Point", "coordinates": [ -1.8553591, 11.9146655 ] } },
{ "type": "Feature", "properties": { "osm_id": 8222214023, "name": "Ecole primaire de Bareyiri", "amenity": "school", "building": null, "operator": "", "capacity": "", "addr_city": "", "country": "Burkina Faso", "iso3": "BFA", "source": "HOTOSM/OSM", "latitude": 12.016826, "longitude": -1.880042 }, "geometry": { "type": "Point", "coordinates": [ -1.8800421, 12.0168256 ] } },
{ "type": "Feature", "properties": { "osm_id": 8230419967, "name": "Ecole primaire de Tayalo", "amenity": "school", "building": null, "operator": "", "capacity": "", "addr_city": "", "country": "Burkina Faso", "iso3": "BFA", "source": "HOTOSM/OSM", "latitude": 11.84363, "longitude": -1.88056 }, "geometry": { "type": "Point", "coordinates": [ -1.8805598, 11.8436302 ] } },
{ "type": "Feature", "properties": { "osm_id": 8229208310, "name": "Ecole primaire de Lorou", "amenity": "school", "building": null, "operator": "", "capacity": "", "addr_city": "", "country": "Burkina Faso", "iso3": "BFA", "source": "HOTOSM/OSM", "latitude": 11.834109, "longitude": -1.942566 }, "geometry": { "type": "Point", "coordinates": [ -1.9425657, 11.8341087 ] } },
{ "type": "Feature", "properties": { "osm_id": 8227777573, "name": "Ecole primaire de Boulé-Daboré", "amenity": "school", "building": null, "operator": "", "capacity": "", "addr_city": "", "country": "Burkina Faso", "iso3": "BFA", "source": "HOTOSM/OSM", "latitude": 11.901281, "longitude": -1.894557 }, "geometry": { "type": "Point", "coordinates": [ -1.8945569, 11.9012806 ] } },
{ "type": "Feature", "properties": { "osm_id": 8227777511, "name": "Ecole primaire de Kouboulou", "amenity": "school", "building": null, "operator": "", "capacity": "", "addr_city": "", "country": "Burkina Faso", "iso3": "BFA", "source": "HOTOSM/OSM", "latitude": 11.90018, "longitude": -1.862203 }, "geometry": { "type": "Point", "coordinates": [ -1.8622027, 11.9001796 ] } },
{ "type": "Feature", "properties": { "osm_id": 8225583088, "name": "Ecole primaire de Boulé-Gala", "amenity": "school", "building": null, "operator": "", "capacity": "", "addr_city": "", "country": "Burkina Faso", "iso3": "BFA", "source": "HOTOSM/OSM", "latitude": 11.921318, "longitude": -1.84903 }, "geometry": { "type": "Point", "coordinates": [ -1.8490304, 11.9213184 ] } },
{ "type": "Feature", "properties": { "osm_id": 8222627318, "name": "Ecole", "amenity": "school", "building": null, "operator": "", "capacity": "", "addr_city": "", "country": "Burkina Faso", "iso3": "BFA", "source": "HOTOSM/OSM", "latitude": 12.004784, "longitude": -1.851548 }, "geometry": { "type": "Point", "coordinates": [ -1.8515477, 12.0047837 ] } },
{ "type": "Feature", "properties": { "osm_id": 8222627319, "name": "Ecole primaire Basme", "amenity": "school", "building": null, "operator": "", "capacity": "", "addr_city": "", "country": "Burkina Faso", "iso3": "BFA", "source": "HOTOSM/OSM", "latitude": 12.004696, "longitude": -1.848985 }, "geometry": { "type": "Point", "coordinates": [ -1.8489848, 12.0046959 ] } },
{ "type": "Feature", "properties": { "osm_id": 6025215685, "name": "LPAC K", "amenity": "school", "building": null, "operator": "", "capacity": "", "addr_city": "", "country": "Burkina Faso", "iso3": "BFA", "source": "HOTOSM/OSM", "latitude": 12.254263, "longitude": -2.37904 }, "geometry": { "type": "Point", "coordinates": [ -2.3790402, 12.2542631 ] } },
{ "type": "Feature", "properties": { "osm_id": 8220416689, "name": "Ecole primaire de Poa", "amenity": "school", "building": null, "operator": "", "capacity": "", "addr_city": "", "country": "Burkina Faso", "iso3": "BFA", "source": "HOTOSM/OSM", "latitude": 11.962892, "longitude": -1.885486 }, "geometry": { "type": "Point", "coordinates": [ -1.8854857, 11.9628916 ] } },
{ "type": "Feature", "properties": { "osm_id": 8215548626, "name": "Ecole primaire de Yada", "amenity": "school", "building": null, "operator": "", "capacity": "", "addr_city": "", "country": "Burkina Faso", "iso3": "BFA", "source": "HOTOSM/OSM", "latitude": 12.026152, "longitude": -1.965394 }, "geometry": { "type": "Point", "coordinates": [ -1.965394, 12.0261517 ] } },
{ "type": "Feature", "properties": { "osm_id": 8211422846, "name": "Ecole primaire de Singdin", "amenity": "school", "building": null, "operator": "", "capacity": "", "addr_city": "", "country": "Burkina Faso", "iso3": "BFA", "source": "HOTOSM/OSM", "latitude": 12.00845, "longitude": -1.981202 }, "geometry": { "type": "Point", "coordinates": [ -1.9812016, 12.0084501 ] } },
{ "type": "Feature", "properties": { "osm_id": 8220248770, "name": "Ecole", "amenity": "school", "building": null, "operator": "", "capacity": "", "addr_city": "", "country": "Burkina Faso", "iso3": "BFA", "source": "HOTOSM/OSM", "latitude": 11.960467, "longitude": -1.890908 }, "geometry": { "type": "Point", "coordinates": [ -1.8909077, 11.960467 ] } },
{ "type": "Feature", "properties": { "osm_id": 11907523773, "name": "Ecole coranique", "amenity": "school", "building": null, "operator": "", "capacity": "", "addr_city": "", "country": "Burkina Faso", "iso3": "BFA", "source": "HOTOSM/OSM", "latitude": 12.625015, "longitude": -1.689344 }, "geometry": { "type": "Point", "coordinates": [ -1.6893438, 12.6250155 ] } },
{ "type": "Feature", "properties": { "osm_id": 11907523786, "name": "Ecole primaire", "amenity": "school", "building": null, "operator": "", "capacity": "", "addr_city": "", "country": "Burkina Faso", "iso3": "BFA", "source": "HOTOSM/OSM", "latitude": 12.626626, "longitude": -1.688801 }, "geometry": { "type": "Point", "coordinates": [ -1.6888006, 12.6266264 ] } },
{ "type": "Feature", "properties": { "osm_id": 11907524411, "name": "Ecole primaire", "amenity": "school", "building": null, "operator": "", "capacity": "", "addr_city": "", "country": "Burkina Faso", "iso3": "BFA", "source": "HOTOSM/OSM", "latitude": 12.632662, "longitude": -1.717696 }, "geometry": { "type": "Point", "coordinates": [ -1.717696, 12.6326619 ] } },
{ "type": "Feature", "properties": { "osm_id": 11907161597, "name": "Ecole primaire", "amenity": "school", "building": null, "operator": "", "capacity": "", "addr_city": "", "country": "Burkina Faso", "iso3": "BFA", "source": "HOTOSM/OSM", "latitude": 12.647505, "longitude": -1.735871 }, "geometry": { "type": "Point", "coordinates": [ -1.7358707, 12.6475054 ] } },
{ "type": "Feature", "properties": { "osm_id": 8210327539, "name": "Ecole", "amenity": "school", "building": null, "operator": "", "capacity": "", "addr_city": "", "country": "Burkina Faso", "iso3": "BFA", "source": "HOTOSM/OSM", "latitude": 12.009808, "longitude": -2.005293 }, "geometry": { "type": "Point", "coordinates": [ -2.0052932, 12.0098078 ] } },