{
"type": "FeatureCollection",
"name": "CAF_schools",
"crs": { "type": "name", "properties": { "name": "urn:ogc:def:crs:OGC:1.3:CRS84" } },
"features": [
{ "type": "Feature", "properties": { "osm_id": 6817770982, "name": "", "amenity": "school", "building": null, "operator": "", "capacity": "", "addr_city": "", "country": "Central African Republic", "iso3": "CAF", "source": "HOTOSM/OSM", "latitude": 4.416812, "longitude": 21.927825 }, "geometry": { "type": "Point", "coordinates": [ 21.9278251, 4.416812 ] } },
{ "type": "Feature", "properties": { "osm_id": 6817975033, "name": "", "amenity": "school", "building": null, "operator": "", "capacity": "", "addr_city": "", "country": "Central African Republic", "iso3": "CAF", "source": "HOTOSM/OSM", "latitude": 4.414642, "longitude": 21.245522 }, "geometry": { "type": "Point", "coordinates": [ 21.2455217, 4.4146424 ] } },
{ "type": "Feature", "properties": { "osm_id": 4637264303, "name": "SOS village d'enfants", "amenity": "school", "building": null, "operator": "", "capacity": "", "addr_city": "", "country": "Central African Republic", "iso3": "CAF", "source": "HOTOSM/OSM", "latitude": 4.377626, "longitude": 18.622056 }, "geometry": { "type": "Point", "coordinates": [ 18.6220565, 4.3776261 ] } },
{ "type": "Feature", "properties": { "osm_id": 5012706874, "name": "Ecole Peulh", "amenity": "school", "building": null, "operator": "", "capacity": "", "addr_city": "", "country": "Central African Republic", "iso3": "CAF", "source": "HOTOSM/OSM", "latitude": 5.019849, "longitude": 25.125906 }, "geometry": { "type": "Point", "coordinates": [ 25.1259056, 5.0198489 ] } },
{ "type": "Feature", "properties": { "osm_id": 5012706882, "name": "Mboufo", "amenity": "school", "building": null, "operator": "", "capacity": "", "addr_city": "", "country": "Central African Republic", "iso3": "CAF", "source": "HOTOSM/OSM", "latitude": 5.032838, "longitude": 25.115705 }, "geometry": { "type": "Point", "coordinates": [ 25.1157047, 5.0328379 ] } },
{ "type": "Feature", "properties": { "osm_id": 4637219522, "name": "Primaire de Mandaba", "amenity": "school", "building": null, "operator": "", "capacity": "", "addr_city": "", "country": "Central African Republic", "iso3": "CAF", "source": "HOTOSM/OSM", "latitude": 4.397378, "longitude": 18.565188 }, "geometry": { "type": "Point", "coordinates": [ 18.565188, 4.3973784 ] } },
{ "type": "Feature", "properties": { "osm_id": 2689280401, "name": "École Mixte de Gbatogo", "amenity": "school", "building": null, "operator": "", "capacity": "", "addr_city": "", "country": "Central African Republic", "iso3": "CAF", "source": "HOTOSM/OSM", "latitude": 4.373608, "longitude": 17.012639 }, "geometry": { "type": "Point", "coordinates": [ 17.0126395, 4.3736079 ] } },
{ "type": "Feature", "properties": { "osm_id": 4637219526, "name": "", "amenity": "school", "building": null, "operator": "", "capacity": "", "addr_city": "", "country": "Central African Republic", "iso3": "CAF", "source": "HOTOSM/OSM", "latitude": 4.406117, "longitude": 18.54478 }, "geometry": { "type": "Point", "coordinates": [ 18.5447803, 4.4061171 ] } },
{ "type": "Feature", "properties": { "osm_id": 2382717879, "name": "Lycée Boganda", "amenity": "school", "building": null, "operator": "", "capacity": "", "addr_city": "", "country": "Central African Republic", "iso3": "CAF", "source": "HOTOSM/OSM", "latitude": 4.395714, "longitude": 18.560257 }, "geometry": { "type": "Point", "coordinates": [ 18.5602566, 4.3957135 ] } },
{ "type": "Feature", "properties": { "osm_id": 2382719618, "name": "École Normale Supérieure", "amenity": "school", "building": null, "operator": "", "capacity": "", "addr_city": "", "country": "Central African Republic", "iso3": "CAF", "source": "HOTOSM/OSM", "latitude": 4.390215, "longitude": 18.555422 }, "geometry": { "type": "Point", "coordinates": [ 18.555422, 4.390215 ] } },
{ "type": "Feature", "properties": { "osm_id": 4637848227, "name": "Frères Castors", "amenity": "school", "building": null, "operator": "", "capacity": "", "addr_city": "", "country": "Central African Republic", "iso3": "CAF", "source": "HOTOSM/OSM", "latitude": 4.376157, "longitude": 18.548903 }, "geometry": { "type": "Point", "coordinates": [ 18.5489034, 4.3761572 ] } },
{ "type": "Feature", "properties": { "osm_id": 2686011535, "name": "École Mixte de Mbanjifolo", "amenity": "school", "building": null, "operator": "", "capacity": "", "addr_city": "", "country": "Central African Republic", "iso3": "CAF", "source": "HOTOSM/OSM", "latitude": 4.036436, "longitude": 15.154165 }, "geometry": { "type": "Point", "coordinates": [ 15.1541646, 4.0364365 ] } },
{ "type": "Feature", "properties": { "osm_id": 2686011539, "name": "", "amenity": "school", "building": null, "operator": "", "capacity": "", "addr_city": "", "country": "Central African Republic", "iso3": "CAF", "source": "HOTOSM/OSM", "latitude": 4.10341, "longitude": 15.1494 }, "geometry": { "type": "Point", "coordinates": [ 15.1494, 4.10341 ] } },
{ "type": "Feature", "properties": { "osm_id": 2686011537, "name": "École Privée Brita Caline", "amenity": "school", "building": null, "operator": "", "capacity": "", "addr_city": "", "country": "Central African Republic", "iso3": "CAF", "source": "HOTOSM/OSM", "latitude": 4.097309, "longitude": 15.15279 }, "geometry": { "type": "Point", "coordinates": [ 15.1527899, 4.0973093 ] } },
{ "type": "Feature", "properties": { "osm_id": 2687803025, "name": "École Mixte de Beina-Doyemon", "amenity": "school", "building": null, "operator": "", "capacity": "", "addr_city": "", "country": "Central African Republic", "iso3": "CAF", "source": "HOTOSM/OSM", "latitude": 4.043175, "longitude": 15.552192 }, "geometry": { "type": "Point", "coordinates": [ 15.5521922, 4.0431751 ] } },
{ "type": "Feature", "properties": { "osm_id": 2382729902, "name": "École Centrafricano-Turque Galaxy", "amenity": "school", "building": null, "operator": "", "capacity": "", "addr_city": "", "country": "Central African Republic", "iso3": "CAF", "source": "HOTOSM/OSM", "latitude": 4.365385, "longitude": 18.566435 }, "geometry": { "type": "Point", "coordinates": [ 18.5664351, 4.3653847 ] } },
{ "type": "Feature", "properties": { "osm_id": 4637219533, "name": "Saint-Charles", "amenity": "school", "building": null, "operator": "", "capacity": "", "addr_city": "", "country": "Central African Republic", "iso3": "CAF", "source": "HOTOSM/OSM", "latitude": 4.360423, "longitude": 18.563695 }, "geometry": { "type": "Point", "coordinates": [ 18.5636951, 4.3604232 ] } },
{ "type": "Feature", "properties": { "osm_id": 4637140713, "name": "", "amenity": "school", "building": null, "operator": "", "capacity": "", "addr_city": "", "country": "Central African Republic", "iso3": "CAF", "source": "HOTOSM/OSM", "latitude": 4.364016, "longitude": 18.536895 }, "geometry": { "type": "Point", "coordinates": [ 18.5368952, 4.3640156 ] } },
{ "type": "Feature", "properties": { "osm_id": 4637854692, "name": "Adventiste du 7eme jour", "amenity": "school", "building": null, "operator": "", "capacity": "", "addr_city": "", "country": "Central African Republic", "iso3": "CAF", "source": "HOTOSM/OSM", "latitude": 4.369272, "longitude": 18.551594 }, "geometry": { "type": "Point", "coordinates": [ 18.5515944, 4.3692717 ] } },
{ "type": "Feature", "properties": { "osm_id": 8874864918, "name": "École primaire de Birao", "amenity": "school", "building": null, "operator": "", "capacity": "", "addr_city": "", "country": "Central African Republic", "iso3": "CAF", "source": "HOTOSM/OSM", "latitude": 10.282622, "longitude": 22.79076 }, "geometry": { "type": "Point", "coordinates": [ 22.7907599, 10.2826223 ] } },
{ "type": "Feature", "properties": { "osm_id": 4637140691, "name": "École Application", "amenity": "school", "building": null, "operator": "", "capacity": "", "addr_city": "", "country": "Central African Republic", "iso3": "CAF", "source": "HOTOSM/OSM", "latitude": 4.369966, "longitude": 18.574445 }, "geometry": { "type": "Point", "coordinates": [ 18.5744446, 4.3699655 ] } },
{ "type": "Feature", "properties": { "osm_id": 4637219531, "name": "CPI", "amenity": "school", "building": null, "operator": "", "capacity": "", "addr_city": "", "country": "Central African Republic", "iso3": "CAF", "source": "HOTOSM/OSM", "latitude": 4.357966, "longitude": 18.562212 }, "geometry": { "type": "Point", "coordinates": [ 18.5622119, 4.3579657 ] } },
{ "type": "Feature", "properties": { "osm_id": 4637264296, "name": "St Paul", "amenity": "school", "building": null, "operator": "", "capacity": "", "addr_city": "", "country": "Central African Republic", "iso3": "CAF", "source": "HOTOSM/OSM", "latitude": 4.372291, "longitude": 18.612128 }, "geometry": { "type": "Point", "coordinates": [ 18.6121284, 4.3722914 ] } },
{ "type": "Feature", "properties": { "osm_id": 4637264304, "name": "ELIM", "amenity": "school", "building": null, "operator": "", "capacity": "", "addr_city": "", "country": "Central African Republic", "iso3": "CAF", "source": "HOTOSM/OSM", "latitude": 4.36989, "longitude": 18.623648 }, "geometry": { "type": "Point", "coordinates": [ 18.6236483, 4.36989 ] } },
{ "type": "Feature", "properties": { "osm_id": 4637264300, "name": "GSEM", "amenity": "school", "building": null, "operator": "", "capacity": "", "addr_city": "", "country": "Central African Republic", "iso3": "CAF", "source": "HOTOSM/OSM", "latitude": 4.376479, "longitude": 18.610057 }, "geometry": { "type": "Point", "coordinates": [ 18.6100569, 4.3764788 ] } },
{ "type": "Feature", "properties": { "osm_id": 6128592929, "name": "École fondamentale 1 Piango", "amenity": "school", "building": null, "operator": "", "capacity": "", "addr_city": "", "country": "Central African Republic", "iso3": "CAF", "source": "HOTOSM/OSM", "latitude": 6.536141, "longitude": 21.995445 }, "geometry": { "type": "Point", "coordinates": [ 21.9954445, 6.5361412 ] } },
{ "type": "Feature", "properties": { "osm_id": 6128599870, "name": "École fondamentale 1 Yidjama", "amenity": "school", "building": null, "operator": "", "capacity": "", "addr_city": "", "country": "Central African Republic", "iso3": "CAF", "source": "HOTOSM/OSM", "latitude": 6.534995, "longitude": 21.99619 }, "geometry": { "type": "Point", "coordinates": [ 21.9961901, 6.5349954 ] } },
{ "type": "Feature", "properties": { "osm_id": 6128604408, "name": "École Gobolo", "amenity": "school", "building": null, "operator": "", "capacity": "", "addr_city": "", "country": "Central African Republic", "iso3": "CAF", "source": "HOTOSM/OSM", "latitude": 6.524554, "longitude": 22.007361 }, "geometry": { "type": "Point", "coordinates": [ 22.0073615, 6.5245536 ] } },
{ "type": "Feature", "properties": { "osm_id": 6128632918, "name": "École", "amenity": "school", "building": null, "operator": "", "capacity": "", "addr_city": "", "country": "Central African Republic", "iso3": "CAF", "source": "HOTOSM/OSM", "latitude": 6.546653, "longitude": 21.965969 }, "geometry": { "type": "Point", "coordinates": [ 21.9659691, 6.5466531 ] } },
{ "type": "Feature", "properties": { "osm_id": 2711797526, "name": "O S de Dare", "amenity": "school", "building": null, "operator": "", "capacity": "", "addr_city": "", "country": "Central African Republic", "iso3": "CAF", "source": "HOTOSM/OSM", "latitude": 5.739891, "longitude": 15.224655 }, "geometry": { "type": "Point", "coordinates": [ 15.2246554, 5.7398911 ] } },
{ "type": "Feature", "properties": { "osm_id": 2711797538, "name": "O S de Sarpande", "amenity": "school", "building": null, "operator": "", "capacity": "", "addr_city": "", "country": "Central African Republic", "iso3": "CAF", "source": "HOTOSM/OSM", "latitude": 5.637821, "longitude": 15.282139 }, "geometry": { "type": "Point", "coordinates": [ 15.2821393, 5.6378208 ] } },
{ "type": "Feature", "properties": { "osm_id": 2710960005, "name": "École de Bandiba", "amenity": "school", "building": null, "operator": "", "capacity": "", "addr_city": "", "country": "Central African Republic", "iso3": "CAF", "source": "HOTOSM/OSM", "latitude": 5.523566, "longitude": 14.786504 }, "geometry": { "type": "Point", "coordinates": [ 14.7865042, 5.5235655 ] } },
{ "type": "Feature", "properties": { "osm_id": 2706526809, "name": "École de Nao", "amenity": "school", "building": null, "operator": "", "capacity": "", "addr_city": "", "country": "Central African Republic", "iso3": "CAF", "source": "HOTOSM/OSM", "latitude": 4.52432, "longitude": 15.3167 }, "geometry": { "type": "Point", "coordinates": [ 15.3167, 4.52432 ] } },
{ "type": "Feature", "properties": { "osm_id": 2700766915, "name": "École Mixte de Godawa", "amenity": "school", "building": null, "operator": "", "capacity": "", "addr_city": "", "country": "Central African Republic", "iso3": "CAF", "source": "HOTOSM/OSM", "latitude": 4.52021, "longitude": 14.9029 }, "geometry": { "type": "Point", "coordinates": [ 14.9029, 4.52021 ] } },
{ "type": "Feature", "properties": { "osm_id": 4637219536, "name": "Institut New Tech", "amenity": "college", "building": null, "operator": "", "capacity": "", "addr_city": "", "country": "Central African Republic", "iso3": "CAF", "source": "HOTOSM/OSM", "latitude": 4.369621, "longitude": 18.558965 }, "geometry": { "type": "Point", "coordinates": [ 18.5589652, 4.369621 ] } },
{ "type": "Feature", "properties": { "osm_id": 2686011541, "name": "École Sous-Préfectorale de Gamboula", "amenity": "school", "building": null, "operator": "", "capacity": "", "addr_city": "", "country": "Central African Republic", "iso3": "CAF", "source": "HOTOSM/OSM", "latitude": 4.120269, "longitude": 15.136343 }, "geometry": { "type": "Point", "coordinates": [ 15.1363434, 4.1202686 ] } },
{ "type": "Feature", "properties": { "osm_id": 2706526802, "name": "École Mixte de Nassole", "amenity": "school", "building": null, "operator": "", "capacity": "", "addr_city": "", "country": "Central African Republic", "iso3": "CAF", "source": "HOTOSM/OSM", "latitude": 4.25793, "longitude": 15.3791 }, "geometry": { "type": "Point", "coordinates": [ 15.3791, 4.25793 ] } },
{ "type": "Feature", "properties": { "osm_id": 2700766912, "name": "École Mixte de Belissambe", "amenity": "school", "building": null, "operator": "", "capacity": "", "addr_city": "", "country": "Central African Republic", "iso3": "CAF", "source": "HOTOSM/OSM", "latitude": 4.30867, "longitude": 15.1138 }, "geometry": { "type": "Point", "coordinates": [ 15.1138, 4.30867 ] } },
{ "type": "Feature", "properties": { "osm_id": 2708840207, "name": "École Mixte de Komo-Bombo", "amenity": "school", "building": null, "operator": "", "capacity": "", "addr_city": "", "country": "Central African Republic", "iso3": "CAF", "source": "HOTOSM/OSM", "latitude": 4.773233, "longitude": 14.863256 }, "geometry": { "type": "Point", "coordinates": [ 14.8632561, 4.7732332 ] } },
{ "type": "Feature", "properties": { "osm_id": 2708840198, "name": "École Mixte de Gbambia", "amenity": "school", "building": null, "operator": "", "capacity": "", "addr_city": "", "country": "Central African Republic", "iso3": "CAF", "source": "HOTOSM/OSM", "latitude": 4.789612, "longitude": 14.98174 }, "geometry": { "type": "Point", "coordinates": [ 14.9817396, 4.7896117 ] } },
{ "type": "Feature", "properties": { "osm_id": 2708840217, "name": "École Mixte de Ndombo", "amenity": "school", "building": null, "operator": "", "capacity": "", "addr_city": "", "country": "Central African Republic", "iso3": "CAF", "source": "HOTOSM/OSM", "latitude": 4.775666, "longitude": 14.865756 }, "geometry": { "type": "Point", "coordinates": [ 14.8657559, 4.7756665 ] } },
{ "type": "Feature", "properties": { "osm_id": 2700729036, "name": "École Mixte de Oda-kete", "amenity": "school", "building": null, "operator": "", "capacity": "", "addr_city": "", "country": "Central African Republic", "iso3": "CAF", "source": "HOTOSM/OSM", "latitude": 5.80506, "longitude": 17.5694 }, "geometry": { "type": "Point", "coordinates": [ 17.5694, 5.80506 ] } },
{ "type": "Feature", "properties": { "osm_id": 2709704122, "name": "École de Lamy-Bony", "amenity": "school", "building": null, "operator": "", "capacity": "", "addr_city": "", "country": "Central African Republic", "iso3": "CAF", "source": "HOTOSM/OSM", "latitude": 5.186394, "longitude": 15.035396 }, "geometry": { "type": "Point", "coordinates": [ 15.0353959, 5.1863945 ] } },
{ "type": "Feature", "properties": { "osm_id": 2709638138, "name": "École de Nguia-Bouar", "amenity": "school", "building": null, "operator": "", "capacity": "", "addr_city": "", "country": "Central African Republic", "iso3": "CAF", "source": "HOTOSM/OSM", "latitude": 5.222293, "longitude": 14.692684 }, "geometry": { "type": "Point", "coordinates": [ 14.692684, 5.222293 ] } },
{ "type": "Feature", "properties": { "osm_id": 2827638133, "name": "École Toubanko1", "amenity": "school", "building": null, "operator": "", "capacity": "", "addr_city": "", "country": "Central African Republic", "iso3": "CAF", "source": "HOTOSM/OSM", "latitude": 6.947256, "longitude": 15.295757 }, "geometry": { "type": "Point", "coordinates": [ 15.2957569, 6.9472557 ] } },
{ "type": "Feature", "properties": { "osm_id": 2589456392, "name": "École Mixte de Bouabouziki", "amenity": "school", "building": null, "operator": "", "capacity": "", "addr_city": "", "country": "Central African Republic", "iso3": "CAF", "source": "HOTOSM/OSM", "latitude": 5.955127, "longitude": 15.527813 }, "geometry": { "type": "Point", "coordinates": [ 15.5278134, 5.9551273 ] } },
{ "type": "Feature", "properties": { "osm_id": 2589456385, "name": "École Catholique Associée", "amenity": "school", "building": null, "operator": "", "capacity": "", "addr_city": "", "country": "Central African Republic", "iso3": "CAF", "source": "HOTOSM/OSM", "latitude": 5.933694, "longitude": 15.646192 }, "geometry": { "type": "Point", "coordinates": [ 15.646192, 5.933694 ] } },
{ "type": "Feature", "properties": { "osm_id": 2589456393, "name": "École de Doaka", "amenity": "school", "building": null, "operator": "", "capacity": "", "addr_city": "", "country": "Central African Republic", "iso3": "CAF", "source": "HOTOSM/OSM", "latitude": 5.905983, "longitude": 15.713692 }, "geometry": { "type": "Point", "coordinates": [ 15.713692, 5.9059834 ] } },
{ "type": "Feature", "properties": { "osm_id": 8318011544, "name": "Lycee Moderne De Bouar", "amenity": "school", "building": null, "operator": "", "capacity": "", "addr_city": "", "country": "Central African Republic", "iso3": "CAF", "source": "HOTOSM/OSM", "latitude": 5.948859, "longitude": 15.588065 }, "geometry": { "type": "Point", "coordinates": [ 15.5880646, 5.9488586 ] } },
{ "type": "Feature", "properties": { "osm_id": 2519020326, "name": "Ecole Préfectorale Mixte B", "amenity": "school", "building": null, "operator": "", "capacity": "", "addr_city": "", "country": "Central African Republic", "iso3": "CAF", "source": "HOTOSM/OSM", "latitude": 6.493911, "longitude": 17.443992 }, "geometry": { "type": "Point", "coordinates": [ 17.4439918, 6.4939105 ] } },
{ "type": "Feature", "properties": { "osm_id": 2420383490, "name": "Ecole Villageoise de Bokongo", "amenity": "school", "building": null, "operator": "", "capacity": "", "addr_city": "", "country": "Central African Republic", "iso3": "CAF", "source": "HOTOSM/OSM", "latitude": 6.217979, "longitude": 16.455672 }, "geometry": { "type": "Point", "coordinates": [ 16.4556724, 6.2179788 ] } },
{ "type": "Feature", "properties": { "osm_id": 2833759221, "name": "Ecole Mixte de Gbakaya", "amenity": "school", "building": null, "operator": "", "capacity": "", "addr_city": "", "country": "Central African Republic", "iso3": "CAF", "source": "HOTOSM/OSM", "latitude": 6.898486, "longitude": 18.306335 }, "geometry": { "type": "Point", "coordinates": [ 18.3063354, 6.8984865 ] } },
{ "type": "Feature", "properties": { "osm_id": 2700711245, "name": "École Mixte de Maraze", "amenity": "school", "building": null, "operator": "", "capacity": "", "addr_city": "", "country": "Central African Republic", "iso3": "CAF", "source": "HOTOSM/OSM", "latitude": 6.773967, "longitude": 18.652564 }, "geometry": { "type": "Point", "coordinates": [ 18.6525637, 6.7739667 ] } },
{ "type": "Feature", "properties": { "osm_id": 2833844653, "name": "Ecole Mixte de Gofo-Mission", "amenity": "school", "building": null, "operator": "", "capacity": "", "addr_city": "", "country": "Central African Republic", "iso3": "CAF", "source": "HOTOSM/OSM", "latitude": 7.313959, "longitude": 18.321674 }, "geometry": { "type": "Point", "coordinates": [ 18.3216744, 7.3139592 ] } },
{ "type": "Feature", "properties": { "osm_id": 2426066958, "name": "Ecole Mixte Unité-Ouassi", "amenity": "school", "building": null, "operator": "", "capacity": "", "addr_city": "", "country": "Central African Republic", "iso3": "CAF", "source": "HOTOSM/OSM", "latitude": 7.384988, "longitude": 18.383816 }, "geometry": { "type": "Point", "coordinates": [ 18.3838165, 7.3849878 ] } },
{ "type": "Feature", "properties": { "osm_id": 2684604221, "name": "École de Bagaza-Kako", "amenity": "school", "building": null, "operator": "", "capacity": "", "addr_city": "", "country": "Central African Republic", "iso3": "CAF", "source": "HOTOSM/OSM", "latitude": 6.732591, "longitude": 19.289485 }, "geometry": { "type": "Point", "coordinates": [ 19.2894846, 6.7325912 ] } },
{ "type": "Feature", "properties": { "osm_id": 2708864501, "name": "École Sous-Préfectorale Mixte d'Amada-Gaza", "amenity": "school", "building": null, "operator": "", "capacity": "", "addr_city": "", "country": "Central African Republic", "iso3": "CAF", "source": "HOTOSM/OSM", "latitude": 4.771379, "longitude": 15.198455 }, "geometry": { "type": "Point", "coordinates": [ 15.1984555, 4.7713792 ] } },
{ "type": "Feature", "properties": { "osm_id": 2832370819, "name": "Ecole Mixte de Bogouna", "amenity": "school", "building": null, "operator": "", "capacity": "", "addr_city": "", "country": "Central African Republic", "iso3": "CAF", "source": "HOTOSM/OSM", "latitude": 6.68654, "longitude": 17.559727 }, "geometry": { "type": "Point", "coordinates": [ 17.5597265, 6.68654 ] } },
{ "type": "Feature", "properties": { "osm_id": 2833759224, "name": "École Mixte de Ngatoua", "amenity": "school", "building": null, "operator": "", "capacity": "", "addr_city": "", "country": "Central African Republic", "iso3": "CAF", "source": "HOTOSM/OSM", "latitude": 6.846331, "longitude": 18.281324 }, "geometry": { "type": "Point", "coordinates": [ 18.281324, 6.8463315 ] } },
{ "type": "Feature", "properties": { "osm_id": 2833844646, "name": "Ecole Kadi", "amenity": "school", "building": null, "operator": "", "capacity": "", "addr_city": "", "country": "Central African Republic", "iso3": "CAF", "source": "HOTOSM/OSM", "latitude": 7.090019, "longitude": 18.35163 }, "geometry": { "type": "Point", "coordinates": [ 18.3516302, 7.0900186 ] } },
{ "type": "Feature", "properties": { "osm_id": 2833844654, "name": "École Mixte de Lady-Banga", "amenity": "school", "building": null, "operator": "", "capacity": "", "addr_city": "", "country": "Central African Republic", "iso3": "CAF", "source": "HOTOSM/OSM", "latitude": 7.03643, "longitude": 18.346696 }, "geometry": { "type": "Point", "coordinates": [ 18.3466957, 7.0364296 ] } },
{ "type": "Feature", "properties": { "osm_id": 4637848218, "name": "Ecole maternelle Charles Luanga", "amenity": "school", "building": null, "operator": "", "capacity": "", "addr_city": "", "country": "Central African Republic", "iso3": "CAF", "source": "HOTOSM/OSM", "latitude": 4.453199, "longitude": 18.527276 }, "geometry": { "type": "Point", "coordinates": [ 18.5272758, 4.4531986 ] } },
{ "type": "Feature", "properties": { "osm_id": 4637848219, "name": "Ecole Charles Luanga", "amenity": "school", "building": null, "operator": "", "capacity": "", "addr_city": "", "country": "Central African Republic", "iso3": "CAF", "source": "HOTOSM/OSM", "latitude": 4.452615, "longitude": 18.526758 }, "geometry": { "type": "Point", "coordinates": [ 18.526758, 4.452615 ] } },
{ "type": "Feature", "properties": { "osm_id": 4637854694, "name": "Elimes de Bangui", "amenity": "school", "building": null, "operator": "", "capacity": "", "addr_city": "", "country": "Central African Republic", "iso3": "CAF", "source": "HOTOSM/OSM", "latitude": 4.384998, "longitude": 18.538642 }, "geometry": { "type": "Point", "coordinates": [ 18.5386415, 4.3849978 ] } },
{ "type": "Feature", "properties": { "osm_id": 4637264297, "name": "Lycée d'Etat des Rapides", "amenity": "school", "building": null, "operator": "", "capacity": "", "addr_city": "", "country": "Central African Republic", "iso3": "CAF", "source": "HOTOSM/OSM", "latitude": 4.371387, "longitude": 18.614602 }, "geometry": { "type": "Point", "coordinates": [ 18.6146018, 4.3713866 ] } },
{ "type": "Feature", "properties": { "osm_id": 4637264301, "name": "Ngaragba", "amenity": "school", "building": null, "operator": "", "capacity": "", "addr_city": "", "country": "Central African Republic", "iso3": "CAF", "source": "HOTOSM/OSM", "latitude": 4.375828, "longitude": 18.605441 }, "geometry": { "type": "Point", "coordinates": [ 18.605441, 4.3758277 ] } },
{ "type": "Feature", "properties": { "osm_id": 4637264302, "name": "St Jean Colomb", "amenity": "school", "building": null, "operator": "", "capacity": "", "addr_city": "", "country": "Central African Republic", "iso3": "CAF", "source": "HOTOSM/OSM", "latitude": 4.375296, "longitude": 18.605063 }, "geometry": { "type": "Point", "coordinates": [ 18.6050633, 4.3752961 ] } },
{ "type": "Feature", "properties": { "osm_id": 4637264305, "name": "Sao", "amenity": "school", "building": null, "operator": "", "capacity": "", "addr_city": "", "country": "Central African Republic", "iso3": "CAF", "source": "HOTOSM/OSM", "latitude": 4.366752, "longitude": 18.623992 }, "geometry": { "type": "Point", "coordinates": [ 18.6239923, 4.3667525 ] } },
{ "type": "Feature", "properties": { "osm_id": 4637264307, "name": "Orhelinat Ndrès", "amenity": "school", "building": null, "operator": "", "capacity": "", "addr_city": "", "country": "Central African Republic", "iso3": "CAF", "source": "HOTOSM/OSM", "latitude": 4.393959, "longitude": 18.598304 }, "geometry": { "type": "Point", "coordinates": [ 18.5983038, 4.3939592 ] } },
{ "type": "Feature", "properties": { "osm_id": 4637140710, "name": "", "amenity": "school", "building": null, "operator": "", "capacity": "", "addr_city": "", "country": "Central African Republic", "iso3": "CAF", "source": "HOTOSM/OSM", "latitude": 4.378507, "longitude": 18.53635 }, "geometry": { "type": "Point", "coordinates": [ 18.5363496, 4.3785072 ] } },
{ "type": "Feature", "properties": { "osm_id": 4637140700, "name": "Lycée technique", "amenity": "school", "building": null, "operator": "", "capacity": "", "addr_city": "", "country": "Central African Republic", "iso3": "CAF", "source": "HOTOSM/OSM", "latitude": 4.378683, "longitude": 18.570713 }, "geometry": { "type": "Point", "coordinates": [ 18.5707132, 4.3786829 ] } },
{ "type": "Feature", "properties": { "osm_id": 2711630155, "name": "O S Ndongake", "amenity": "school", "building": null, "operator": "", "capacity": "", "addr_city": "", "country": "Central African Republic", "iso3": "CAF", "source": "HOTOSM/OSM", "latitude": 5.773667, "longitude": 14.731497 }, "geometry": { "type": "Point", "coordinates": [ 14.7314965, 5.773667 ] } },
{ "type": "Feature", "properties": { "osm_id": 2084533521, "name": "École Jardin d'enfants", "amenity": "kindergarten", "building": null, "operator": "", "capacity": "", "addr_city": "", "country": "Central African Republic", "iso3": "CAF", "source": "HOTOSM/OSM", "latitude": 6.669559, "longitude": 19.796044 }, "geometry": { "type": "Point", "coordinates": [ 19.7960438, 6.6695588 ] } },
{ "type": "Feature", "properties": { "osm_id": 2680889264, "name": "École de Wazangba", "amenity": "school", "building": null, "operator": "", "capacity": "", "addr_city": "", "country": "Central African Republic", "iso3": "CAF", "source": "HOTOSM/OSM", "latitude": 4.980408, "longitude": 20.03027 }, "geometry": { "type": "Point", "coordinates": [ 20.03027, 4.9804077 ] } },
{ "type": "Feature", "properties": { "osm_id": 2412709686, "name": "Ecole Manga", "amenity": "school", "building": null, "operator": "", "capacity": "", "addr_city": "", "country": "Central African Republic", "iso3": "CAF", "source": "HOTOSM/OSM", "latitude": 6.435291, "longitude": 16.179181 }, "geometry": { "type": "Point", "coordinates": [ 16.1791805, 6.4352915 ] } },
{ "type": "Feature", "properties": { "osm_id": 2591807597, "name": "Koussa Baguira", "amenity": "school", "building": null, "operator": "", "capacity": "", "addr_city": "", "country": "Central African Republic", "iso3": "CAF", "source": "HOTOSM/OSM", "latitude": 5.738216, "longitude": 15.914378 }, "geometry": { "type": "Point", "coordinates": [ 15.9143781, 5.738216 ] } },
{ "type": "Feature", "properties": { "osm_id": 2591807601, "name": "Ecole Sous-Préfectorale Mixte de Baoro", "amenity": "school", "building": null, "operator": "", "capacity": "", "addr_city": "", "country": "Central African Republic", "iso3": "CAF", "source": "HOTOSM/OSM", "latitude": 5.697637, "longitude": 15.951907 }, "geometry": { "type": "Point", "coordinates": [ 15.9519072, 5.6976371 ] } },
{ "type": "Feature", "properties": { "osm_id": 2591807592, "name": "Ecole Binengue", "amenity": "school", "building": null, "operator": "", "capacity": "", "addr_city": "", "country": "Central African Republic", "iso3": "CAF", "source": "HOTOSM/OSM", "latitude": 5.87265, "longitude": 15.8402 }, "geometry": { "type": "Point", "coordinates": [ 15.8402, 5.87265 ] } },
{ "type": "Feature", "properties": { "osm_id": 2591807594, "name": "Koursou", "amenity": "school", "building": null, "operator": "", "capacity": "", "addr_city": "", "country": "Central African Republic", "iso3": "CAF", "source": "HOTOSM/OSM", "latitude": 5.831852, "longitude": 15.86587 }, "geometry": { "type": "Point", "coordinates": [ 15.8658699, 5.8318522 ] } },
{ "type": "Feature", "properties": { "osm_id": 2591807599, "name": "Ngombe", "amenity": "school", "building": null, "operator": "", "capacity": "", "addr_city": "", "country": "Central African Republic", "iso3": "CAF", "source": "HOTOSM/OSM", "latitude": 5.64508, "longitude": 16.056 }, "geometry": { "type": "Point", "coordinates": [ 16.056, 5.64508 ] } },
{ "type": "Feature", "properties": { "osm_id": 2591807602, "name": "Ecole Valo Foulbe", "amenity": "school", "building": null, "operator": "", "capacity": "", "addr_city": "", "country": "Central African Republic", "iso3": "CAF", "source": "HOTOSM/OSM", "latitude": 5.76792, "longitude": 15.8889 }, "geometry": { "type": "Point", "coordinates": [ 15.8889, 5.76792 ] } },
{ "type": "Feature", "properties": { "osm_id": 2591807603, "name": "Ecole Mixte Dangsi", "amenity": "school", "building": null, "operator": "", "capacity": "", "addr_city": "", "country": "Central African Republic", "iso3": "CAF", "source": "HOTOSM/OSM", "latitude": 5.686451, "longitude": 15.949848 }, "geometry": { "type": "Point", "coordinates": [ 15.9498476, 5.6864511 ] } },
{ "type": "Feature", "properties": { "osm_id": 2591807609, "name": "Ecole Mixte de Sarki", "amenity": "school", "building": null, "operator": "", "capacity": "", "addr_city": "", "country": "Central African Republic", "iso3": "CAF", "source": "HOTOSM/OSM", "latitude": 5.6804, "longitude": 15.9811 }, "geometry": { "type": "Point", "coordinates": [ 15.9811, 5.6804 ] } },
{ "type": "Feature", "properties": { "osm_id": 2673395480, "name": "École Mixte de Alim", "amenity": "school", "building": null, "operator": "", "capacity": "", "addr_city": "", "country": "Central African Republic", "iso3": "CAF", "source": "HOTOSM/OSM", "latitude": 6.021401, "longitude": 14.646418 }, "geometry": { "type": "Point", "coordinates": [ 14.6464178, 6.0214011 ] } },
{ "type": "Feature", "properties": { "osm_id": 2673395487, "name": "École Mixte de Mbartoua Ngaguene", "amenity": "school", "building": null, "operator": "", "capacity": "", "addr_city": "", "country": "Central African Republic", "iso3": "CAF", "source": "HOTOSM/OSM", "latitude": 6.166613, "longitude": 14.683086 }, "geometry": { "type": "Point", "coordinates": [ 14.6830859, 6.1666134 ] } },
{ "type": "Feature", "properties": { "osm_id": 2674126878, "name": "École Mixte de Bangui-Banda", "amenity": "school", "building": null, "operator": "", "capacity": "", "addr_city": "", "country": "Central African Republic", "iso3": "CAF", "source": "HOTOSM/OSM", "latitude": 5.631836, "longitude": 21.64731 }, "geometry": { "type": "Point", "coordinates": [ 21.64731, 5.6318361 ] } },
{ "type": "Feature", "properties": { "osm_id": 2673395497, "name": "École de Kounde", "amenity": "school", "building": null, "operator": "", "capacity": "", "addr_city": "", "country": "Central African Republic", "iso3": "CAF", "source": "HOTOSM/OSM", "latitude": 6.106868, "longitude": 14.635651 }, "geometry": { "type": "Point", "coordinates": [ 14.6356514, 6.1068682 ] } },
{ "type": "Feature", "properties": { "osm_id": 2674034863, "name": "École de Ngongboundou", "amenity": "school", "building": null, "operator": "", "capacity": "", "addr_city": "", "country": "Central African Republic", "iso3": "CAF", "source": "HOTOSM/OSM", "latitude": 6.426993, "longitude": 21.618083 }, "geometry": { "type": "Point", "coordinates": [ 21.6180828, 6.4269926 ] } },
{ "type": "Feature", "properties": { "osm_id": 2674126886, "name": "École de Atongo-Bakari", "amenity": "school", "building": null, "operator": "", "capacity": "", "addr_city": "", "country": "Central African Republic", "iso3": "CAF", "source": "HOTOSM/OSM", "latitude": 5.81385, "longitude": 21.5861 }, "geometry": { "type": "Point", "coordinates": [ 21.5861, 5.81385 ] } },
{ "type": "Feature", "properties": { "osm_id": 2674126900, "name": "École de Maneyo", "amenity": "school", "building": null, "operator": "", "capacity": "", "addr_city": "", "country": "Central African Republic", "iso3": "CAF", "source": "HOTOSM/OSM", "latitude": 5.711341, "longitude": 21.583816 }, "geometry": { "type": "Point", "coordinates": [ 21.5838155, 5.7113405 ] } },
{ "type": "Feature", "properties": { "osm_id": 2674126906, "name": "École de Ndazingoua", "amenity": "school", "building": null, "operator": "", "capacity": "", "addr_city": "", "country": "Central African Republic", "iso3": "CAF", "source": "HOTOSM/OSM", "latitude": 5.722225, "longitude": 21.558057 }, "geometry": { "type": "Point", "coordinates": [ 21.5580571, 5.7222254 ] } },
{ "type": "Feature", "properties": { "osm_id": 2674126913, "name": "École de Nguiwa-Blio", "amenity": "school", "building": null, "operator": "", "capacity": "", "addr_city": "", "country": "Central African Republic", "iso3": "CAF", "source": "HOTOSM/OSM", "latitude": 5.81639, "longitude": 21.5922 }, "geometry": { "type": "Point", "coordinates": [ 21.5922, 5.81639 ] } },
{ "type": "Feature", "properties": { "osm_id": 2674209143, "name": "École de Andjitolakri", "amenity": "school", "building": null, "operator": "", "capacity": "", "addr_city": "", "country": "Central African Republic", "iso3": "CAF", "source": "HOTOSM/OSM", "latitude": 5.825024, "longitude": 21.338092 }, "geometry": { "type": "Point", "coordinates": [ 21.3380918, 5.8250244 ] } },
{ "type": "Feature", "properties": { "osm_id": 2674209149, "name": "École de Koutchou", "amenity": "school", "building": null, "operator": "", "capacity": "", "addr_city": "", "country": "Central African Republic", "iso3": "CAF", "source": "HOTOSM/OSM", "latitude": 5.892614, "longitude": 21.285215 }, "geometry": { "type": "Point", "coordinates": [ 21.2852155, 5.8926138 ] } },
{ "type": "Feature", "properties": { "osm_id": 2674209161, "name": "École de Redebo", "amenity": "school", "building": null, "operator": "", "capacity": "", "addr_city": "", "country": "Central African Republic", "iso3": "CAF", "source": "HOTOSM/OSM", "latitude": 5.784788, "longitude": 21.414528 }, "geometry": { "type": "Point", "coordinates": [ 21.4145277, 5.7847881 ] } },
{ "type": "Feature", "properties": { "osm_id": 2676117497, "name": "Ecole Ngbazza", "amenity": "school", "building": null, "operator": "", "capacity": "", "addr_city": "", "country": "Central African Republic", "iso3": "CAF", "source": "HOTOSM/OSM", "latitude": 6.23812, "longitude": 21.1949 }, "geometry": { "type": "Point", "coordinates": [ 21.1949, 6.23812 ] } },
{ "type": "Feature", "properties": { "osm_id": 2676117498, "name": "École Gobouyo", "amenity": "school", "building": null, "operator": "", "capacity": "", "addr_city": "", "country": "Central African Republic", "iso3": "CAF", "source": "HOTOSM/OSM", "latitude": 6.266356, "longitude": 21.206249 }, "geometry": { "type": "Point", "coordinates": [ 21.2062488, 6.2663558 ] } },
{ "type": "Feature", "properties": { "osm_id": 2676117505, "name": "École de Badé", "amenity": "school", "building": null, "operator": "", "capacity": "", "addr_city": "", "country": "Central African Republic", "iso3": "CAF", "source": "HOTOSM/OSM", "latitude": 6.153632, "longitude": 21.138904 }, "geometry": { "type": "Point", "coordinates": [ 21.1389045, 6.1536324 ] } },
{ "type": "Feature", "properties": { "osm_id": 2676117517, "name": "École de Katcharabo", "amenity": "school", "building": null, "operator": "", "capacity": "", "addr_city": "", "country": "Central African Republic", "iso3": "CAF", "source": "HOTOSM/OSM", "latitude": 6.261778, "longitude": 21.201447 }, "geometry": { "type": "Point", "coordinates": [ 21.2014469, 6.261778 ] } },
{ "type": "Feature", "properties": { "osm_id": 2676117522, "name": "École de Koyardé", "amenity": "school", "building": null, "operator": "", "capacity": "", "addr_city": "", "country": "Central African Republic", "iso3": "CAF", "source": "HOTOSM/OSM", "latitude": 6.12366, "longitude": 21.2982 }, "geometry": { "type": "Point", "coordinates": [ 21.2982, 6.12366 ] } },
{ "type": "Feature", "properties": { "osm_id": 2676117527, "name": "École de Mazoumbou", "amenity": "school", "building": null, "operator": "", "capacity": "", "addr_city": "", "country": "Central African Republic", "iso3": "CAF", "source": "HOTOSM/OSM", "latitude": 6.267263, "longitude": 21.203884 }, "geometry": { "type": "Point", "coordinates": [ 21.203884, 6.2672632 ] } },
{ "type": "Feature", "properties": { "osm_id": 2676117532, "name": "École de Ndjanga", "amenity": "school", "building": null, "operator": "", "capacity": "", "addr_city": "", "country": "Central African Republic", "iso3": "CAF", "source": "HOTOSM/OSM", "latitude": 6.170371, "longitude": 21.210553 }, "geometry": { "type": "Point", "coordinates": [ 21.2105534, 6.1703709 ] } },
{ "type": "Feature", "properties": { "osm_id": 2676117537, "name": "École de Zoubingui", "amenity": "school", "building": null, "operator": "", "capacity": "", "addr_city": "", "country": "Central African Republic", "iso3": "CAF", "source": "HOTOSM/OSM", "latitude": 6.073473, "longitude": 21.115953 }, "geometry": { "type": "Point", "coordinates": [ 21.1159529, 6.0734729 ] } },
{ "type": "Feature", "properties": { "osm_id": 2676260098, "name": "École de Ngolomanda", "amenity": "school", "building": null, "operator": "", "capacity": "", "addr_city": "", "country": "Central African Republic", "iso3": "CAF", "source": "HOTOSM/OSM", "latitude": 6.34575, "longitude": 21.2803 }, "geometry": { "type": "Point", "coordinates": [ 21.2803, 6.34575 ] } },
{ "type": "Feature", "properties": { "osm_id": 2676314519, "name": "École de Andjou", "amenity": "school", "building": null, "operator": "", "capacity": "", "addr_city": "", "country": "Central African Republic", "iso3": "CAF", "source": "HOTOSM/OSM", "latitude": 5.850563, "longitude": 21.018254 }, "geometry": { "type": "Point", "coordinates": [ 21.0182542, 5.8505631 ] } },
{ "type": "Feature", "properties": { "osm_id": 2676314521, "name": "École de Chimbolo", "amenity": "school", "building": null, "operator": "", "capacity": "", "addr_city": "", "country": "Central African Republic", "iso3": "CAF", "source": "HOTOSM/OSM", "latitude": 5.726705, "longitude": 20.862317 }, "geometry": { "type": "Point", "coordinates": [ 20.8623168, 5.7267052 ] } },
{ "type": "Feature", "properties": { "osm_id": 2676314523, "name": "École de Goubali 2", "amenity": "school", "building": null, "operator": "", "capacity": "", "addr_city": "", "country": "Central African Republic", "iso3": "CAF", "source": "HOTOSM/OSM", "latitude": 5.879393, "longitude": 21.065915 }, "geometry": { "type": "Point", "coordinates": [ 21.0659149, 5.8793926 ] } },
{ "type": "Feature", "properties": { "osm_id": 2676314526, "name": "École de Matchika", "amenity": "school", "building": null, "operator": "", "capacity": "", "addr_city": "", "country": "Central African Republic", "iso3": "CAF", "source": "HOTOSM/OSM", "latitude": 5.639707, "longitude": 20.772014 }, "geometry": { "type": "Point", "coordinates": [ 20.7720136, 5.6397067 ] } },
{ "type": "Feature", "properties": { "osm_id": 2677189788, "name": "École de Bianga", "amenity": "school", "building": null, "operator": "", "capacity": "", "addr_city": "", "country": "Central African Republic", "iso3": "CAF", "source": "HOTOSM/OSM", "latitude": 4.836273, "longitude": 20.426625 }, "geometry": { "type": "Point", "coordinates": [ 20.426625, 4.8362732 ] } },
{ "type": "Feature", "properties": { "osm_id": 2677357463, "name": "École de Boy-Kotto", "amenity": "school", "building": null, "operator": "", "capacity": "", "addr_city": "", "country": "Central African Republic", "iso3": "CAF", "source": "HOTOSM/OSM", "latitude": 4.979608, "longitude": 20.543895 }, "geometry": { "type": "Point", "coordinates": [ 20.5438954, 4.9796083 ] } },
{ "type": "Feature", "properties": { "osm_id": 2677357466, "name": "École de Galabourma", "amenity": "school", "building": null, "operator": "", "capacity": "", "addr_city": "", "country": "Central African Republic", "iso3": "CAF", "source": "HOTOSM/OSM", "latitude": 5.21907, "longitude": 20.6902 }, "geometry": { "type": "Point", "coordinates": [ 20.6902, 5.21907 ] } },
{ "type": "Feature", "properties": { "osm_id": 2677357470, "name": "École de Gbaraga", "amenity": "school", "building": null, "operator": "", "capacity": "", "addr_city": "", "country": "Central African Republic", "iso3": "CAF", "source": "HOTOSM/OSM", "latitude": 4.951823, "longitude": 20.633471 }, "geometry": { "type": "Point", "coordinates": [ 20.6334706, 4.9518232 ] } },
{ "type": "Feature", "properties": { "osm_id": 2677357474, "name": "École de Goya", "amenity": "school", "building": null, "operator": "", "capacity": "", "addr_city": "", "country": "Central African Republic", "iso3": "CAF", "source": "HOTOSM/OSM", "latitude": 4.933829, "longitude": 20.695417 }, "geometry": { "type": "Point", "coordinates": [ 20.6954166, 4.9338288 ] } },
{ "type": "Feature", "properties": { "osm_id": 2678035839, "name": "École de Lapago", "amenity": "school", "building": null, "operator": "", "capacity": "", "addr_city": "", "country": "Central African Republic", "iso3": "CAF", "source": "HOTOSM/OSM", "latitude": 5.77454, "longitude": 20.645955 }, "geometry": { "type": "Point", "coordinates": [ 20.6459555, 5.7745399 ] } },
{ "type": "Feature", "properties": { "osm_id": 2678035859, "name": "École de Nguerepayo", "amenity": "school", "building": null, "operator": "", "capacity": "", "addr_city": "", "country": "Central African Republic", "iso3": "CAF", "source": "HOTOSM/OSM", "latitude": 5.86764, "longitude": 20.73272 }, "geometry": { "type": "Point", "coordinates": [ 20.7327204, 5.8676398 ] } },
{ "type": "Feature", "properties": { "osm_id": 2678035863, "name": "École du Camp de Réfugiés Soudanais", "amenity": "school", "building": null, "operator": "", "capacity": "", "addr_city": "", "country": "Central African Republic", "iso3": "CAF", "source": "HOTOSM/OSM", "latitude": 5.72632, "longitude": 20.5943 }, "geometry": { "type": "Point", "coordinates": [ 20.5943, 5.72632 ] } },
{ "type": "Feature", "properties": { "osm_id": 2679593278, "name": "École Notre-Dame de Liesse", "amenity": "school", "building": null, "operator": "", "capacity": "", "addr_city": "", "country": "Central African Republic", "iso3": "CAF", "source": "HOTOSM/OSM", "latitude": 5.73657, "longitude": 20.0627 }, "geometry": { "type": "Point", "coordinates": [ 20.0627, 5.73657 ] } },
{ "type": "Feature", "properties": { "osm_id": 2679593279, "name": "École Sous-Préfectorale", "amenity": "school", "building": null, "operator": "", "capacity": "", "addr_city": "", "country": "Central African Republic", "iso3": "CAF", "source": "HOTOSM/OSM", "latitude": 5.7422, "longitude": 20.0583 }, "geometry": { "type": "Point", "coordinates": [ 20.0583, 5.7422 ] } },
{ "type": "Feature", "properties": { "osm_id": 2679593280, "name": "École de Lingoubanda", "amenity": "school", "building": null, "operator": "", "capacity": "", "addr_city": "", "country": "Central African Republic", "iso3": "CAF", "source": "HOTOSM/OSM", "latitude": 5.80485, "longitude": 20.242006 }, "geometry": { "type": "Point", "coordinates": [ 20.2420065, 5.8048496 ] } },
{ "type": "Feature", "properties": { "osm_id": 2679593282, "name": "École de Ngoulinga", "amenity": "school", "building": null, "operator": "", "capacity": "", "addr_city": "", "country": "Central African Republic", "iso3": "CAF", "source": "HOTOSM/OSM", "latitude": 5.71237, "longitude": 20.0691 }, "geometry": { "type": "Point", "coordinates": [ 20.0691, 5.71237 ] } },
{ "type": "Feature", "properties": { "osm_id": 2679748064, "name": "École de Ngadja", "amenity": "school", "building": null, "operator": "", "capacity": "", "addr_city": "", "country": "Central African Republic", "iso3": "CAF", "source": "HOTOSM/OSM", "latitude": 5.16881, "longitude": 20.197173 }, "geometry": { "type": "Point", "coordinates": [ 20.1971728, 5.1688096 ] } },
{ "type": "Feature", "properties": { "osm_id": 2679748065, "name": "École de Ngandjatoko", "amenity": "school", "building": null, "operator": "", "capacity": "", "addr_city": "", "country": "Central African Republic", "iso3": "CAF", "source": "HOTOSM/OSM", "latitude": 4.965238, "longitude": 20.143137 }, "geometry": { "type": "Point", "coordinates": [ 20.1431371, 4.9652377 ] } },
{ "type": "Feature", "properties": { "osm_id": 2679748061, "name": "École de Gawa", "amenity": "school", "building": null, "operator": "", "capacity": "", "addr_city": "", "country": "Central African Republic", "iso3": "CAF", "source": "HOTOSM/OSM", "latitude": 4.919018, "longitude": 20.220347 }, "geometry": { "type": "Point", "coordinates": [ 20.2203469, 4.9190184 ] } },
{ "type": "Feature", "properties": { "osm_id": 2679748062, "name": "École de Mbalangao", "amenity": "school", "building": null, "operator": "", "capacity": "", "addr_city": "", "country": "Central African Republic", "iso3": "CAF", "source": "HOTOSM/OSM", "latitude": 5.158137, "longitude": 20.269347 }, "geometry": { "type": "Point", "coordinates": [ 20.2693474, 5.1581374 ] } },
{ "type": "Feature", "properties": { "osm_id": 2679748068, "name": "École de Sioua", "amenity": "school", "building": null, "operator": "", "capacity": "", "addr_city": "", "country": "Central African Republic", "iso3": "CAF", "source": "HOTOSM/OSM", "latitude": 5.10037, "longitude": 20.0955 }, "geometry": { "type": "Point", "coordinates": [ 20.0955, 5.10037 ] } },
{ "type": "Feature", "properties": { "osm_id": 2680889265, "name": "École de Yangouko", "amenity": "school", "building": null, "operator": "", "capacity": "", "addr_city": "", "country": "Central African Republic", "iso3": "CAF", "source": "HOTOSM/OSM", "latitude": 6.017635, "longitude": 19.754724 }, "geometry": { "type": "Point", "coordinates": [ 19.7547242, 6.0176346 ] } },
{ "type": "Feature", "properties": { "osm_id": 2681004287, "name": "École Centre 1 de Garçons", "amenity": "school", "building": null, "operator": "", "capacity": "", "addr_city": "", "country": "Central African Republic", "iso3": "CAF", "source": "HOTOSM/OSM", "latitude": 4.994131, "longitude": 19.969611 }, "geometry": { "type": "Point", "coordinates": [ 19.9696112, 4.9941307 ] } },
{ "type": "Feature", "properties": { "osm_id": 2682578388, "name": "École Ngana", "amenity": "school", "building": null, "operator": "", "capacity": "", "addr_city": "", "country": "Central African Republic", "iso3": "CAF", "source": "HOTOSM/OSM", "latitude": 5.758088, "longitude": 19.849843 }, "geometry": { "type": "Point", "coordinates": [ 19.8498425, 5.7580876 ] } },
{ "type": "Feature", "properties": { "osm_id": 2682578391, "name": "École de Poumalé", "amenity": "school", "building": null, "operator": "", "capacity": "", "addr_city": "", "country": "Central African Republic", "iso3": "CAF", "source": "HOTOSM/OSM", "latitude": 5.76535, "longitude": 19.979759 }, "geometry": { "type": "Point", "coordinates": [ 19.9797594, 5.7653496 ] } },
{ "type": "Feature", "properties": { "osm_id": 2682578392, "name": "École de Poumayassi", "amenity": "school", "building": null, "operator": "", "capacity": "", "addr_city": "", "country": "Central African Republic", "iso3": "CAF", "source": "HOTOSM/OSM", "latitude": 5.755974, "longitude": 19.803621 }, "geometry": { "type": "Point", "coordinates": [ 19.8036211, 5.755974 ] } },
{ "type": "Feature", "properties": { "osm_id": 2682727642, "name": "École de Bolokpaka", "amenity": "school", "building": null, "operator": "", "capacity": "", "addr_city": "", "country": "Central African Republic", "iso3": "CAF", "source": "HOTOSM/OSM", "latitude": 6.487135, "longitude": 19.859202 }, "geometry": { "type": "Point", "coordinates": [ 19.8592016, 6.4871352 ] } },
{ "type": "Feature", "properties": { "osm_id": 2682727643, "name": "École de Lakouetene", "amenity": "school", "building": null, "operator": "", "capacity": "", "addr_city": "", "country": "Central African Republic", "iso3": "CAF", "source": "HOTOSM/OSM", "latitude": 6.609818, "longitude": 19.820935 }, "geometry": { "type": "Point", "coordinates": [ 19.8209349, 6.6098183 ] } },
{ "type": "Feature", "properties": { "osm_id": 2682746843, "name": "École d'Azené", "amenity": "school", "building": null, "operator": "", "capacity": "", "addr_city": "", "country": "Central African Republic", "iso3": "CAF", "source": "HOTOSM/OSM", "latitude": 6.927219, "longitude": 19.892198 }, "geometry": { "type": "Point", "coordinates": [ 19.8921984, 6.9272187 ] } },
{ "type": "Feature", "properties": { "osm_id": 2682727645, "name": "École de Pagonendji", "amenity": "school", "building": null, "operator": "", "capacity": "", "addr_city": "", "country": "Central African Republic", "iso3": "CAF", "source": "HOTOSM/OSM", "latitude": 6.321686, "longitude": 19.927469 }, "geometry": { "type": "Point", "coordinates": [ 19.9274689, 6.3216862 ] } },
{ "type": "Feature", "properties": { "osm_id": 2682727646, "name": "École de Yaligaza", "amenity": "school", "building": null, "operator": "", "capacity": "", "addr_city": "", "country": "Central African Republic", "iso3": "CAF", "source": "HOTOSM/OSM", "latitude": 6.38839, "longitude": 19.894218 }, "geometry": { "type": "Point", "coordinates": [ 19.894218, 6.3883903 ] } },
{ "type": "Feature", "properties": { "osm_id": 2682746844, "name": "École de Gbozou", "amenity": "school", "building": null, "operator": "", "capacity": "", "addr_city": "", "country": "Central African Republic", "iso3": "CAF", "source": "HOTOSM/OSM", "latitude": 6.827753, "longitude": 19.86811 }, "geometry": { "type": "Point", "coordinates": [ 19.8681102, 6.8277534 ] } },
{ "type": "Feature", "properties": { "osm_id": 2682746846, "name": "École de Lingui-Riouande", "amenity": "school", "building": null, "operator": "", "capacity": "", "addr_city": "", "country": "Central African Republic", "iso3": "CAF", "source": "HOTOSM/OSM", "latitude": 6.984724, "longitude": 19.932876 }, "geometry": { "type": "Point", "coordinates": [ 19.9328765, 6.984724 ] } },
{ "type": "Feature", "properties": { "osm_id": 2682746847, "name": "École de Maromba", "amenity": "school", "building": null, "operator": "", "capacity": "", "addr_city": "", "country": "Central African Republic", "iso3": "CAF", "source": "HOTOSM/OSM", "latitude": 6.669086, "longitude": 19.721364 }, "geometry": { "type": "Point", "coordinates": [ 19.7213641, 6.6690856 ] } },
{ "type": "Feature", "properties": { "osm_id": 2682804170, "name": "École de Ramadane", "amenity": "school", "building": null, "operator": "", "capacity": "", "addr_city": "", "country": "Central African Republic", "iso3": "CAF", "source": "HOTOSM/OSM", "latitude": 7.061599, "longitude": 19.942896 }, "geometry": { "type": "Point", "coordinates": [ 19.9428965, 7.0615988 ] } },
{ "type": "Feature", "properties": { "osm_id": 2683698353, "name": "École de Maoroka", "amenity": "school", "building": null, "operator": "", "capacity": "", "addr_city": "", "country": "Central African Republic", "iso3": "CAF", "source": "HOTOSM/OSM", "latitude": 6.66006, "longitude": 19.6816 }, "geometry": { "type": "Point", "coordinates": [ 19.6816, 6.66006 ] } },
{ "type": "Feature", "properties": { "osm_id": 2683689973, "name": "École de Kobadja", "amenity": "school", "building": null, "operator": "", "capacity": "", "addr_city": "", "country": "Central African Republic", "iso3": "CAF", "source": "HOTOSM/OSM", "latitude": 5.79153, "longitude": 19.6385 }, "geometry": { "type": "Point", "coordinates": [ 19.6385, 5.79153 ] } },
{ "type": "Feature", "properties": { "osm_id": 2682804173, "name": "École de Yombo-Bac", "amenity": "school", "building": null, "operator": "", "capacity": "", "addr_city": "", "country": "Central African Republic", "iso3": "CAF", "source": "HOTOSM/OSM", "latitude": 7.196622, "longitude": 20.003807 }, "geometry": { "type": "Point", "coordinates": [ 20.0038073, 7.1966224 ] } },
{ "type": "Feature", "properties": { "osm_id": 2683698361, "name": "École de Nguimalet", "amenity": "school", "building": null, "operator": "", "capacity": "", "addr_city": "", "country": "Central African Republic", "iso3": "CAF", "source": "HOTOSM/OSM", "latitude": 6.65823, "longitude": 19.6587 }, "geometry": { "type": "Point", "coordinates": [ 19.6587, 6.65823 ] } },
{ "type": "Feature", "properties": { "osm_id": 2684604209, "name": "Jardin d'Enfants", "amenity": "school", "building": null, "operator": "", "capacity": "", "addr_city": "", "country": "Central African Republic", "iso3": "CAF", "source": "HOTOSM/OSM", "latitude": 6.98957, "longitude": 19.18726 }, "geometry": { "type": "Point", "coordinates": [ 19.1872599, 6.9895704 ] } },
{ "type": "Feature", "properties": { "osm_id": 2684604213, "name": "École Primaire Mixte de Bissingale", "amenity": "school", "building": null, "operator": "", "capacity": "", "addr_city": "", "country": "Central African Republic", "iso3": "CAF", "source": "HOTOSM/OSM", "latitude": 6.950462, "longitude": 19.188582 }, "geometry": { "type": "Point", "coordinates": [ 19.1885819, 6.9504623 ] } },
{ "type": "Feature", "properties": { "osm_id": 2684604220, "name": "École de Bagaza-Kako", "amenity": "school", "building": null, "operator": "", "capacity": "", "addr_city": "", "country": "Central African Republic", "iso3": "CAF", "source": "HOTOSM/OSM", "latitude": 6.714167, "longitude": 19.325556 }, "geometry": { "type": "Point", "coordinates": [ 19.325556, 6.7141667 ] } },
{ "type": "Feature", "properties": { "osm_id": 2684604216, "name": "École Privée Catholique", "amenity": "school", "building": null, "operator": "", "capacity": "", "addr_city": "", "country": "Central African Republic", "iso3": "CAF", "source": "HOTOSM/OSM", "latitude": 6.903985, "longitude": 19.189419 }, "geometry": { "type": "Point", "coordinates": [ 19.1894189, 6.9039854 ] } },
{ "type": "Feature", "properties": { "osm_id": 2684604217, "name": "École Préfectorale Mixte", "amenity": "school", "building": null, "operator": "", "capacity": "", "addr_city": "", "country": "Central African Republic", "iso3": "CAF", "source": "HOTOSM/OSM", "latitude": 6.994345, "longitude": 19.184619 }, "geometry": { "type": "Point", "coordinates": [ 19.1846193, 6.9943446 ] } },
{ "type": "Feature", "properties": { "osm_id": 2684604224, "name": "École de Bayiri-Ousmane", "amenity": "school", "building": null, "operator": "", "capacity": "", "addr_city": "", "country": "Central African Republic", "iso3": "CAF", "source": "HOTOSM/OSM", "latitude": 6.676248, "longitude": 19.112146 }, "geometry": { "type": "Point", "coordinates": [ 19.1121457, 6.6762485 ] } },
{ "type": "Feature", "properties": { "osm_id": 2684604222, "name": "École de Balamba", "amenity": "school", "building": null, "operator": "", "capacity": "", "addr_city": "", "country": "Central African Republic", "iso3": "CAF", "source": "HOTOSM/OSM", "latitude": 6.930422, "longitude": 19.095552 }, "geometry": { "type": "Point", "coordinates": [ 19.0955519, 6.9304216 ] } },
{ "type": "Feature", "properties": { "osm_id": 2684604223, "name": "École de Bamatra", "amenity": "school", "building": null, "operator": "", "capacity": "", "addr_city": "", "country": "Central African Republic", "iso3": "CAF", "source": "HOTOSM/OSM", "latitude": 6.932168, "longitude": 18.98629 }, "geometry": { "type": "Point", "coordinates": [ 18.9862902, 6.9321682 ] } },
{ "type": "Feature", "properties": { "osm_id": 2684604225, "name": "École de Botokom", "amenity": "school", "building": null, "operator": "", "capacity": "", "addr_city": "", "country": "Central African Republic", "iso3": "CAF", "source": "HOTOSM/OSM", "latitude": 6.94443, "longitude": 19.014104 }, "geometry": { "type": "Point", "coordinates": [ 19.0141045, 6.9444299 ] } },
{ "type": "Feature", "properties": { "osm_id": 2684604228, "name": "École de Kpakaya", "amenity": "school", "building": null, "operator": "", "capacity": "", "addr_city": "", "country": "Central African Republic", "iso3": "CAF", "source": "HOTOSM/OSM", "latitude": 6.837775, "longitude": 19.221773 }, "geometry": { "type": "Point", "coordinates": [ 19.2217725, 6.8377754 ] } },
{ "type": "Feature", "properties": { "osm_id": 2684604226, "name": "École de Boymandja", "amenity": "school", "building": null, "operator": "", "capacity": "", "addr_city": "", "country": "Central African Republic", "iso3": "CAF", "source": "HOTOSM/OSM", "latitude": 7.001742, "longitude": 19.176953 }, "geometry": { "type": "Point", "coordinates": [ 19.1769526, 7.0017422 ] } },
{ "type": "Feature", "properties": { "osm_id": 2684604227, "name": "École de Doukoumbe", "amenity": "school", "building": null, "operator": "", "capacity": "", "addr_city": "", "country": "Central African Republic", "iso3": "CAF", "source": "HOTOSM/OSM", "latitude": 6.95846, "longitude": 19.0417 }, "geometry": { "type": "Point", "coordinates": [ 19.0417, 6.95846 ] } },
{ "type": "Feature", "properties": { "osm_id": 2684604231, "name": "École de Vrémaï", "amenity": "school", "building": null, "operator": "", "capacity": "", "addr_city": "", "country": "Central African Republic", "iso3": "CAF", "source": "HOTOSM/OSM", "latitude": 6.752602, "longitude": 19.12205 }, "geometry": { "type": "Point", "coordinates": [ 19.1220498, 6.7526021 ] } },
{ "type": "Feature", "properties": { "osm_id": 2684604232, "name": "École de Yagarandji", "amenity": "school", "building": null, "operator": "", "capacity": "", "addr_city": "", "country": "Central African Republic", "iso3": "CAF", "source": "HOTOSM/OSM", "latitude": 6.862056, "longitude": 19.171989 }, "geometry": { "type": "Point", "coordinates": [ 19.1719889, 6.8620564 ] } },
{ "type": "Feature", "properties": { "osm_id": 2684604233, "name": "École de Zam-Ali", "amenity": "school", "building": null, "operator": "", "capacity": "", "addr_city": "", "country": "Central African Republic", "iso3": "CAF", "source": "HOTOSM/OSM", "latitude": 6.712151, "longitude": 19.113027 }, "geometry": { "type": "Point", "coordinates": [ 19.113027, 6.7121514 ] } },
{ "type": "Feature", "properties": { "osm_id": 2685206810, "name": "École de Godo 2", "amenity": "school", "building": null, "operator": "", "capacity": "", "addr_city": "", "country": "Central African Republic", "iso3": "CAF", "source": "HOTOSM/OSM", "latitude": 7.053423, "longitude": 19.181453 }, "geometry": { "type": "Point", "coordinates": [ 19.181453, 7.0534232 ] } },
{ "type": "Feature", "properties": { "osm_id": 2685206809, "name": "École de Banga 1", "amenity": "school", "building": null, "operator": "", "capacity": "", "addr_city": "", "country": "Central African Republic", "iso3": "CAF", "source": "HOTOSM/OSM", "latitude": 7.019668, "longitude": 19.259041 }, "geometry": { "type": "Point", "coordinates": [ 19.2590414, 7.0196682 ] } },
{ "type": "Feature", "properties": { "osm_id": 2685206811, "name": "École de Kotangombé", "amenity": "school", "building": null, "operator": "", "capacity": "", "addr_city": "", "country": "Central African Republic", "iso3": "CAF", "source": "HOTOSM/OSM", "latitude": 7.086649, "longitude": 19.236589 }, "geometry": { "type": "Point", "coordinates": [ 19.2365887, 7.0866489 ] } },
{ "type": "Feature", "properties": { "osm_id": 2685206813, "name": "École de Ngougaza", "amenity": "school", "building": null, "operator": "", "capacity": "", "addr_city": "", "country": "Central African Republic", "iso3": "CAF", "source": "HOTOSM/OSM", "latitude": 7.024914, "longitude": 19.329302 }, "geometry": { "type": "Point", "coordinates": [ 19.329302, 7.0249141 ] } },
{ "type": "Feature", "properties": { "osm_id": 2685206814, "name": "École de Ngribingui", "amenity": "school", "building": null, "operator": "", "capacity": "", "addr_city": "", "country": "Central African Republic", "iso3": "CAF", "source": "HOTOSM/OSM", "latitude": 7.017701, "longitude": 19.186607 }, "geometry": { "type": "Point", "coordinates": [ 19.1866067, 7.0177009 ] } },
{ "type": "Feature", "properties": { "osm_id": 2685592366, "name": "École Mixte de Bozoro", "amenity": "school", "building": null, "operator": "", "capacity": "", "addr_city": "", "country": "Central African Republic", "iso3": "CAF", "source": "HOTOSM/OSM", "latitude": 7.2541, "longitude": 18.7239 }, "geometry": { "type": "Point", "coordinates": [ 18.7239, 7.2541 ] } },
{ "type": "Feature", "properties": { "osm_id": 2685592367, "name": "École Mixte de Dessi", "amenity": "school", "building": null, "operator": "", "capacity": "", "addr_city": "", "country": "Central African Republic", "iso3": "CAF", "source": "HOTOSM/OSM", "latitude": 7.343749, "longitude": 18.770009 }, "geometry": { "type": "Point", "coordinates": [ 18.7700092, 7.3437492 ] } },
{ "type": "Feature", "properties": { "osm_id": 2685592379, "name": "École Mixte de Ndafourou", "amenity": "school", "building": null, "operator": "", "capacity": "", "addr_city": "", "country": "Central African Republic", "iso3": "CAF", "source": "HOTOSM/OSM", "latitude": 7.256774, "longitude": 18.71376 }, "geometry": { "type": "Point", "coordinates": [ 18.71376, 7.2567744 ] } },
{ "type": "Feature", "properties": { "osm_id": 2685592388, "name": "École Mixte de Ngoumourou", "amenity": "school", "building": null, "operator": "", "capacity": "", "addr_city": "", "country": "Central African Republic", "iso3": "CAF", "source": "HOTOSM/OSM", "latitude": 7.150944, "longitude": 18.977028 }, "geometry": { "type": "Point", "coordinates": [ 18.9770276, 7.1509435 ] } },
{ "type": "Feature", "properties": { "osm_id": 2685648614, "name": "École Mixte de Bosseli", "amenity": "school", "building": null, "operator": "", "capacity": "", "addr_city": "", "country": "Central African Republic", "iso3": "CAF", "source": "HOTOSM/OSM", "latitude": 5.825608, "longitude": 18.332998 }, "geometry": { "type": "Point", "coordinates": [ 18.3329976, 5.8256084 ] } },
{ "type": "Feature", "properties": { "osm_id": 2685648615, "name": "École Mixte de Gbangou", "amenity": "school", "building": null, "operator": "", "capacity": "", "addr_city": "", "country": "Central African Republic", "iso3": "CAF", "source": "HOTOSM/OSM", "latitude": 5.854306, "longitude": 18.344174 }, "geometry": { "type": "Point", "coordinates": [ 18.3441744, 5.8543063 ] } },
{ "type": "Feature", "properties": { "osm_id": 2685592430, "name": "École de Ndafourourou", "amenity": "school", "building": null, "operator": "", "capacity": "", "addr_city": "", "country": "Central African Republic", "iso3": "CAF", "source": "HOTOSM/OSM", "latitude": 7.259385, "longitude": 18.659097 }, "geometry": { "type": "Point", "coordinates": [ 18.6590972, 7.2593853 ] } },
{ "type": "Feature", "properties": { "osm_id": 2685750072, "name": "École Mixte d'Orongou", "amenity": "school", "building": null, "operator": "", "capacity": "", "addr_city": "", "country": "Central African Republic", "iso3": "CAF", "source": "HOTOSM/OSM", "latitude": 6.38529, "longitude": 18.3415 }, "geometry": { "type": "Point", "coordinates": [ 18.3415, 6.38529 ] } },
{ "type": "Feature", "properties": { "osm_id": 2685750080, "name": "École Mixte de Badawangue", "amenity": "school", "building": null, "operator": "", "capacity": "", "addr_city": "", "country": "Central African Republic", "iso3": "CAF", "source": "HOTOSM/OSM", "latitude": 6.60836, "longitude": 18.3406 }, "geometry": { "type": "Point", "coordinates": [ 18.3406, 6.60836 ] } },
{ "type": "Feature", "properties": { "osm_id": 2685750095, "name": "École Mixte de Gbangola", "amenity": "school", "building": null, "operator": "", "capacity": "", "addr_city": "", "country": "Central African Republic", "iso3": "CAF", "source": "HOTOSM/OSM", "latitude": 6.34736, "longitude": 18.3573 }, "geometry": { "type": "Point", "coordinates": [ 18.3573, 6.34736 ] } },
{ "type": "Feature", "properties": { "osm_id": 2685750088, "name": "École Mixte de Bongo", "amenity": "school", "building": null, "operator": "", "capacity": "", "addr_city": "", "country": "Central African Republic", "iso3": "CAF", "source": "HOTOSM/OSM", "latitude": 6.642696, "longitude": 18.347437 }, "geometry": { "type": "Point", "coordinates": [ 18.3474367, 6.6426964 ] } },
{ "type": "Feature", "properties": { "osm_id": 2685750103, "name": "École Sous-Préfectorale Mixte de Bouca", "amenity": "school", "building": null, "operator": "", "capacity": "", "addr_city": "", "country": "Central African Republic", "iso3": "CAF", "source": "HOTOSM/OSM", "latitude": 6.503571, "longitude": 18.282105 }, "geometry": { "type": "Point", "coordinates": [ 18.2821051, 6.5035706 ] } },
{ "type": "Feature", "properties": { "osm_id": 2685935158, "name": "GSP", "amenity": "school", "building": null, "operator": "", "capacity": "", "addr_city": "", "country": "Central African Republic", "iso3": "CAF", "source": "HOTOSM/OSM", "latitude": 3.77279, "longitude": 15.3274 }, "geometry": { "type": "Point", "coordinates": [ 15.3274, 3.77279 ] } },
{ "type": "Feature", "properties": { "osm_id": 2685935168, "name": "École Mixte de Binoumbi", "amenity": "school", "building": null, "operator": "", "capacity": "", "addr_city": "", "country": "Central African Republic", "iso3": "CAF", "source": "HOTOSM/OSM", "latitude": 3.83227, "longitude": 15.35547 }, "geometry": { "type": "Point", "coordinates": [ 15.3554697, 3.8322703 ] } },
{ "type": "Feature", "properties": { "osm_id": 2686011532, "name": "École Menessia", "amenity": "school", "building": null, "operator": "", "capacity": "", "addr_city": "", "country": "Central African Republic", "iso3": "CAF", "source": "HOTOSM/OSM", "latitude": 3.91996, "longitude": 15.3913 }, "geometry": { "type": "Point", "coordinates": [ 15.3913, 3.91996 ] } },
{ "type": "Feature", "properties": { "osm_id": 2686011533, "name": "École Mixte de Dori", "amenity": "school", "building": null, "operator": "", "capacity": "", "addr_city": "", "country": "Central African Republic", "iso3": "CAF", "source": "HOTOSM/OSM", "latitude": 3.906253, "longitude": 15.289179 }, "geometry": { "type": "Point", "coordinates": [ 15.2891786, 3.9062526 ] } },
{ "type": "Feature", "properties": { "osm_id": 2686011536, "name": "École Mixte de Modélé", "amenity": "school", "building": null, "operator": "", "capacity": "", "addr_city": "", "country": "Central African Republic", "iso3": "CAF", "source": "HOTOSM/OSM", "latitude": 3.905575, "longitude": 15.300942 }, "geometry": { "type": "Point", "coordinates": [ 15.3009416, 3.9055748 ] } },
{ "type": "Feature", "properties": { "osm_id": 2686011540, "name": "École Sous-Préfectorale de Dédé-Mokouba", "amenity": "school", "building": null, "operator": "", "capacity": "", "addr_city": "", "country": "Central African Republic", "iso3": "CAF", "source": "HOTOSM/OSM", "latitude": 3.932926, "longitude": 15.244007 }, "geometry": { "type": "Point", "coordinates": [ 15.2440066, 3.9329262 ] } },
{ "type": "Feature", "properties": { "osm_id": 2686011542, "name": "École de Kiba", "amenity": "school", "building": null, "operator": "", "capacity": "", "addr_city": "", "country": "Central African Republic", "iso3": "CAF", "source": "HOTOSM/OSM", "latitude": 4.157569, "longitude": 15.195347 }, "geometry": { "type": "Point", "coordinates": [ 15.1953471, 4.1575685 ] } },
{ "type": "Feature", "properties": { "osm_id": 2686011545, "name": "École de l'Église Évangélique EEB", "amenity": "school", "building": null, "operator": "", "capacity": "", "addr_city": "", "country": "Central African Republic", "iso3": "CAF", "source": "HOTOSM/OSM", "latitude": 3.932015, "longitude": 15.245242 }, "geometry": { "type": "Point", "coordinates": [ 15.2452416, 3.9320148 ] } },
{ "type": "Feature", "properties": { "osm_id": 2687803008, "name": "Ecole S-P de garçons et filles de Sosso-Nakombo", "amenity": "school", "building": null, "operator": "", "capacity": "", "addr_city": "", "country": "Central African Republic", "iso3": "CAF", "source": "HOTOSM/OSM", "latitude": 3.920078, "longitude": 15.500297 }, "geometry": { "type": "Point", "coordinates": [ 15.5002968, 3.9200775 ] } },
{ "type": "Feature", "properties": { "osm_id": 2687803053, "name": "École Mixte de Tapourou", "amenity": "school", "building": null, "operator": "", "capacity": "", "addr_city": "", "country": "Central African Republic", "iso3": "CAF", "source": "HOTOSM/OSM", "latitude": 4.150463, "longitude": 15.658229 }, "geometry": { "type": "Point", "coordinates": [ 15.6582295, 4.1504632 ] } },
{ "type": "Feature", "properties": { "osm_id": 2687803017, "name": "École Catholique Pietro-Pedroli", "amenity": "school", "building": null, "operator": "", "capacity": "", "addr_city": "", "country": "Central African Republic", "iso3": "CAF", "source": "HOTOSM/OSM", "latitude": 3.92556, "longitude": 15.5012 }, "geometry": { "type": "Point", "coordinates": [ 15.5012, 3.92556 ] } },
{ "type": "Feature", "properties": { "osm_id": 2687803037, "name": "École Mixte de Mandela", "amenity": "school", "building": null, "operator": "", "capacity": "", "addr_city": "", "country": "Central African Republic", "iso3": "CAF", "source": "HOTOSM/OSM", "latitude": 3.90728, "longitude": 15.5043 }, "geometry": { "type": "Point", "coordinates": [ 15.5043, 3.90728 ] } },
{ "type": "Feature", "properties": { "osm_id": 2687803045, "name": "École Mixte de Nzako", "amenity": "school", "building": null, "operator": "", "capacity": "", "addr_city": "", "country": "Central African Republic", "iso3": "CAF", "source": "HOTOSM/OSM", "latitude": 4.18929, "longitude": 15.7762 }, "geometry": { "type": "Point", "coordinates": [ 15.7762, 4.18929 ] } },
{ "type": "Feature", "properties": { "osm_id": 2687912547, "name": "École Mixte de Nanzembe", "amenity": "school", "building": null, "operator": "", "capacity": "", "addr_city": "", "country": "Central African Republic", "iso3": "CAF", "source": "HOTOSM/OSM", "latitude": 4.16122, "longitude": 15.95873 }, "geometry": { "type": "Point", "coordinates": [ 15.95873, 4.1612202 ] } },
{ "type": "Feature", "properties": { "osm_id": 2687912545, "name": "École Mixte de Bania", "amenity": "school", "building": null, "operator": "", "capacity": "", "addr_city": "", "country": "Central African Republic", "iso3": "CAF", "source": "HOTOSM/OSM", "latitude": 4.00037, "longitude": 16.111 }, "geometry": { "type": "Point", "coordinates": [ 16.111, 4.00037 ] } },
{ "type": "Feature", "properties": { "osm_id": 2687803061, "name": "École de Boufolo", "amenity": "school", "building": null, "operator": "", "capacity": "", "addr_city": "", "country": "Central African Republic", "iso3": "CAF", "source": "HOTOSM/OSM", "latitude": 3.90781, "longitude": 15.5014 }, "geometry": { "type": "Point", "coordinates": [ 15.5014, 3.90781 ] } },
{ "type": "Feature", "properties": { "osm_id": 2687912546, "name": "École Mixte de Nagati", "amenity": "school", "building": null, "operator": "", "capacity": "", "addr_city": "", "country": "Central African Republic", "iso3": "CAF", "source": "HOTOSM/OSM", "latitude": 4.145688, "longitude": 16.013786 }, "geometry": { "type": "Point", "coordinates": [ 16.0137863, 4.1456877 ] } },
{ "type": "Feature", "properties": { "osm_id": 2689271546, "name": "École de Gbangue", "amenity": "school", "building": null, "operator": "", "capacity": "", "addr_city": "", "country": "Central African Republic", "iso3": "CAF", "source": "HOTOSM/OSM", "latitude": 4.048198, "longitude": 16.205043 }, "geometry": { "type": "Point", "coordinates": [ 16.2050435, 4.048198 ] } },
{ "type": "Feature", "properties": { "osm_id": 2689280399, "name": "École Mixte de Bayama", "amenity": "school", "building": null, "operator": "", "capacity": "", "addr_city": "", "country": "Central African Republic", "iso3": "CAF", "source": "HOTOSM/OSM", "latitude": 4.424626, "longitude": 16.968055 }, "geometry": { "type": "Point", "coordinates": [ 16.9680552, 4.4246256 ] } },
{ "type": "Feature", "properties": { "osm_id": 2687912548, "name": "École de Sapoua", "amenity": "school", "building": null, "operator": "", "capacity": "", "addr_city": "", "country": "Central African Republic", "iso3": "CAF", "source": "HOTOSM/OSM", "latitude": 4.11653, "longitude": 16.0556 }, "geometry": { "type": "Point", "coordinates": [ 16.0556, 4.11653 ] } },
{ "type": "Feature", "properties": { "osm_id": 2687912549, "name": "École de Zaoropata", "amenity": "school", "building": null, "operator": "", "capacity": "", "addr_city": "", "country": "Central African Republic", "iso3": "CAF", "source": "HOTOSM/OSM", "latitude": 3.978481, "longitude": 16.164451 }, "geometry": { "type": "Point", "coordinates": [ 16.1644514, 3.9784811 ] } },
{ "type": "Feature", "properties": { "osm_id": 2689271545, "name": "École Mixte de Balego", "amenity": "school", "building": null, "operator": "", "capacity": "", "addr_city": "", "country": "Central African Republic", "iso3": "CAF", "source": "HOTOSM/OSM", "latitude": 3.92724, "longitude": 16.240901 }, "geometry": { "type": "Point", "coordinates": [ 16.240901, 3.9272397 ] } },
{ "type": "Feature", "properties": { "osm_id": 2689713067, "name": "École Mixte de Gbassounou", "amenity": "school", "building": null, "operator": "", "capacity": "", "addr_city": "", "country": "Central African Republic", "iso3": "CAF", "source": "HOTOSM/OSM", "latitude": 4.48604, "longitude": 16.7764 }, "geometry": { "type": "Point", "coordinates": [ 16.7764, 4.48604 ] } },
{ "type": "Feature", "properties": { "osm_id": 2689713068, "name": "École Mixte de Kamanga", "amenity": "school", "building": null, "operator": "", "capacity": "", "addr_city": "", "country": "Central African Republic", "iso3": "CAF", "source": "HOTOSM/OSM", "latitude": 4.39346, "longitude": 16.6237 }, "geometry": { "type": "Point", "coordinates": [ 16.6237, 4.39346 ] } },
{ "type": "Feature", "properties": { "osm_id": 2689280400, "name": "École Mixte de Beina", "amenity": "school", "building": null, "operator": "", "capacity": "", "addr_city": "", "country": "Central African Republic", "iso3": "CAF", "source": "HOTOSM/OSM", "latitude": 4.47294, "longitude": 16.8869 }, "geometry": { "type": "Point", "coordinates": [ 16.8869, 4.47294 ] } },
{ "type": "Feature", "properties": { "osm_id": 2689713066, "name": "École Mixte de Dengbe", "amenity": "school", "building": null, "operator": "", "capacity": "", "addr_city": "", "country": "Central African Republic", "iso3": "CAF", "source": "HOTOSM/OSM", "latitude": 4.423557, "longitude": 16.741987 }, "geometry": { "type": "Point", "coordinates": [ 16.7419866, 4.4235574 ] } },
{ "type": "Feature", "properties": { "osm_id": 2689713069, "name": "École de Sassélé", "amenity": "school", "building": null, "operator": "", "capacity": "", "addr_city": "", "country": "Central African Republic", "iso3": "CAF", "source": "HOTOSM/OSM", "latitude": 4.51603, "longitude": 16.835 }, "geometry": { "type": "Point", "coordinates": [ 16.835, 4.51603 ] } },
{ "type": "Feature", "properties": { "osm_id": 2689744432, "name": "École Catholique Associée Sainte Famille", "amenity": "school", "building": null, "operator": "", "capacity": "", "addr_city": "", "country": "Central African Republic", "iso3": "CAF", "source": "HOTOSM/OSM", "latitude": 4.436693, "longitude": 16.490664 }, "geometry": { "type": "Point", "coordinates": [ 16.4906642, 4.4366925 ] } },
{ "type": "Feature", "properties": { "osm_id": 2689744433, "name": "École Fondamentale de Kamba", "amenity": "school", "building": null, "operator": "", "capacity": "", "addr_city": "", "country": "Central African Republic", "iso3": "CAF", "source": "HOTOSM/OSM", "latitude": 4.52875, "longitude": 16.499326 }, "geometry": { "type": "Point", "coordinates": [ 16.4993263, 4.5287502 ] } },
{ "type": "Feature", "properties": { "osm_id": 2689744434, "name": "École Mixte de Mboula", "amenity": "school", "building": null, "operator": "", "capacity": "", "addr_city": "", "country": "Central African Republic", "iso3": "CAF", "source": "HOTOSM/OSM", "latitude": 4.438641, "longitude": 16.480904 }, "geometry": { "type": "Point", "coordinates": [ 16.4809041, 4.4386412 ] } },
{ "type": "Feature", "properties": { "osm_id": 2689744442, "name": "École de Yamale", "amenity": "school", "building": null, "operator": "", "capacity": "", "addr_city": "", "country": "Central African Republic", "iso3": "CAF", "source": "HOTOSM/OSM", "latitude": 4.25225, "longitude": 16.3079 }, "geometry": { "type": "Point", "coordinates": [ 16.3079, 4.25225 ] } },
{ "type": "Feature", "properties": { "osm_id": 2692004688, "name": "École Mixte de Ngbako", "amenity": "school", "building": null, "operator": "", "capacity": "", "addr_city": "", "country": "Central African Republic", "iso3": "CAF", "source": "HOTOSM/OSM", "latitude": 4.478468, "longitude": 15.843062 }, "geometry": { "type": "Point", "coordinates": [ 15.8430621, 4.478468 ] } },
{ "type": "Feature", "properties": { "osm_id": 2692004690, "name": "École Mixte de Sangamini", "amenity": "school", "building": null, "operator": "", "capacity": "", "addr_city": "", "country": "Central African Republic", "iso3": "CAF", "source": "HOTOSM/OSM", "latitude": 4.239992, "longitude": 15.845591 }, "geometry": { "type": "Point", "coordinates": [ 15.845591, 4.2399916 ] } },
{ "type": "Feature", "properties": { "osm_id": 2693871545, "name": "École de Gbada", "amenity": "school", "building": null, "operator": "", "capacity": "", "addr_city": "", "country": "Central African Republic", "iso3": "CAF", "source": "HOTOSM/OSM", "latitude": 4.912912, "longitude": 20.291149 }, "geometry": { "type": "Point", "coordinates": [ 20.2911491, 4.9129118 ] } },
{ "type": "Feature", "properties": { "osm_id": 2693871546, "name": "École de Gofou", "amenity": "school", "building": null, "operator": "", "capacity": "", "addr_city": "", "country": "Central African Republic", "iso3": "CAF", "source": "HOTOSM/OSM", "latitude": 4.866084, "longitude": 20.382294 }, "geometry": { "type": "Point", "coordinates": [ 20.3822938, 4.8660842 ] } },
{ "type": "Feature", "properties": { "osm_id": 2693871548, "name": "École de Rendekouzou", "amenity": "school", "building": null, "operator": "", "capacity": "", "addr_city": "", "country": "Central African Republic", "iso3": "CAF", "source": "HOTOSM/OSM", "latitude": 4.903318, "longitude": 20.349074 }, "geometry": { "type": "Point", "coordinates": [ 20.3490743, 4.9033178 ] } },
{ "type": "Feature", "properties": { "osm_id": 2693879978, "name": "École de Bamado", "amenity": "school", "building": null, "operator": "", "capacity": "", "addr_city": "", "country": "Central African Republic", "iso3": "CAF", "source": "HOTOSM/OSM", "latitude": 6.029714, "longitude": 20.794036 }, "geometry": { "type": "Point", "coordinates": [ 20.7940361, 6.0297138 ] } },
{ "type": "Feature", "properties": { "osm_id": 2693879980, "name": "École de Gralendji", "amenity": "school", "building": null, "operator": "", "capacity": "", "addr_city": "", "country": "Central African Republic", "iso3": "CAF", "source": "HOTOSM/OSM", "latitude": 6.09915, "longitude": 20.797 }, "geometry": { "type": "Point", "coordinates": [ 20.797, 6.09915 ] } },
{ "type": "Feature", "properties": { "osm_id": 2693879981, "name": "École de Ndakara", "amenity": "school", "building": null, "operator": "", "capacity": "", "addr_city": "", "country": "Central African Republic", "iso3": "CAF", "source": "HOTOSM/OSM", "latitude": 6.233466, "longitude": 20.95061 }, "geometry": { "type": "Point", "coordinates": [ 20.9506097, 6.2334656 ] } },
{ "type": "Feature", "properties": { "osm_id": 2693941625, "name": "École de Batobadja", "amenity": "school", "building": null, "operator": "", "capacity": "", "addr_city": "", "country": "Central African Republic", "iso3": "CAF", "source": "HOTOSM/OSM", "latitude": 5.578384, "longitude": 20.817714 }, "geometry": { "type": "Point", "coordinates": [ 20.8177142, 5.578384 ] } },
{ "type": "Feature", "properties": { "osm_id": 2693941628, "name": "École de Bokolobo", "amenity": "school", "building": null, "operator": "", "capacity": "", "addr_city": "", "country": "Central African Republic", "iso3": "CAF", "source": "HOTOSM/OSM", "latitude": 5.41945, "longitude": 20.9441 }, "geometry": { "type": "Point", "coordinates": [ 20.9441, 5.41945 ] } },
{ "type": "Feature", "properties": { "osm_id": 2693941630, "name": "École de Yangoya", "amenity": "school", "building": null, "operator": "", "capacity": "", "addr_city": "", "country": "Central African Republic", "iso3": "CAF", "source": "HOTOSM/OSM", "latitude": 5.453275, "longitude": 20.856563 }, "geometry": { "type": "Point", "coordinates": [ 20.8565628, 5.4532745 ] } },
{ "type": "Feature", "properties": { "osm_id": 2699090308, "name": "École Ouandama", "amenity": "school", "building": null, "operator": "", "capacity": "", "addr_city": "", "country": "Central African Republic", "iso3": "CAF", "source": "HOTOSM/OSM", "latitude": 5.61528, "longitude": 20.0643 }, "geometry": { "type": "Point", "coordinates": [ 20.0643, 5.61528 ] } },
{ "type": "Feature", "properties": { "osm_id": 2699090321, "name": "École de Bangao", "amenity": "school", "building": null, "operator": "", "capacity": "", "addr_city": "", "country": "Central African Republic", "iso3": "CAF", "source": "HOTOSM/OSM", "latitude": 5.28265, "longitude": 20.1781 }, "geometry": { "type": "Point", "coordinates": [ 20.1781, 5.28265 ] } },
{ "type": "Feature", "properties": { "osm_id": 2699090334, "name": "École de Goussema", "amenity": "school", "building": null, "operator": "", "capacity": "", "addr_city": "", "country": "Central African Republic", "iso3": "CAF", "source": "HOTOSM/OSM", "latitude": 5.401, "longitude": 20.1207 }, "geometry": { "type": "Point", "coordinates": [ 20.1207, 5.401 ] } },
{ "type": "Feature", "properties": { "osm_id": 2699090355, "name": "École de Lakandja", "amenity": "school", "building": null, "operator": "", "capacity": "", "addr_city": "", "country": "Central African Republic", "iso3": "CAF", "source": "HOTOSM/OSM", "latitude": 5.48822, "longitude": 20.0473 }, "geometry": { "type": "Point", "coordinates": [ 20.0473, 5.48822 ] } },
{ "type": "Feature", "properties": { "osm_id": 2699090366, "name": "École de Liotto", "amenity": "school", "building": null, "operator": "", "capacity": "", "addr_city": "", "country": "Central African Republic", "iso3": "CAF", "source": "HOTOSM/OSM", "latitude": 5.32105, "longitude": 20.1502 }, "geometry": { "type": "Point", "coordinates": [ 20.1502, 5.32105 ] } },
{ "type": "Feature", "properties": { "osm_id": 2699090377, "name": "École de Mbrougbaga", "amenity": "school", "building": null, "operator": "", "capacity": "", "addr_city": "", "country": "Central African Republic", "iso3": "CAF", "source": "HOTOSM/OSM", "latitude": 5.391546, "longitude": 20.275195 }, "geometry": { "type": "Point", "coordinates": [ 20.2751952, 5.3915464 ] } },
{ "type": "Feature", "properties": { "osm_id": 2699090382, "name": "École de Zougougbada", "amenity": "school", "building": null, "operator": "", "capacity": "", "addr_city": "", "country": "Central African Republic", "iso3": "CAF", "source": "HOTOSM/OSM", "latitude": 5.369346, "longitude": 20.228968 }, "geometry": { "type": "Point", "coordinates": [ 20.228968, 5.3693465 ] } },
{ "type": "Feature", "properties": { "osm_id": 2700281736, "name": "École SP de Bakala", "amenity": "school", "building": null, "operator": "", "capacity": "", "addr_city": "", "country": "Central African Republic", "iso3": "CAF", "source": "HOTOSM/OSM", "latitude": 6.196725, "longitude": 20.386643 }, "geometry": { "type": "Point", "coordinates": [ 20.3866428, 6.1967254 ] } },
{ "type": "Feature", "properties": { "osm_id": 2700281737, "name": "École de Morouba", "amenity": "school", "building": null, "operator": "", "capacity": "", "addr_city": "", "country": "Central African Republic", "iso3": "CAF", "source": "HOTOSM/OSM", "latitude": 6.211076, "longitude": 20.221088 }, "geometry": { "type": "Point", "coordinates": [ 20.2210881, 6.2110762 ] } },
{ "type": "Feature", "properties": { "osm_id": 2700324142, "name": "École de Djabrafo", "amenity": "school", "building": null, "operator": "", "capacity": "", "addr_city": "", "country": "Central African Republic", "iso3": "CAF", "source": "HOTOSM/OSM", "latitude": 6.696671, "longitude": 19.567121 }, "geometry": { "type": "Point", "coordinates": [ 19.5671214, 6.6966715 ] } },
{ "type": "Feature", "properties": { "osm_id": 2700324149, "name": "École de Doukouma", "amenity": "school", "building": null, "operator": "", "capacity": "", "addr_city": "", "country": "Central African Republic", "iso3": "CAF", "source": "HOTOSM/OSM", "latitude": 6.70481, "longitude": 19.3775 }, "geometry": { "type": "Point", "coordinates": [ 19.3775, 6.70481 ] } },
{ "type": "Feature", "properties": { "osm_id": 2700324154, "name": "École de Gazao", "amenity": "school", "building": null, "operator": "", "capacity": "", "addr_city": "", "country": "Central African Republic", "iso3": "CAF", "source": "HOTOSM/OSM", "latitude": 6.696137, "longitude": 19.523361 }, "geometry": { "type": "Point", "coordinates": [ 19.5233613, 6.6961373 ] } },
{ "type": "Feature", "properties": { "osm_id": 2700324155, "name": "École de Kanga", "amenity": "school", "building": null, "operator": "", "capacity": "", "addr_city": "", "country": "Central African Republic", "iso3": "CAF", "source": "HOTOSM/OSM", "latitude": 6.69449, "longitude": 19.4668 }, "geometry": { "type": "Point", "coordinates": [ 19.4668, 6.69449 ] } },
{ "type": "Feature", "properties": { "osm_id": 2700766916, "name": "École de Beina", "amenity": "school", "building": null, "operator": "", "capacity": "", "addr_city": "", "country": "Central African Republic", "iso3": "CAF", "source": "HOTOSM/OSM", "latitude": 4.44996, "longitude": 15.014329 }, "geometry": { "type": "Point", "coordinates": [ 15.0143291, 4.44996 ] } },
{ "type": "Feature", "properties": { "osm_id": 2706526785, "name": "École Mixte de Dongo", "amenity": "school", "building": null, "operator": "", "capacity": "", "addr_city": "", "country": "Central African Republic", "iso3": "CAF", "source": "HOTOSM/OSM", "latitude": 4.23247, "longitude": 15.2992 }, "geometry": { "type": "Point", "coordinates": [ 15.2992, 4.23247 ] } },
{ "type": "Feature", "properties": { "osm_id": 2708796349, "name": "École Mixte de Sagbanda", "amenity": "school", "building": null, "operator": "", "capacity": "", "addr_city": "", "country": "Central African Republic", "iso3": "CAF", "source": "HOTOSM/OSM", "latitude": 4.246949, "longitude": 15.793563 }, "geometry": { "type": "Point", "coordinates": [ 15.7935625, 4.2469485 ] } },
{ "type": "Feature", "properties": { "osm_id": 2708796379, "name": "École Padre Pio", "amenity": "school", "building": null, "operator": "", "capacity": "", "addr_city": "", "country": "Central African Republic", "iso3": "CAF", "source": "HOTOSM/OSM", "latitude": 4.240934, "longitude": 15.792073 }, "geometry": { "type": "Point", "coordinates": [ 15.7920729, 4.2409337 ] } },
{ "type": "Feature", "properties": { "osm_id": 2708796392, "name": "École Préfectorale Mixte A et B", "amenity": "school", "building": null, "operator": "", "capacity": "", "addr_city": "", "country": "Central African Republic", "iso3": "CAF", "source": "HOTOSM/OSM", "latitude": 4.256892, "longitude": 15.790069 }, "geometry": { "type": "Point", "coordinates": [ 15.7900691, 4.2568916 ] } },
{ "type": "Feature", "properties": { "osm_id": 2708796399, "name": "École Préfectorale de Filles et Garçons de Berbérati", "amenity": "school", "building": null, "operator": "", "capacity": "", "addr_city": "", "country": "Central African Republic", "iso3": "CAF", "source": "HOTOSM/OSM", "latitude": 4.258131, "longitude": 15.789875 }, "geometry": { "type": "Point", "coordinates": [ 15.7898749, 4.2581308 ] } },
{ "type": "Feature", "properties": { "osm_id": 2708796438, "name": "École de Çava de Filles et Garçons", "amenity": "school", "building": null, "operator": "", "capacity": "", "addr_city": "", "country": "Central African Republic", "iso3": "CAF", "source": "HOTOSM/OSM", "latitude": 4.270675, "longitude": 15.796177 }, "geometry": { "type": "Point", "coordinates": [ 15.7961769, 4.2706746 ] } },
{ "type": "Feature", "properties": { "osm_id": 2709073613, "name": "École Communautaire de Date", "amenity": "school", "building": null, "operator": "", "capacity": "", "addr_city": "", "country": "Central African Republic", "iso3": "CAF", "source": "HOTOSM/OSM", "latitude": 4.636098, "longitude": 15.551634 }, "geometry": { "type": "Point", "coordinates": [ 15.5516338, 4.6360978 ] } },
{ "type": "Feature", "properties": { "osm_id": 2709073620, "name": "École Mixte de Nandobo", "amenity": "school", "building": null, "operator": "", "capacity": "", "addr_city": "", "country": "Central African Republic", "iso3": "CAF", "source": "HOTOSM/OSM", "latitude": 4.663027, "longitude": 15.799003 }, "geometry": { "type": "Point", "coordinates": [ 15.7990035, 4.6630272 ] } },
{ "type": "Feature", "properties": { "osm_id": 2709073636, "name": "École de Mbouli", "amenity": "school", "building": null, "operator": "", "capacity": "", "addr_city": "", "country": "Central African Republic", "iso3": "CAF", "source": "HOTOSM/OSM", "latitude": 4.898952, "longitude": 15.524273 }, "geometry": { "type": "Point", "coordinates": [ 15.5242725, 4.8989522 ] } },
{ "type": "Feature", "properties": { "osm_id": 2709320249, "name": "École de Djembé", "amenity": "school", "building": null, "operator": "", "capacity": "", "addr_city": "", "country": "Central African Republic", "iso3": "CAF", "source": "HOTOSM/OSM", "latitude": 4.915114, "longitude": 15.85185 }, "geometry": { "type": "Point", "coordinates": [ 15.8518498, 4.9151139 ] } },
{ "type": "Feature", "properties": { "osm_id": 2709518569, "name": "Ecole Mixte de Panga", "amenity": "school", "building": null, "operator": "", "capacity": "", "addr_city": "", "country": "Central African Republic", "iso3": "CAF", "source": "HOTOSM/OSM", "latitude": 4.577499, "longitude": 16.594402 }, "geometry": { "type": "Point", "coordinates": [ 16.5944021, 4.5774986 ] } },
{ "type": "Feature", "properties": { "osm_id": 2709518593, "name": "École Sous-Préfectorale de Gadzi", "amenity": "school", "building": null, "operator": "", "capacity": "", "addr_city": "", "country": "Central African Republic", "iso3": "CAF", "source": "HOTOSM/OSM", "latitude": 4.780535, "longitude": 16.703103 }, "geometry": { "type": "Point", "coordinates": [ 16.7031027, 4.7805348 ] } },
{ "type": "Feature", "properties": { "osm_id": 2709518603, "name": "École de Djomo", "amenity": "school", "building": null, "operator": "", "capacity": "", "addr_city": "", "country": "Central African Republic", "iso3": "CAF", "source": "HOTOSM/OSM", "latitude": 4.805708, "longitude": 16.557847 }, "geometry": { "type": "Point", "coordinates": [ 16.5578472, 4.8057084 ] } },
{ "type": "Feature", "properties": { "osm_id": 2709704121, "name": "O S Sagani", "amenity": "school", "building": null, "operator": "", "capacity": "", "addr_city": "", "country": "Central African Republic", "iso3": "CAF", "source": "HOTOSM/OSM", "latitude": 5.187625, "longitude": 14.863542 }, "geometry": { "type": "Point", "coordinates": [ 14.8635422, 5.1876254 ] } },
{ "type": "Feature", "properties": { "osm_id": 2710025882, "name": "Charpente Mixte de Carnot", "amenity": "school", "building": null, "operator": "", "capacity": "", "addr_city": "", "country": "Central African Republic", "iso3": "CAF", "source": "HOTOSM/OSM", "latitude": 4.95387, "longitude": 15.880287 }, "geometry": { "type": "Point", "coordinates": [ 15.8802869, 4.9538702 ] } },
{ "type": "Feature", "properties": { "osm_id": 2710025890, "name": "École Mixte de Gbagaza (Kpongo)", "amenity": "school", "building": null, "operator": "", "capacity": "", "addr_city": "", "country": "Central African Republic", "iso3": "CAF", "source": "HOTOSM/OSM", "latitude": 4.935245, "longitude": 15.876895 }, "geometry": { "type": "Point", "coordinates": [ 15.8768952, 4.9352449 ] } },
{ "type": "Feature", "properties": { "osm_id": 2710025898, "name": "École Mixte de Kpokolita", "amenity": "school", "building": null, "operator": "", "capacity": "", "addr_city": "", "country": "Central African Republic", "iso3": "CAF", "source": "HOTOSM/OSM", "latitude": 4.959242, "longitude": 15.911049 }, "geometry": { "type": "Point", "coordinates": [ 15.9110488, 4.9592416 ] } },
{ "type": "Feature", "properties": { "osm_id": 2710025921, "name": "École Sous-Préfectorale de Carnot", "amenity": "school", "building": null, "operator": "", "capacity": "", "addr_city": "", "country": "Central African Republic", "iso3": "CAF", "source": "HOTOSM/OSM", "latitude": 4.953575, "longitude": 15.879832 }, "geometry": { "type": "Point", "coordinates": [ 15.8798316, 4.9535754 ] } },
{ "type": "Feature", "properties": { "osm_id": 2710025928, "name": "École Valentin Betalain", "amenity": "school", "building": null, "operator": "", "capacity": "", "addr_city": "", "country": "Central African Republic", "iso3": "CAF", "source": "HOTOSM/OSM", "latitude": 4.93728, "longitude": 15.879399 }, "geometry": { "type": "Point", "coordinates": [ 15.8793995, 4.9372804 ] } },
{ "type": "Feature", "properties": { "osm_id": 2710025935, "name": "École de Mambere", "amenity": "school", "building": null, "operator": "", "capacity": "", "addr_city": "", "country": "Central African Republic", "iso3": "CAF", "source": "HOTOSM/OSM", "latitude": 4.940213, "longitude": 15.854423 }, "geometry": { "type": "Point", "coordinates": [ 15.854423, 4.9402129 ] } },
{ "type": "Feature", "properties": { "osm_id": 2710059419, "name": "École de Demon-Gbateké", "amenity": "school", "building": null, "operator": "", "capacity": "", "addr_city": "", "country": "Central African Republic", "iso3": "CAF", "source": "HOTOSM/OSM", "latitude": 4.975416, "longitude": 16.275445 }, "geometry": { "type": "Point", "coordinates": [ 16.2754447, 4.9754164 ] } },
{ "type": "Feature", "properties": { "osm_id": 2710959963, "name": "O S Camp Cafe", "amenity": "school", "building": null, "operator": "", "capacity": "", "addr_city": "", "country": "Central African Republic", "iso3": "CAF", "source": "HOTOSM/OSM", "latitude": 5.350486, "longitude": 15.11211 }, "geometry": { "type": "Point", "coordinates": [ 15.11211, 5.350486 ] } },
{ "type": "Feature", "properties": { "osm_id": 2710959973, "name": "O S Ndoké", "amenity": "school", "building": null, "operator": "", "capacity": "", "addr_city": "", "country": "Central African Republic", "iso3": "CAF", "source": "HOTOSM/OSM", "latitude": 5.485452, "longitude": 15.004529 }, "geometry": { "type": "Point", "coordinates": [ 15.0045291, 5.4854521 ] } },
{ "type": "Feature", "properties": { "osm_id": 2710883643, "name": "O S Bagari", "amenity": "school", "building": null, "operator": "", "capacity": "", "addr_city": "", "country": "Central African Republic", "iso3": "CAF", "source": "HOTOSM/OSM", "latitude": 5.285806, "longitude": 14.730118 }, "geometry": { "type": "Point", "coordinates": [ 14.730118, 5.285806 ] } },
{ "type": "Feature", "properties": { "osm_id": 2710059420, "name": "École de Zaorossongou", "amenity": "school", "building": null, "operator": "", "capacity": "", "addr_city": "", "country": "Central African Republic", "iso3": "CAF", "source": "HOTOSM/OSM", "latitude": 5.04327, "longitude": 16.2131 }, "geometry": { "type": "Point", "coordinates": [ 16.2131, 5.04327 ] } },
{ "type": "Feature", "properties": { "osm_id": 2711003108, "name": "École d'Abba", "amenity": "school", "building": null, "operator": "", "capacity": "", "addr_city": "", "country": "Central African Republic", "iso3": "CAF", "source": "HOTOSM/OSM", "latitude": 5.335921, "longitude": 15.154877 }, "geometry": { "type": "Point", "coordinates": [ 15.1548767, 5.3359209 ] } },
{ "type": "Feature", "properties": { "osm_id": 2710959988, "name": "École d'Abo-Boguirma", "amenity": "school", "building": null, "operator": "", "capacity": "", "addr_city": "", "country": "Central African Republic", "iso3": "CAF", "source": "HOTOSM/OSM", "latitude": 5.481633, "longitude": 14.943429 }, "geometry": { "type": "Point", "coordinates": [ 14.9434291, 5.4816328 ] } },
{ "type": "Feature", "properties": { "osm_id": 2710960032, "name": "École de Bera-Boyere", "amenity": "school", "building": null, "operator": "", "capacity": "", "addr_city": "", "country": "Central African Republic", "iso3": "CAF", "source": "HOTOSM/OSM", "latitude": 5.585881, "longitude": 14.79158 }, "geometry": { "type": "Point", "coordinates": [ 14.79158, 5.585881 ] } },
{ "type": "Feature", "properties": { "osm_id": 2710960042, "name": "École de Mbartoua-Ndenga", "amenity": "school", "building": null, "operator": "", "capacity": "", "addr_city": "", "country": "Central African Republic", "iso3": "CAF", "source": "HOTOSM/OSM", "latitude": 5.471378, "longitude": 15.047361 }, "geometry": { "type": "Point", "coordinates": [ 15.0473611, 5.471378 ] } },
{ "type": "Feature", "properties": { "osm_id": 2711057150, "name": "École de Samba-Bougoulou", "amenity": "school", "building": null, "operator": "", "capacity": "", "addr_city": "", "country": "Central African Republic", "iso3": "CAF", "source": "HOTOSM/OSM", "latitude": 5.430286, "longitude": 15.974796 }, "geometry": { "type": "Point", "coordinates": [ 15.974796, 5.4302856 ] } },
{ "type": "Feature", "properties": { "osm_id": 2711057149, "name": "École de Mbormo", "amenity": "school", "building": null, "operator": "", "capacity": "", "addr_city": "", "country": "Central African Republic", "iso3": "CAF", "source": "HOTOSM/OSM", "latitude": 5.61514, "longitude": 16.1692 }, "geometry": { "type": "Point", "coordinates": [ 16.1692, 5.61514 ] } },
{ "type": "Feature", "properties": { "osm_id": 2711080369, "name": "École Mixte d'Adamou", "amenity": "school", "building": null, "operator": "", "capacity": "", "addr_city": "", "country": "Central African Republic", "iso3": "CAF", "source": "HOTOSM/OSM", "latitude": 5.55429, "longitude": 16.4547 }, "geometry": { "type": "Point", "coordinates": [ 16.4547, 5.55429 ] } },