{
"type": "FeatureCollection",
"name": "SYR_schools",
"crs": { "type": "name", "properties": { "name": "urn:ogc:def:crs:OGC:1.3:CRS84" } },
"features": [
{ "type": "Feature", "properties": { "osm_id": 3945072061, "name": "", "amenity": "school", "building": null, "operator": "", "capacity": "", "addr_city": "", "country": "Syria", "iso3": "SYR", "source": "HOTOSM/OSM", "latitude": 34.784791, "longitude": 36.090246 }, "geometry": { "type": "Point", "coordinates": [ 36.0902465, 34.7847908 ] } },
{ "type": "Feature", "properties": { "osm_id": 3945072531, "name": "", "amenity": "school", "building": null, "operator": "", "capacity": "", "addr_city": "", "country": "Syria", "iso3": "SYR", "source": "HOTOSM/OSM", "latitude": 34.818035, "longitude": 36.122481 }, "geometry": { "type": "Point", "coordinates": [ 36.1224807, 34.818035 ] } },
{ "type": "Feature", "properties": { "osm_id": 3945099910, "name": "", "amenity": "school", "building": null, "operator": "", "capacity": "", "addr_city": "", "country": "Syria", "iso3": "SYR", "source": "HOTOSM/OSM", "latitude": 34.730243, "longitude": 36.108821 }, "geometry": { "type": "Point", "coordinates": [ 36.1088205, 34.7302434 ] } },
{ "type": "Feature", "properties": { "osm_id": 3945072534, "name": "", "amenity": "school", "building": null, "operator": "", "capacity": "", "addr_city": "", "country": "Syria", "iso3": "SYR", "source": "HOTOSM/OSM", "latitude": 34.814683, "longitude": 36.129248 }, "geometry": { "type": "Point", "coordinates": [ 36.1292484, 34.814683 ] } },
{ "type": "Feature", "properties": { "osm_id": 3945072535, "name": "", "amenity": "school", "building": null, "operator": "", "capacity": "", "addr_city": "", "country": "Syria", "iso3": "SYR", "source": "HOTOSM/OSM", "latitude": 34.811028, "longitude": 36.12791 }, "geometry": { "type": "Point", "coordinates": [ 36.1279103, 34.811028 ] } },
{ "type": "Feature", "properties": { "osm_id": 3945135843, "name": "", "amenity": "school", "building": null, "operator": "", "capacity": "", "addr_city": "", "country": "Syria", "iso3": "SYR", "source": "HOTOSM/OSM", "latitude": 34.874918, "longitude": 36.035337 }, "geometry": { "type": "Point", "coordinates": [ 36.0353366, 34.8749177 ] } },
{ "type": "Feature", "properties": { "osm_id": 3945136559, "name": "", "amenity": "school", "building": null, "operator": "", "capacity": "", "addr_city": "", "country": "Syria", "iso3": "SYR", "source": "HOTOSM/OSM", "latitude": 34.90407, "longitude": 36.041207 }, "geometry": { "type": "Point", "coordinates": [ 36.0412066, 34.9040699 ] } },
{ "type": "Feature", "properties": { "osm_id": 3945123243, "name": "", "amenity": "school", "building": null, "operator": "", "capacity": "", "addr_city": "", "country": "Syria", "iso3": "SYR", "source": "HOTOSM/OSM", "latitude": 34.859055, "longitude": 36.10698 }, "geometry": { "type": "Point", "coordinates": [ 36.1069796, 34.8590548 ] } },
{ "type": "Feature", "properties": { "osm_id": 3945123295, "name": "", "amenity": "school", "building": null, "operator": "", "capacity": "", "addr_city": "", "country": "Syria", "iso3": "SYR", "source": "HOTOSM/OSM", "latitude": 34.868305, "longitude": 36.079799 }, "geometry": { "type": "Point", "coordinates": [ 36.0797987, 34.8683048 ] } },
{ "type": "Feature", "properties": { "osm_id": 3945123297, "name": "", "amenity": "school", "building": null, "operator": "", "capacity": "", "addr_city": "", "country": "Syria", "iso3": "SYR", "source": "HOTOSM/OSM", "latitude": 34.873899, "longitude": 36.056851 }, "geometry": { "type": "Point", "coordinates": [ 36.0568511, 34.8738988 ] } },
{ "type": "Feature", "properties": { "osm_id": 3945030373, "name": "", "amenity": "school", "building": null, "operator": "", "capacity": "", "addr_city": "", "country": "Syria", "iso3": "SYR", "source": "HOTOSM/OSM", "latitude": 34.752092, "longitude": 35.934456 }, "geometry": { "type": "Point", "coordinates": [ 35.9344564, 34.7520916 ] } },
{ "type": "Feature", "properties": { "osm_id": 3928015092, "name": "", "amenity": "school", "building": null, "operator": "", "capacity": "", "addr_city": "", "country": "Syria", "iso3": "SYR", "source": "HOTOSM/OSM", "latitude": 35.490944, "longitude": 36.910685 }, "geometry": { "type": "Point", "coordinates": [ 36.9106848, 35.4909438 ] } },
{ "type": "Feature", "properties": { "osm_id": 3928015109, "name": "", "amenity": "school", "building": null, "operator": "", "capacity": "", "addr_city": "", "country": "Syria", "iso3": "SYR", "source": "HOTOSM/OSM", "latitude": 35.540581, "longitude": 36.903391 }, "geometry": { "type": "Point", "coordinates": [ 36.9033905, 35.5405812 ] } },
{ "type": "Feature", "properties": { "osm_id": 3928015123, "name": "", "amenity": "school", "building": null, "operator": "", "capacity": "", "addr_city": "", "country": "Syria", "iso3": "SYR", "source": "HOTOSM/OSM", "latitude": 35.545921, "longitude": 36.863699 }, "geometry": { "type": "Point", "coordinates": [ 36.8636987, 35.5459209 ] } },
{ "type": "Feature", "properties": { "osm_id": 3928015289, "name": "", "amenity": "school", "building": null, "operator": "", "capacity": "", "addr_city": "", "country": "Syria", "iso3": "SYR", "source": "HOTOSM/OSM", "latitude": 35.540271, "longitude": 36.838464 }, "geometry": { "type": "Point", "coordinates": [ 36.8384639, 35.540271 ] } },
{ "type": "Feature", "properties": { "osm_id": 3928015312, "name": "", "amenity": "school", "building": null, "operator": "", "capacity": "", "addr_city": "", "country": "Syria", "iso3": "SYR", "source": "HOTOSM/OSM", "latitude": 35.503476, "longitude": 36.783407 }, "geometry": { "type": "Point", "coordinates": [ 36.7834066, 35.5034758 ] } },
{ "type": "Feature", "properties": { "osm_id": 3928683370, "name": "", "amenity": "school", "building": null, "operator": "", "capacity": "", "addr_city": "", "country": "Syria", "iso3": "SYR", "source": "HOTOSM/OSM", "latitude": 35.899893, "longitude": 37.044419 }, "geometry": { "type": "Point", "coordinates": [ 37.0444189, 35.8998929 ] } },
{ "type": "Feature", "properties": { "osm_id": 3928015177, "name": "", "amenity": "school", "building": null, "operator": "", "capacity": "", "addr_city": "", "country": "Syria", "iso3": "SYR", "source": "HOTOSM/OSM", "latitude": 35.494972, "longitude": 36.858013 }, "geometry": { "type": "Point", "coordinates": [ 36.8580132, 35.4949716 ] } },
{ "type": "Feature", "properties": { "osm_id": 3928015374, "name": "", "amenity": "school", "building": null, "operator": "", "capacity": "", "addr_city": "", "country": "Syria", "iso3": "SYR", "source": "HOTOSM/OSM", "latitude": 35.539805, "longitude": 36.722818 }, "geometry": { "type": "Point", "coordinates": [ 36.7228177, 35.5398052 ] } },
{ "type": "Feature", "properties": { "osm_id": 3927992251, "name": "", "amenity": "school", "building": null, "operator": "", "capacity": "", "addr_city": "", "country": "Syria", "iso3": "SYR", "source": "HOTOSM/OSM", "latitude": 35.341379, "longitude": 36.832645 }, "geometry": { "type": "Point", "coordinates": [ 36.8326445, 35.3413789 ] } },
{ "type": "Feature", "properties": { "osm_id": 3927999307, "name": "", "amenity": "school", "building": null, "operator": "", "capacity": "", "addr_city": "", "country": "Syria", "iso3": "SYR", "source": "HOTOSM/OSM", "latitude": 35.346006, "longitude": 36.859267 }, "geometry": { "type": "Point", "coordinates": [ 36.8592672, 35.3460057 ] } },
{ "type": "Feature", "properties": { "osm_id": 3927999336, "name": "", "amenity": "school", "building": null, "operator": "", "capacity": "", "addr_city": "", "country": "Syria", "iso3": "SYR", "source": "HOTOSM/OSM", "latitude": 35.316166, "longitude": 36.863149 }, "geometry": { "type": "Point", "coordinates": [ 36.8631486, 35.3161656 ] } },
{ "type": "Feature", "properties": { "osm_id": 3927999421, "name": "", "amenity": "school", "building": null, "operator": "", "capacity": "", "addr_city": "", "country": "Syria", "iso3": "SYR", "source": "HOTOSM/OSM", "latitude": 35.424608, "longitude": 36.855532 }, "geometry": { "type": "Point", "coordinates": [ 36.855532, 35.4246083 ] } },
{ "type": "Feature", "properties": { "osm_id": 3927173919, "name": "", "amenity": "school", "building": null, "operator": "", "capacity": "", "addr_city": "", "country": "Syria", "iso3": "SYR", "source": "HOTOSM/OSM", "latitude": 35.155335, "longitude": 36.541367 }, "geometry": { "type": "Point", "coordinates": [ 36.5413674, 35.1553352 ] } },
{ "type": "Feature", "properties": { "osm_id": 3927173956, "name": "", "amenity": "school", "building": null, "operator": "", "capacity": "", "addr_city": "", "country": "Syria", "iso3": "SYR", "source": "HOTOSM/OSM", "latitude": 35.137021, "longitude": 36.563049 }, "geometry": { "type": "Point", "coordinates": [ 36.5630485, 35.1370212 ] } },
{ "type": "Feature", "properties": { "osm_id": 3926248912, "name": "", "amenity": "school", "building": null, "operator": "", "capacity": "", "addr_city": "", "country": "Syria", "iso3": "SYR", "source": "HOTOSM/OSM", "latitude": 35.100589, "longitude": 36.356297 }, "geometry": { "type": "Point", "coordinates": [ 36.3562973, 35.1005886 ] } },
{ "type": "Feature", "properties": { "osm_id": 3925920532, "name": "", "amenity": "school", "building": null, "operator": "", "capacity": "", "addr_city": "", "country": "Syria", "iso3": "SYR", "source": "HOTOSM/OSM", "latitude": 35.017595, "longitude": 36.373576 }, "geometry": { "type": "Point", "coordinates": [ 36.3735756, 35.0175955 ] } },
{ "type": "Feature", "properties": { "osm_id": 6077924779, "name": "ثانوية رفيق رزق سلوم", "amenity": "school", "building": null, "operator": "", "capacity": "", "addr_city": "", "country": "Syria", "iso3": "SYR", "source": "HOTOSM/OSM", "latitude": 34.718126, "longitude": 36.712478 }, "geometry": { "type": "Point", "coordinates": [ 36.7124782, 34.7181257 ] } },
{ "type": "Feature", "properties": { "osm_id": 6094018532, "name": "مدرسة حافظ محمد", "amenity": "school", "building": null, "operator": "", "capacity": "", "addr_city": "", "country": "Syria", "iso3": "SYR", "source": "HOTOSM/OSM", "latitude": 34.711778, "longitude": 36.714021 }, "geometry": { "type": "Point", "coordinates": [ 36.7140209, 34.7117781 ] } },
{ "type": "Feature", "properties": { "osm_id": 10044109104, "name": "Farabi High School", "amenity": "school", "building": null, "operator": "", "capacity": "", "addr_city": "", "country": "Syria", "iso3": "SYR", "source": "HOTOSM/OSM", "latitude": 34.718411, "longitude": 36.718386 }, "geometry": { "type": "Point", "coordinates": [ 36.7183862, 34.7184112 ] } },
{ "type": "Feature", "properties": { "osm_id": 588419155, "name": "مدرسة أبو بكرالرازي", "amenity": "school", "building": null, "operator": "", "capacity": "", "addr_city": "", "country": "Syria", "iso3": "SYR", "source": "HOTOSM/OSM", "latitude": 36.231328, "longitude": 37.177785 }, "geometry": { "type": "Point", "coordinates": [ 37.1777845, 36.2313279 ] } },
{ "type": "Feature", "properties": { "osm_id": 1829997930, "name": "", "amenity": "school", "building": null, "operator": "", "capacity": "", "addr_city": "", "country": "Syria", "iso3": "SYR", "source": "HOTOSM/OSM", "latitude": 33.478376, "longitude": 36.363953 }, "geometry": { "type": "Point", "coordinates": [ 36.3639533, 33.4783759 ] } },
{ "type": "Feature", "properties": { "osm_id": 6173155660, "name": "المعهد الصحي", "amenity": "college", "building": null, "operator": "", "capacity": "", "addr_city": "", "country": "Syria", "iso3": "SYR", "source": "HOTOSM/OSM", "latitude": 34.746903, "longitude": 36.67365 }, "geometry": { "type": "Point", "coordinates": [ 36.6736495, 34.746903 ] } },
{ "type": "Feature", "properties": { "osm_id": 9461726281, "name": "كلية السياحة", "amenity": "college", "building": null, "operator": "", "capacity": "", "addr_city": "", "country": "Syria", "iso3": "SYR", "source": "HOTOSM/OSM", "latitude": 34.712383, "longitude": 36.707713 }, "geometry": { "type": "Point", "coordinates": [ 36.7077131, 34.7123834 ] } },
{ "type": "Feature", "properties": { "osm_id": 11373934369, "name": "تل عرفان", "amenity": "college", "building": null, "operator": "", "capacity": "", "addr_city": "", "country": "Syria", "iso3": "SYR", "source": "HOTOSM/OSM", "latitude": 36.624027, "longitude": 40.546397 }, "geometry": { "type": "Point", "coordinates": [ 40.5463973, 36.6240268 ] } },
{ "type": "Feature", "properties": { "osm_id": 10050447823, "name": "كلية الهندسة المدنية", "amenity": "university", "building": null, "operator": "", "capacity": "", "addr_city": "", "country": "Syria", "iso3": "SYR", "source": "HOTOSM/OSM", "latitude": 34.712336, "longitude": 36.706721 }, "geometry": { "type": "Point", "coordinates": [ 36.7067209, 34.712336 ] } },
{ "type": "Feature", "properties": { "osm_id": 10015361163, "name": "جامعة الشام الخاصة - كلية الاسنان", "amenity": "university", "building": null, "operator": "", "capacity": "", "addr_city": "", "country": "Syria", "iso3": "SYR", "source": "HOTOSM/OSM", "latitude": 33.523947, "longitude": 36.300131 }, "geometry": { "type": "Point", "coordinates": [ 36.3001307, 33.5239473 ] } },
{ "type": "Feature", "properties": { "osm_id": 6124317766, "name": "", "amenity": "school", "building": null, "operator": "", "capacity": "", "addr_city": "", "country": "Syria", "iso3": "SYR", "source": "HOTOSM/OSM", "latitude": 34.733912, "longitude": 36.741082 }, "geometry": { "type": "Point", "coordinates": [ 36.7410821, 34.7339124 ] } },
{ "type": "Feature", "properties": { "osm_id": 8357766419, "name": "مدرسة الحميس", "amenity": "school", "building": null, "operator": "", "capacity": "", "addr_city": "", "country": "Syria", "iso3": "SYR", "source": "HOTOSM/OSM", "latitude": 34.914682, "longitude": 36.92237 }, "geometry": { "type": "Point", "coordinates": [ 36.9223698, 34.9146821 ] } },
{ "type": "Feature", "properties": { "osm_id": 1356182714, "name": "مدرسة الأمجاد", "amenity": "school", "building": null, "operator": "", "capacity": "", "addr_city": "", "country": "Syria", "iso3": "SYR", "source": "HOTOSM/OSM", "latitude": 33.433368, "longitude": 36.154705 }, "geometry": { "type": "Point", "coordinates": [ 36.1547055, 33.4333682 ] } },
{ "type": "Feature", "properties": { "osm_id": 4883279449, "name": "مدرسة التحرير", "amenity": "school", "building": null, "operator": "", "capacity": "", "addr_city": "", "country": "Syria", "iso3": "SYR", "source": "HOTOSM/OSM", "latitude": 36.194294, "longitude": 37.142099 }, "geometry": { "type": "Point", "coordinates": [ 37.1420985, 36.1942937 ] } },
{ "type": "Feature", "properties": { "osm_id": 4885441021, "name": "مدرسة الشهيد فهد عفور", "amenity": "school", "building": null, "operator": "", "capacity": "", "addr_city": "", "country": "Syria", "iso3": "SYR", "source": "HOTOSM/OSM", "latitude": 35.24894, "longitude": 36.581695 }, "geometry": { "type": "Point", "coordinates": [ 36.5816953, 35.2489402 ] } },
{ "type": "Feature", "properties": { "osm_id": 8295636617, "name": "مدرسة العليا الابتدائية", "amenity": "school", "building": null, "operator": "", "capacity": "", "addr_city": "", "country": "Syria", "iso3": "SYR", "source": "HOTOSM/OSM", "latitude": 35.313097, "longitude": 40.565255 }, "geometry": { "type": "Point", "coordinates": [ 40.5652545, 35.3130974 ] } },
{ "type": "Feature", "properties": { "osm_id": 5031370192, "name": "معهد النور", "amenity": "school", "building": null, "operator": "", "capacity": "", "addr_city": "", "country": "Syria", "iso3": "SYR", "source": "HOTOSM/OSM", "latitude": 36.890862, "longitude": 38.362607 }, "geometry": { "type": "Point", "coordinates": [ 38.362607, 36.8908619 ] } },
{ "type": "Feature", "properties": { "osm_id": 6092671864, "name": "مدرسة الشهيد أحمد الأحمد", "amenity": "school", "building": null, "operator": "", "capacity": "", "addr_city": "", "country": "Syria", "iso3": "SYR", "source": "HOTOSM/OSM", "latitude": 34.720931, "longitude": 36.711326 }, "geometry": { "type": "Point", "coordinates": [ 36.7113256, 34.7209308 ] } },
{ "type": "Feature", "properties": { "osm_id": 7123029985, "name": "الشهيد عمار توفيق الناصيف", "amenity": "school", "building": null, "operator": "", "capacity": "", "addr_city": "", "country": "Syria", "iso3": "SYR", "source": "HOTOSM/OSM", "latitude": 34.726034, "longitude": 36.711162 }, "geometry": { "type": "Point", "coordinates": [ 36.7111616, 34.7260344 ] } },
{ "type": "Feature", "properties": { "osm_id": 685139883, "name": "معد دار العلوم", "amenity": "school", "building": null, "operator": "", "capacity": "", "addr_city": "", "country": "Syria", "iso3": "SYR", "source": "HOTOSM/OSM", "latitude": 33.361672, "longitude": 36.247874 }, "geometry": { "type": "Point", "coordinates": [ 36.2478737, 33.3616717 ] } },
{ "type": "Feature", "properties": { "osm_id": 5251966323, "name": "كلية الحقوق", "amenity": "college", "building": null, "operator": "", "capacity": "", "addr_city": "", "country": "Syria", "iso3": "SYR", "source": "HOTOSM/OSM", "latitude": 34.714082, "longitude": 36.705344 }, "geometry": { "type": "Point", "coordinates": [ 36.7053442, 34.7140824 ] } },
{ "type": "Feature", "properties": { "osm_id": 12960492501, "name": "", "amenity": "college", "building": null, "operator": "", "capacity": "", "addr_city": "", "country": "Syria", "iso3": "SYR", "source": "HOTOSM/OSM", "latitude": 34.8847, "longitude": 35.887482 }, "geometry": { "type": "Point", "coordinates": [ 35.8874821, 34.8847 ] } },
{ "type": "Feature", "properties": { "osm_id": 10050415229, "name": "Faculty of pharmacy", "amenity": "university", "building": null, "operator": "", "capacity": "", "addr_city": "", "country": "Syria", "iso3": "SYR", "source": "HOTOSM/OSM", "latitude": 34.714154, "longitude": 36.704217 }, "geometry": { "type": "Point", "coordinates": [ 36.7042168, 34.714154 ] } },
{ "type": "Feature", "properties": { "osm_id": 10050452317, "name": "كلية العلوم", "amenity": "university", "building": null, "operator": "", "capacity": "", "addr_city": "", "country": "Syria", "iso3": "SYR", "source": "HOTOSM/OSM", "latitude": 34.714454, "longitude": 36.706749 }, "geometry": { "type": "Point", "coordinates": [ 36.7067488, 34.7144538 ] } },
{ "type": "Feature", "properties": { "osm_id": 10055620091, "name": "المعهد الموسيقي", "amenity": "university", "building": null, "operator": "", "capacity": "", "addr_city": "", "country": "Syria", "iso3": "SYR", "source": "HOTOSM/OSM", "latitude": 34.712386, "longitude": 36.7091 }, "geometry": { "type": "Point", "coordinates": [ 36.7090995, 34.7123856 ] } },
{ "type": "Feature", "properties": { "osm_id": 12964113901, "name": "مدرسة الحكمة", "amenity": "school", "building": null, "operator": "", "capacity": "", "addr_city": "", "country": "Syria", "iso3": "SYR", "source": "HOTOSM/OSM", "latitude": 33.466378, "longitude": 36.234534 }, "geometry": { "type": "Point", "coordinates": [ 36.2345338, 33.4663775 ] } },
{ "type": "Feature", "properties": { "osm_id": 12266031899, "name": "ثانوية الشهيد دمر جميل الأسعد", "amenity": "school", "building": null, "operator": "", "capacity": "", "addr_city": "", "country": "Syria", "iso3": "SYR", "source": "HOTOSM/OSM", "latitude": 34.707313, "longitude": 36.372184 }, "geometry": { "type": "Point", "coordinates": [ 36.3721843, 34.7073135 ] } },
{ "type": "Feature", "properties": { "osm_id": 8201215441, "name": "مدرسة السيدة هاجر", "amenity": "school", "building": null, "operator": "", "capacity": "", "addr_city": "", "country": "Syria", "iso3": "SYR", "source": "HOTOSM/OSM", "latitude": 33.487182, "longitude": 36.291576 }, "geometry": { "type": "Point", "coordinates": [ 36.2915758, 33.487182 ] } },
{ "type": "Feature", "properties": { "osm_id": 13540306801, "name": "مدرسة صقر القريش", "amenity": "school", "building": null, "operator": "", "capacity": "", "addr_city": "", "country": "Syria", "iso3": "SYR", "source": "HOTOSM/OSM", "latitude": 37.048979, "longitude": 41.199006 }, "geometry": { "type": "Point", "coordinates": [ 41.1990064, 37.0489794 ] } },
{ "type": "Feature", "properties": { "osm_id": 10050425854, "name": "كلية الهندسة المعلوماتية، جامعة حمص", "amenity": "university", "building": null, "operator": "", "capacity": "", "addr_city": "", "country": "Syria", "iso3": "SYR", "source": "HOTOSM/OSM", "latitude": 34.713131, "longitude": 36.707253 }, "geometry": { "type": "Point", "coordinates": [ 36.707253, 34.7131309 ] } },
{ "type": "Feature", "properties": { "osm_id": 670437440, "name": "شيماء السعدية", "amenity": "school", "building": null, "operator": "", "capacity": "", "addr_city": "", "country": "Syria", "iso3": "SYR", "source": "HOTOSM/OSM", "latitude": 33.496607, "longitude": 36.304572 }, "geometry": { "type": "Point", "coordinates": [ 36.3045716, 33.4966066 ] } },
{ "type": "Feature", "properties": { "osm_id": 6004226787, "name": "مدرسة ابي العلاء", "amenity": "school", "building": null, "operator": "", "capacity": "", "addr_city": "", "country": "Syria", "iso3": "SYR", "source": "HOTOSM/OSM", "latitude": 35.361281, "longitude": 35.931568 }, "geometry": { "type": "Point", "coordinates": [ 35.9315682, 35.3612813 ] } },
{ "type": "Feature", "properties": { "osm_id": 4391746493, "name": "معهد الشيخ ديب", "amenity": "school", "building": null, "operator": "", "capacity": "", "addr_city": "", "country": "Syria", "iso3": "SYR", "source": "HOTOSM/OSM", "latitude": 34.895538, "longitude": 35.883268 }, "geometry": { "type": "Point", "coordinates": [ 35.8832675, 34.8955381 ] } },
{ "type": "Feature", "properties": { "osm_id": 1286982970, "name": "", "amenity": "school", "building": null, "operator": "", "capacity": "", "addr_city": "", "country": "Syria", "iso3": "SYR", "source": "HOTOSM/OSM", "latitude": 37.037544, "longitude": 41.227967 }, "geometry": { "type": "Point", "coordinates": [ 41.2279673, 37.0375437 ] } },
{ "type": "Feature", "properties": { "osm_id": 1286983076, "name": "", "amenity": "school", "building": null, "operator": "", "capacity": "", "addr_city": "", "country": "Syria", "iso3": "SYR", "source": "HOTOSM/OSM", "latitude": 37.036658, "longitude": 41.227172 }, "geometry": { "type": "Point", "coordinates": [ 41.2271717, 37.0366577 ] } },
{ "type": "Feature", "properties": { "osm_id": 13005984102, "name": "مدرسة البستان الخاصة", "amenity": "school", "building": null, "operator": "", "capacity": "", "addr_city": "", "country": "Syria", "iso3": "SYR", "source": "HOTOSM/OSM", "latitude": 36.2074, "longitude": 37.099424 }, "geometry": { "type": "Point", "coordinates": [ 37.0994242, 36.2074002 ] } },
{ "type": "Feature", "properties": { "osm_id": 5897122885, "name": "مدرسه الشيخ صالح العلي", "amenity": "school", "building": null, "operator": "", "capacity": "", "addr_city": "", "country": "Syria", "iso3": "SYR", "source": "HOTOSM/OSM", "latitude": 35.193672, "longitude": 35.958803 }, "geometry": { "type": "Point", "coordinates": [ 35.9588027, 35.1936721 ] } },
{ "type": "Feature", "properties": { "osm_id": 5862338085, "name": "مدرسة الشويفات الدولية", "amenity": "school", "building": null, "operator": "", "capacity": "", "addr_city": "", "country": "Syria", "iso3": "SYR", "source": "HOTOSM/OSM", "latitude": 34.667154, "longitude": 36.706574 }, "geometry": { "type": "Point", "coordinates": [ 36.7065743, 34.6671544 ] } },
{ "type": "Feature", "properties": { "osm_id": 1275892015, "name": "مدرسة الآسية", "amenity": "school", "building": null, "operator": "", "capacity": "", "addr_city": "", "country": "Syria", "iso3": "SYR", "source": "HOTOSM/OSM", "latitude": 33.510351, "longitude": 36.312668 }, "geometry": { "type": "Point", "coordinates": [ 36.3126675, 33.5103506 ] } },
{ "type": "Feature", "properties": { "osm_id": 5463875622, "name": "مدرسة الشهيد يحيى دهنين", "amenity": "school", "building": null, "operator": "", "capacity": "", "addr_city": "", "country": "Syria", "iso3": "SYR", "source": "HOTOSM/OSM", "latitude": 35.931439, "longitude": 36.622384 }, "geometry": { "type": "Point", "coordinates": [ 36.6223836, 35.9314389 ] } },
{ "type": "Feature", "properties": { "osm_id": 1246914809, "name": "مدرسة عبد الفتاح قطيط‎", "amenity": "school", "building": null, "operator": "", "capacity": "", "addr_city": "", "country": "Syria", "iso3": "SYR", "source": "HOTOSM/OSM", "latitude": 33.522847, "longitude": 36.271867 }, "geometry": { "type": "Point", "coordinates": [ 36.2718674, 33.5228466 ] } },
{ "type": "Feature", "properties": { "osm_id": 1246914812, "name": "مدرسة هدى شعراوي‎", "amenity": "school", "building": null, "operator": "", "capacity": "", "addr_city": "", "country": "Syria", "iso3": "SYR", "source": "HOTOSM/OSM", "latitude": 33.523097, "longitude": 36.271664 }, "geometry": { "type": "Point", "coordinates": [ 36.2716636, 33.5230971 ] } },
{ "type": "Feature", "properties": { "osm_id": 1296432935, "name": "المدرسة الإبتائية الأولى بخبب", "amenity": "school", "building": null, "operator": "", "capacity": "", "addr_city": "", "country": "Syria", "iso3": "SYR", "source": "HOTOSM/OSM", "latitude": 33.013245, "longitude": 36.274493 }, "geometry": { "type": "Point", "coordinates": [ 36.2744932, 33.0132446 ] } },
{ "type": "Feature", "properties": { "osm_id": 1187610875, "name": "مدرسة سبأ", "amenity": "school", "building": null, "operator": "", "capacity": "", "addr_city": "", "country": "Syria", "iso3": "SYR", "source": "HOTOSM/OSM", "latitude": 32.700586, "longitude": 36.576989 }, "geometry": { "type": "Point", "coordinates": [ 36.5769894, 32.7005859 ] } },
{ "type": "Feature", "properties": { "osm_id": 912933328, "name": "ASAAD AKEEL", "amenity": "school", "building": null, "operator": "", "capacity": "", "addr_city": "", "country": "Syria", "iso3": "SYR", "source": "HOTOSM/OSM", "latitude": 36.204456, "longitude": 37.099993 }, "geometry": { "type": "Point", "coordinates": [ 37.0999927, 36.2044557 ] } },
{ "type": "Feature", "properties": { "osm_id": 5706436817, "name": "مدرسة الشيخ محمد راغب الطباخ", "amenity": "school", "building": null, "operator": "", "capacity": "", "addr_city": "", "country": "Syria", "iso3": "SYR", "source": "HOTOSM/OSM", "latitude": 36.180501, "longitude": 37.112746 }, "geometry": { "type": "Point", "coordinates": [ 37.112746, 36.1805008 ] } },
{ "type": "Feature", "properties": { "osm_id": 7929047885, "name": "مدرسة شويحة", "amenity": "school", "building": null, "operator": "", "capacity": "", "addr_city": "", "country": "Syria", "iso3": "SYR", "source": "HOTOSM/OSM", "latitude": 36.541522, "longitude": 37.610896 }, "geometry": { "type": "Point", "coordinates": [ 37.610896, 36.5415223 ] } },
{ "type": "Feature", "properties": { "osm_id": 5622590821, "name": "بئر سالم", "amenity": "school", "building": null, "operator": "", "capacity": "", "addr_city": "", "country": "Syria", "iso3": "SYR", "source": "HOTOSM/OSM", "latitude": 35.801633, "longitude": 38.071813 }, "geometry": { "type": "Point", "coordinates": [ 38.071813, 35.8016332 ] } },
{ "type": "Feature", "properties": { "osm_id": 5526432226, "name": "معهد الفندقي سابقا", "amenity": "school", "building": null, "operator": "", "capacity": "", "addr_city": "", "country": "Syria", "iso3": "SYR", "source": "HOTOSM/OSM", "latitude": 35.508814, "longitude": 35.778008 }, "geometry": { "type": "Point", "coordinates": [ 35.7780076, 35.5088136 ] } },
{ "type": "Feature", "properties": { "osm_id": 1014859034, "name": "", "amenity": "school", "building": null, "operator": "", "capacity": "", "addr_city": "", "country": "Syria", "iso3": "SYR", "source": "HOTOSM/OSM", "latitude": 35.080937, "longitude": 35.987426 }, "geometry": { "type": "Point", "coordinates": [ 35.9874265, 35.0809369 ] } },
{ "type": "Feature", "properties": { "osm_id": 957442723, "name": "Elite Students Shcool", "amenity": "school", "building": null, "operator": "", "capacity": "", "addr_city": "", "country": "Syria", "iso3": "SYR", "source": "HOTOSM/OSM", "latitude": 35.52677, "longitude": 35.788421 }, "geometry": { "type": "Point", "coordinates": [ 35.7884207, 35.5267705 ] } },
{ "type": "Feature", "properties": { "osm_id": 957446511, "name": "Nabil Halloum School", "amenity": "school", "building": null, "operator": "", "capacity": "", "addr_city": "", "country": "Syria", "iso3": "SYR", "source": "HOTOSM/OSM", "latitude": 35.527118, "longitude": 35.789096 }, "geometry": { "type": "Point", "coordinates": [ 35.7890961, 35.5271176 ] } },
{ "type": "Feature", "properties": { "osm_id": 2067406707, "name": "عدنان المالكي", "amenity": "school", "building": null, "operator": "", "capacity": "", "addr_city": "", "country": "Syria", "iso3": "SYR", "source": "HOTOSM/OSM", "latitude": 35.51516, "longitude": 35.784626 }, "geometry": { "type": "Point", "coordinates": [ 35.7846257, 35.5151599 ] } },
{ "type": "Feature", "properties": { "osm_id": 5429501021, "name": "معهد تواصل", "amenity": "school", "building": null, "operator": "", "capacity": "", "addr_city": "", "country": "Syria", "iso3": "SYR", "source": "HOTOSM/OSM", "latitude": 35.542873, "longitude": 35.775331 }, "geometry": { "type": "Point", "coordinates": [ 35.7753306, 35.5428734 ] } },
{ "type": "Feature", "properties": { "osm_id": 5180428942, "name": "مركز حُمص التعليمي", "amenity": "school", "building": null, "operator": "", "capacity": "", "addr_city": "", "country": "Syria", "iso3": "SYR", "source": "HOTOSM/OSM", "latitude": 34.724822, "longitude": 36.698253 }, "geometry": { "type": "Point", "coordinates": [ 36.6982529, 34.7248222 ] } },
{ "type": "Feature", "properties": { "osm_id": 951681218, "name": "Emad ali school", "amenity": "school", "building": null, "operator": "", "capacity": "", "addr_city": "", "country": "Syria", "iso3": "SYR", "source": "HOTOSM/OSM", "latitude": 35.543965, "longitude": 35.806511 }, "geometry": { "type": "Point", "coordinates": [ 35.8065107, 35.5439651 ] } },
{ "type": "Feature", "properties": { "osm_id": 979808383, "name": "Al-Corniche Al-Janoubi School", "amenity": "school", "building": null, "operator": "", "capacity": "", "addr_city": "", "country": "Syria", "iso3": "SYR", "source": "HOTOSM/OSM", "latitude": 35.500457, "longitude": 35.778288 }, "geometry": { "type": "Point", "coordinates": [ 35.7782879, 35.5004567 ] } },
{ "type": "Feature", "properties": { "osm_id": 5448184321, "name": "ثانوية فايز الخليل الصناعية", "amenity": "school", "building": null, "operator": "", "capacity": "", "addr_city": "", "country": "Syria", "iso3": "SYR", "source": "HOTOSM/OSM", "latitude": 35.189137, "longitude": 35.958095 }, "geometry": { "type": "Point", "coordinates": [ 35.9580954, 35.1891368 ] } },
{ "type": "Feature", "properties": { "osm_id": 1305630260, "name": "دار الفرح روضة", "amenity": "school", "building": null, "operator": "", "capacity": "", "addr_city": "", "country": "Syria", "iso3": "SYR", "source": "HOTOSM/OSM", "latitude": 33.521987, "longitude": 36.269971 }, "geometry": { "type": "Point", "coordinates": [ 36.269971, 33.5219867 ] } },
{ "type": "Feature", "properties": { "osm_id": 4674596542, "name": "مدرسة زين العابدين", "amenity": "school", "building": null, "operator": "", "capacity": "", "addr_city": "", "country": "Syria", "iso3": "SYR", "source": "HOTOSM/OSM", "latitude": 33.529686, "longitude": 36.283514 }, "geometry": { "type": "Point", "coordinates": [ 36.2835144, 33.5296856 ] } },
{ "type": "Feature", "properties": { "osm_id": 452979207, "name": "المركز الثقافي البريطاني", "amenity": "school", "building": null, "operator": "", "capacity": "", "addr_city": "", "country": "Syria", "iso3": "SYR", "source": "HOTOSM/OSM", "latitude": 33.516801, "longitude": 36.288657 }, "geometry": { "type": "Point", "coordinates": [ 36.2886568, 33.5168013 ] } },
{ "type": "Feature", "properties": { "osm_id": 5420833622, "name": "مدرسة عرب حسن كبير", "amenity": "school", "building": null, "operator": "", "capacity": "", "addr_city": "", "country": "Syria", "iso3": "SYR", "source": "HOTOSM/OSM", "latitude": 36.647886, "longitude": 37.845655 }, "geometry": { "type": "Point", "coordinates": [ 37.845655, 36.647886 ] } },
{ "type": "Feature", "properties": { "osm_id": 5419655823, "name": "مدرسة مزرعة عرب حسن كبير( العين السودة)", "amenity": "school", "building": null, "operator": "", "capacity": "", "addr_city": "", "country": "Syria", "iso3": "SYR", "source": "HOTOSM/OSM", "latitude": 36.627783, "longitude": 37.836608 }, "geometry": { "type": "Point", "coordinates": [ 37.8366079, 36.627783 ] } },
{ "type": "Feature", "properties": { "osm_id": 7879071485, "name": "", "amenity": "school", "building": null, "operator": "", "capacity": "", "addr_city": "", "country": "Syria", "iso3": "SYR", "source": "HOTOSM/OSM", "latitude": 35.94026, "longitude": 39.052497 }, "geometry": { "type": "Point", "coordinates": [ 39.0524967, 35.9402598 ] } },
{ "type": "Feature", "properties": { "osm_id": 7879071486, "name": "", "amenity": "school", "building": null, "operator": "", "capacity": "", "addr_city": "", "country": "Syria", "iso3": "SYR", "source": "HOTOSM/OSM", "latitude": 35.939489, "longitude": 39.052323 }, "geometry": { "type": "Point", "coordinates": [ 39.0523234, 35.9394892 ] } },
{ "type": "Feature", "properties": { "osm_id": 7879071585, "name": "", "amenity": "school", "building": null, "operator": "", "capacity": "", "addr_city": "", "country": "Syria", "iso3": "SYR", "source": "HOTOSM/OSM", "latitude": 35.945681, "longitude": 39.05315 }, "geometry": { "type": "Point", "coordinates": [ 39.0531503, 35.9456809 ] } },
{ "type": "Feature", "properties": { "osm_id": 8524827717, "name": "مدرسة دير فول الابتدائية", "amenity": "school", "building": null, "operator": "", "capacity": "", "addr_city": "", "country": "Syria", "iso3": "SYR", "source": "HOTOSM/OSM", "latitude": 34.922439, "longitude": 36.84087 }, "geometry": { "type": "Point", "coordinates": [ 36.8408697, 34.9224387 ] } },
{ "type": "Feature", "properties": { "osm_id": 11837488069, "name": "", "amenity": "school", "building": null, "operator": "", "capacity": "", "addr_city": "", "country": "Syria", "iso3": "SYR", "source": "HOTOSM/OSM", "latitude": 34.914369, "longitude": 35.913663 }, "geometry": { "type": "Point", "coordinates": [ 35.9136633, 34.9143687 ] } },
{ "type": "Feature", "properties": { "osm_id": 11837472570, "name": "", "amenity": "school", "building": null, "operator": "", "capacity": "", "addr_city": "", "country": "Syria", "iso3": "SYR", "source": "HOTOSM/OSM", "latitude": 34.914677, "longitude": 35.913825 }, "geometry": { "type": "Point", "coordinates": [ 35.9138253, 34.9146769 ] } },
{ "type": "Feature", "properties": { "osm_id": 10216951417, "name": "الثانوية الصناعية", "amenity": "school", "building": null, "operator": "", "capacity": "", "addr_city": "", "country": "Syria", "iso3": "SYR", "source": "HOTOSM/OSM", "latitude": 34.817972, "longitude": 37.092351 }, "geometry": { "type": "Point", "coordinates": [ 37.0923515, 34.8179723 ] } },
{ "type": "Feature", "properties": { "osm_id": 670436606, "name": "أديب اللحام", "amenity": "school", "building": null, "operator": "", "capacity": "", "addr_city": "", "country": "Syria", "iso3": "SYR", "source": "HOTOSM/OSM", "latitude": 33.495761, "longitude": 36.307565 }, "geometry": { "type": "Point", "coordinates": [ 36.3075649, 33.4957611 ] } },
{ "type": "Feature", "properties": { "osm_id": 670436464, "name": "16 تشرين", "amenity": "school", "building": null, "operator": "", "capacity": "", "addr_city": "", "country": "Syria", "iso3": "SYR", "source": "HOTOSM/OSM", "latitude": 33.495788, "longitude": 36.307951 }, "geometry": { "type": "Point", "coordinates": [ 36.3079512, 33.495788 ] } },
{ "type": "Feature", "properties": { "osm_id": 670436809, "name": "أم سلمى", "amenity": "school", "building": null, "operator": "", "capacity": "", "addr_city": "", "country": "Syria", "iso3": "SYR", "source": "HOTOSM/OSM", "latitude": 33.494374, "longitude": 36.307855 }, "geometry": { "type": "Point", "coordinates": [ 36.3078546, 33.4943743 ] } },
{ "type": "Feature", "properties": { "osm_id": 670437000, "name": "الزهراوي", "amenity": "school", "building": null, "operator": "", "capacity": "", "addr_city": "", "country": "Syria", "iso3": "SYR", "source": "HOTOSM/OSM", "latitude": 33.49399, "longitude": 36.307887 }, "geometry": { "type": "Point", "coordinates": [ 36.3078868, 33.4939896 ] } },
{ "type": "Feature", "properties": { "osm_id": 10033004011, "name": "مدرسة الشهيد فياض الحو", "amenity": "school", "building": null, "operator": "", "capacity": "", "addr_city": "", "country": "Syria", "iso3": "SYR", "source": "HOTOSM/OSM", "latitude": 33.460361, "longitude": 36.226687 }, "geometry": { "type": "Point", "coordinates": [ 36.2266873, 33.4603609 ] } },
{ "type": "Feature", "properties": { "osm_id": 7214136586, "name": "كلية الطب البشري", "amenity": "college", "building": null, "operator": "", "capacity": "", "addr_city": "", "country": "Syria", "iso3": "SYR", "source": "HOTOSM/OSM", "latitude": 35.940393, "longitude": 36.622615 }, "geometry": { "type": "Point", "coordinates": [ 36.6226151, 35.9403934 ] } },
{ "type": "Feature", "properties": { "osm_id": 604275912, "name": "المجلس العربي للإختصاصات الطبية", "amenity": "university", "building": null, "operator": "", "capacity": "", "addr_city": "", "country": "Syria", "iso3": "SYR", "source": "HOTOSM/OSM", "latitude": 33.499574, "longitude": 36.236744 }, "geometry": { "type": "Point", "coordinates": [ 36.2367439, 33.4995741 ] } },
{ "type": "Feature", "properties": { "osm_id": 5810222256, "name": "مدرسة يوحنا الدمشقي", "amenity": "school", "building": null, "operator": "", "capacity": "", "addr_city": "", "country": "Syria", "iso3": "SYR", "source": "HOTOSM/OSM", "latitude": 33.517047, "longitude": 36.317771 }, "geometry": { "type": "Point", "coordinates": [ 36.3177708, 33.5170467 ] } },
{ "type": "Feature", "properties": { "osm_id": 451668511, "name": "فيلا يلا", "amenity": "school", "building": null, "operator": "", "capacity": "", "addr_city": "", "country": "Syria", "iso3": "SYR", "source": "HOTOSM/OSM", "latitude": 33.495874, "longitude": 36.240881 }, "geometry": { "type": "Point", "coordinates": [ 36.2408806, 33.4958739 ] } },
{ "type": "Feature", "properties": { "osm_id": 712121742, "name": "", "amenity": "school", "building": null, "operator": "", "capacity": "", "addr_city": "", "country": "Syria", "iso3": "SYR", "source": "HOTOSM/OSM", "latitude": 34.027018, "longitude": 36.723377 }, "geometry": { "type": "Point", "coordinates": [ 36.7233766, 34.0270182 ] } },
{ "type": "Feature", "properties": { "osm_id": 712121745, "name": "", "amenity": "school", "building": null, "operator": "", "capacity": "", "addr_city": "", "country": "Syria", "iso3": "SYR", "source": "HOTOSM/OSM", "latitude": 34.026718, "longitude": 36.72257 }, "geometry": { "type": "Point", "coordinates": [ 36.7225704, 34.0267179 ] } },
{ "type": "Feature", "properties": { "osm_id": 750754189, "name": "ثانوية الشهيد عبد الوهاب الخطيب", "amenity": "school", "building": null, "operator": "", "capacity": "", "addr_city": "", "country": "Syria", "iso3": "SYR", "source": "HOTOSM/OSM", "latitude": 34.02331, "longitude": 36.730192 }, "geometry": { "type": "Point", "coordinates": [ 36.7301921, 34.0233101 ] } },
{ "type": "Feature", "properties": { "osm_id": 750756553, "name": "ثانوية الشهيد محسن ريا النسوية", "amenity": "school", "building": null, "operator": "", "capacity": "", "addr_city": "", "country": "Syria", "iso3": "SYR", "source": "HOTOSM/OSM", "latitude": 34.022934, "longitude": 36.730137 }, "geometry": { "type": "Point", "coordinates": [ 36.7301369, 34.0229342 ] } },
{ "type": "Feature", "properties": { "osm_id": 750761298, "name": "", "amenity": "school", "building": null, "operator": "", "capacity": "", "addr_city": "", "country": "Syria", "iso3": "SYR", "source": "HOTOSM/OSM", "latitude": 34.02297, "longitude": 36.729582 }, "geometry": { "type": "Point", "coordinates": [ 36.7295816, 34.0229699 ] } },
{ "type": "Feature", "properties": { "osm_id": 750761303, "name": "", "amenity": "school", "building": null, "operator": "", "capacity": "", "addr_city": "", "country": "Syria", "iso3": "SYR", "source": "HOTOSM/OSM", "latitude": 34.022486, "longitude": 36.730677 }, "geometry": { "type": "Point", "coordinates": [ 36.7306773, 34.0224858 ] } },
{ "type": "Feature", "properties": { "osm_id": 752563755, "name": "المدرسة الخامسة المختلطة", "amenity": "school", "building": null, "operator": "", "capacity": "", "addr_city": "", "country": "Syria", "iso3": "SYR", "source": "HOTOSM/OSM", "latitude": 34.03379, "longitude": 36.726272 }, "geometry": { "type": "Point", "coordinates": [ 36.7262718, 34.03379 ] } },
{ "type": "Feature", "properties": { "osm_id": 752563760, "name": "", "amenity": "school", "building": null, "operator": "", "capacity": "", "addr_city": "", "country": "Syria", "iso3": "SYR", "source": "HOTOSM/OSM", "latitude": 34.034283, "longitude": 36.726042 }, "geometry": { "type": "Point", "coordinates": [ 36.7260421, 34.0342826 ] } },
{ "type": "Feature", "properties": { "osm_id": 1193129661, "name": "مدرسة الشهيد عادل حاتم", "amenity": "school", "building": null, "operator": "", "capacity": "", "addr_city": "", "country": "Syria", "iso3": "SYR", "source": "HOTOSM/OSM", "latitude": 32.718022, "longitude": 36.574827 }, "geometry": { "type": "Point", "coordinates": [ 36.5748272, 32.7180224 ] } },
{ "type": "Feature", "properties": { "osm_id": 1652251883, "name": "معهد غوتيه", "amenity": "school", "building": null, "operator": "", "capacity": "", "addr_city": "", "country": "Syria", "iso3": "SYR", "source": "HOTOSM/OSM", "latitude": 33.518991, "longitude": 36.277774 }, "geometry": { "type": "Point", "coordinates": [ 36.2777743, 33.5189908 ] } },
{ "type": "Feature", "properties": { "osm_id": 4187080789, "name": "زكي الارسوزي", "amenity": "school", "building": null, "operator": "", "capacity": "", "addr_city": "", "country": "Syria", "iso3": "SYR", "source": "HOTOSM/OSM", "latitude": 37.050314, "longitude": 41.223639 }, "geometry": { "type": "Point", "coordinates": [ 41.2236389, 37.0503143 ] } },
{ "type": "Feature", "properties": { "osm_id": 9770157579, "name": "مدرسة باكستان الدولية", "amenity": "school", "building": null, "operator": "", "capacity": "", "addr_city": "", "country": "Syria", "iso3": "SYR", "source": "HOTOSM/OSM", "latitude": 33.50391, "longitude": 36.115546 }, "geometry": { "type": "Point", "coordinates": [ 36.1155455, 33.5039099 ] } },
{ "type": "Feature", "properties": { "osm_id": 5303306025, "name": "معهد البنقسلي", "amenity": "school", "building": null, "operator": "", "capacity": "", "addr_city": "", "country": "Syria", "iso3": "SYR", "source": "HOTOSM/OSM", "latitude": 36.197903, "longitude": 37.114225 }, "geometry": { "type": "Point", "coordinates": [ 37.1142247, 36.1979027 ] } },
{ "type": "Feature", "properties": { "osm_id": 10027064817, "name": "مدرسة الجاعونة", "amenity": "school", "building": null, "operator": "", "capacity": "", "addr_city": "", "country": "Syria", "iso3": "SYR", "source": "HOTOSM/OSM", "latitude": 33.471115, "longitude": 36.313827 }, "geometry": { "type": "Point", "coordinates": [ 36.3138271, 33.4711151 ] } },
{ "type": "Feature", "properties": { "osm_id": 10030567190, "name": "مدرسة الكرمل", "amenity": "school", "building": null, "operator": "", "capacity": "", "addr_city": "", "country": "Syria", "iso3": "SYR", "source": "HOTOSM/OSM", "latitude": 33.477198, "longitude": 36.303792 }, "geometry": { "type": "Point", "coordinates": [ 36.3037917, 33.4771978 ] } },
{ "type": "Feature", "properties": { "osm_id": 10030567192, "name": "ثانوية اليرموك للبنات", "amenity": "school", "building": null, "operator": "", "capacity": "", "addr_city": "", "country": "Syria", "iso3": "SYR", "source": "HOTOSM/OSM", "latitude": 33.476499, "longitude": 36.304153 }, "geometry": { "type": "Point", "coordinates": [ 36.3041527, 33.4764994 ] } },
{ "type": "Feature", "properties": { "osm_id": 10030612575, "name": "مدرسة تلحوم", "amenity": "school", "building": null, "operator": "", "capacity": "", "addr_city": "", "country": "Syria", "iso3": "SYR", "source": "HOTOSM/OSM", "latitude": 33.46884, "longitude": 36.298513 }, "geometry": { "type": "Point", "coordinates": [ 36.298513, 33.4688395 ] } },
{ "type": "Feature", "properties": { "osm_id": 10032775243, "name": "مدرسة إسدود", "amenity": "school", "building": null, "operator": "", "capacity": "", "addr_city": "", "country": "Syria", "iso3": "SYR", "source": "HOTOSM/OSM", "latitude": 33.472676, "longitude": 36.306041 }, "geometry": { "type": "Point", "coordinates": [ 36.3060414, 33.4726763 ] } },
{ "type": "Feature", "properties": { "osm_id": 10032888391, "name": "مدرسة عبد القادر الحسيني", "amenity": "school", "building": null, "operator": "", "capacity": "", "addr_city": "", "country": "Syria", "iso3": "SYR", "source": "HOTOSM/OSM", "latitude": 33.472848, "longitude": 36.305489 }, "geometry": { "type": "Point", "coordinates": [ 36.3054891, 33.4728484 ] } },
{ "type": "Feature", "properties": { "osm_id": 10032902196, "name": "مدرسة كفرسبت", "amenity": "school", "building": null, "operator": "", "capacity": "", "addr_city": "", "country": "Syria", "iso3": "SYR", "source": "HOTOSM/OSM", "latitude": 33.470613, "longitude": 36.313438 }, "geometry": { "type": "Point", "coordinates": [ 36.3134379, 33.4706125 ] } },
{ "type": "Feature", "properties": { "osm_id": 10032916722, "name": "مدرسة ترشيحا", "amenity": "school", "building": null, "operator": "", "capacity": "", "addr_city": "", "country": "Syria", "iso3": "SYR", "source": "HOTOSM/OSM", "latitude": 33.473428, "longitude": 36.305556 }, "geometry": { "type": "Point", "coordinates": [ 36.3055558, 33.4734281 ] } },
{ "type": "Feature", "properties": { "osm_id": 10032931551, "name": "مدرسة البعث", "amenity": "school", "building": null, "operator": "", "capacity": "", "addr_city": "", "country": "Syria", "iso3": "SYR", "source": "HOTOSM/OSM", "latitude": 33.470822, "longitude": 36.314337 }, "geometry": { "type": "Point", "coordinates": [ 36.3143368, 33.470822 ] } },
{ "type": "Feature", "properties": { "osm_id": 11751208470, "name": "مدرسة العز بن عبد السلام", "amenity": "school", "building": null, "operator": "", "capacity": "", "addr_city": "", "country": "Syria", "iso3": "SYR", "source": "HOTOSM/OSM", "latitude": 33.470753, "longitude": 36.314242 }, "geometry": { "type": "Point", "coordinates": [ 36.3142424, 33.4707529 ] } },
{ "type": "Feature", "properties": { "osm_id": 11751208471, "name": "مدرسة كوكب", "amenity": "school", "building": null, "operator": "", "capacity": "", "addr_city": "", "country": "Syria", "iso3": "SYR", "source": "HOTOSM/OSM", "latitude": 33.471189, "longitude": 36.31367 }, "geometry": { "type": "Point", "coordinates": [ 36.3136702, 33.4711886 ] } },
{ "type": "Feature", "properties": { "osm_id": 11751208472, "name": "مدرسة النقب", "amenity": "school", "building": null, "operator": "", "capacity": "", "addr_city": "", "country": "Syria", "iso3": "SYR", "source": "HOTOSM/OSM", "latitude": 33.477109, "longitude": 36.303779 }, "geometry": { "type": "Point", "coordinates": [ 36.3037788, 33.4771088 ] } },
{ "type": "Feature", "properties": { "osm_id": 11751208473, "name": "مدرسة الجليل", "amenity": "school", "building": null, "operator": "", "capacity": "", "addr_city": "", "country": "Syria", "iso3": "SYR", "source": "HOTOSM/OSM", "latitude": 33.472669, "longitude": 36.305988 }, "geometry": { "type": "Point", "coordinates": [ 36.3059875, 33.4726687 ] } },
{ "type": "Feature", "properties": { "osm_id": 10204848117, "name": "مدرسة 8 اذار", "amenity": "school", "building": null, "operator": "", "capacity": "", "addr_city": "", "country": "Syria", "iso3": "SYR", "source": "HOTOSM/OSM", "latitude": 34.81686, "longitude": 36.113472 }, "geometry": { "type": "Point", "coordinates": [ 36.1134717, 34.8168602 ] } },
{ "type": "Feature", "properties": { "osm_id": 3748173860, "name": "مدرسة محمود عمر حصرية", "amenity": null, "building": "school", "operator": "", "capacity": "", "addr_city": "", "country": "Syria", "iso3": "SYR", "source": "HOTOSM/OSM", "latitude": 35.13432, "longitude": 36.75288 }, "geometry": { "type": "Point", "coordinates": [ 36.7528804, 35.1343203 ] } },
{ "type": "Feature", "properties": { "osm_id": 3741424324, "name": "كلية الطب البيطري", "amenity": null, "building": "college", "operator": "", "capacity": "", "addr_city": "", "country": "Syria", "iso3": "SYR", "source": "HOTOSM/OSM", "latitude": 35.124669, "longitude": 36.757433 }, "geometry": { "type": "Point", "coordinates": [ 36.7574326, 35.1246687 ] } },
{ "type": "Feature", "properties": { "osm_id": 7078199585, "name": "المدرسة الوطنية السورية الخاصة", "amenity": "school", "building": null, "operator": "", "capacity": "", "addr_city": "", "country": "Syria", "iso3": "SYR", "source": "HOTOSM/OSM", "latitude": 33.525481, "longitude": 36.136232 }, "geometry": { "type": "Point", "coordinates": [ 36.1362317, 33.525481 ] } },
{ "type": "Feature", "properties": { "osm_id": 7821068787, "name": "مدرسة الكندي الابتدائية", "amenity": "school", "building": null, "operator": "", "capacity": "", "addr_city": "", "country": "Syria", "iso3": "SYR", "source": "HOTOSM/OSM", "latitude": 34.739024, "longitude": 36.662745 }, "geometry": { "type": "Point", "coordinates": [ 36.6627453, 34.7390235 ] } },
{ "type": "Feature", "properties": { "osm_id": 10200677419, "name": "مدرسة جرجرة لتعليم الاساسي", "amenity": "school", "building": null, "operator": "", "capacity": "", "addr_city": "", "country": "Syria", "iso3": "SYR", "source": "HOTOSM/OSM", "latitude": 35.136914, "longitude": 36.563187 }, "geometry": { "type": "Point", "coordinates": [ 36.5631868, 35.1369142 ] } },
{ "type": "Feature", "properties": { "osm_id": 7821068785, "name": "بيت الراهب", "amenity": "college", "building": null, "operator": "", "capacity": "", "addr_city": "", "country": "Syria", "iso3": "SYR", "source": "HOTOSM/OSM", "latitude": 34.906099, "longitude": 36.062958 }, "geometry": { "type": "Point", "coordinates": [ 36.0629584, 34.9060989 ] } },
{ "type": "Feature", "properties": { "osm_id": 10184503717, "name": "مدرسة ديمو", "amenity": "school", "building": null, "operator": "", "capacity": "", "addr_city": "", "country": "Syria", "iso3": "SYR", "source": "HOTOSM/OSM", "latitude": 35.201444, "longitude": 36.444749 }, "geometry": { "type": "Point", "coordinates": [ 36.4447492, 35.2014441 ] } },
{ "type": "Feature", "properties": { "osm_id": 10060311320, "name": "المدرسة الخسرفية", "amenity": "school", "building": null, "operator": "", "capacity": "", "addr_city": "", "country": "Syria", "iso3": "SYR", "source": "HOTOSM/OSM", "latitude": 36.196962, "longitude": 37.160803 }, "geometry": { "type": "Point", "coordinates": [ 37.1608027, 36.1969617 ] } },
{ "type": "Feature", "properties": { "osm_id": 4228138891, "name": "ثانوية حية كبيرة", "amenity": "school", "building": null, "operator": "", "capacity": "", "addr_city": "", "country": "Syria", "iso3": "SYR", "source": "HOTOSM/OSM", "latitude": 36.566692, "longitude": 38.134605 }, "geometry": { "type": "Point", "coordinates": [ 38.134605, 36.566692 ] } },
{ "type": "Feature", "properties": { "osm_id": 5167118324, "name": "مدرسة حسين زين", "amenity": "school", "building": null, "operator": "", "capacity": "", "addr_city": "", "country": "Syria", "iso3": "SYR", "source": "HOTOSM/OSM", "latitude": 33.432848, "longitude": 36.242587 }, "geometry": { "type": "Point", "coordinates": [ 36.2425868, 33.4328477 ] } },
{ "type": "Feature", "properties": { "osm_id": 11685030069, "name": "مدرسة ابن الرشد", "amenity": "school", "building": null, "operator": "", "capacity": "", "addr_city": "", "country": "Syria", "iso3": "SYR", "source": "HOTOSM/OSM", "latitude": 35.12599, "longitude": 36.766245 }, "geometry": { "type": "Point", "coordinates": [ 36.7662449, 35.1259898 ] } },
{ "type": "Feature", "properties": { "osm_id": 10042580373, "name": "المعهد التقاني للعلوم المالية والمصرفية", "amenity": "university", "building": null, "operator": "", "capacity": "", "addr_city": "", "country": "Syria", "iso3": "SYR", "source": "HOTOSM/OSM", "latitude": 35.520217, "longitude": 35.80683 }, "geometry": { "type": "Point", "coordinates": [ 35.8068299, 35.5202169 ] } },
{ "type": "Feature", "properties": { "osm_id": 10042594659, "name": "كلية الصيدلة", "amenity": "university", "building": null, "operator": "", "capacity": "", "addr_city": "", "country": "Syria", "iso3": "SYR", "source": "HOTOSM/OSM", "latitude": 35.524606, "longitude": 35.806475 }, "geometry": { "type": "Point", "coordinates": [ 35.8064749, 35.5246061 ] } },
{ "type": "Feature", "properties": { "osm_id": 10042558903, "name": "قسم علم الاجتماع", "amenity": "university", "building": null, "operator": "", "capacity": "", "addr_city": "", "country": "Syria", "iso3": "SYR", "source": "HOTOSM/OSM", "latitude": 35.520217, "longitude": 35.80851 }, "geometry": { "type": "Point", "coordinates": [ 35.8085098, 35.5202167 ] } },
{ "type": "Feature", "properties": { "osm_id": 10042558904, "name": "قسم الجغرافية", "amenity": "university", "building": null, "operator": "", "capacity": "", "addr_city": "", "country": "Syria", "iso3": "SYR", "source": "HOTOSM/OSM", "latitude": 35.521577, "longitude": 35.809007 }, "geometry": { "type": "Point", "coordinates": [ 35.8090068, 35.5215768 ] } },
{ "type": "Feature", "properties": { "osm_id": 10042558905, "name": "قسم اللغة الفرنسية", "amenity": "university", "building": null, "operator": "", "capacity": "", "addr_city": "", "country": "Syria", "iso3": "SYR", "source": "HOTOSM/OSM", "latitude": 35.520803, "longitude": 35.809613 }, "geometry": { "type": "Point", "coordinates": [ 35.8096127, 35.5208035 ] } },
{ "type": "Feature", "properties": { "osm_id": 10042578831, "name": "كلية طب الأسنان الجديدة", "amenity": "university", "building": null, "operator": "", "capacity": "", "addr_city": "", "country": "Syria", "iso3": "SYR", "source": "HOTOSM/OSM", "latitude": 35.519674, "longitude": 35.810125 }, "geometry": { "type": "Point", "coordinates": [ 35.8101246, 35.5196735 ] } },
{ "type": "Feature", "properties": { "osm_id": 10042578832, "name": "المركز الوطني للمتميزين", "amenity": "university", "building": null, "operator": "", "capacity": "", "addr_city": "", "country": "Syria", "iso3": "SYR", "source": "HOTOSM/OSM", "latitude": 35.518916, "longitude": 35.810992 }, "geometry": { "type": "Point", "coordinates": [ 35.8109915, 35.5189156 ] } },
{ "type": "Feature", "properties": { "osm_id": 10042578834, "name": "كلية الحقوق", "amenity": "university", "building": null, "operator": "", "capacity": "", "addr_city": "", "country": "Syria", "iso3": "SYR", "source": "HOTOSM/OSM", "latitude": 35.518818, "longitude": 35.812249 }, "geometry": { "type": "Point", "coordinates": [ 35.8122489, 35.5188178 ] } },
{ "type": "Feature", "properties": { "osm_id": 10026378874, "name": "جامعة الجزيرة الخاصة", "amenity": "university", "building": null, "operator": "", "capacity": "", "addr_city": "", "country": "Syria", "iso3": "SYR", "source": "HOTOSM/OSM", "latitude": 33.522804, "longitude": 36.302742 }, "geometry": { "type": "Point", "coordinates": [ 36.3027418, 33.5228036 ] } },
{ "type": "Feature", "properties": { "osm_id": 10042558900, "name": "المعهد العالي للغات", "amenity": "university", "building": null, "operator": "", "capacity": "", "addr_city": "", "country": "Syria", "iso3": "SYR", "source": "HOTOSM/OSM", "latitude": 35.521048, "longitude": 35.809398 }, "geometry": { "type": "Point", "coordinates": [ 35.8093981, 35.521048 ] } },
{ "type": "Feature", "properties": { "osm_id": 10042558901, "name": "كلية الآداب والعلوم الإنسانية", "amenity": "university", "building": null, "operator": "", "capacity": "", "addr_city": "", "country": "Syria", "iso3": "SYR", "source": "HOTOSM/OSM", "latitude": 35.520604, "longitude": 35.809286 }, "geometry": { "type": "Point", "coordinates": [ 35.8092865, 35.5206044 ] } },
{ "type": "Feature", "properties": { "osm_id": 10042558902, "name": "قسم الفلسفة", "amenity": "university", "building": null, "operator": "", "capacity": "", "addr_city": "", "country": "Syria", "iso3": "SYR", "source": "HOTOSM/OSM", "latitude": 35.52037, "longitude": 35.80863 }, "geometry": { "type": "Point", "coordinates": [ 35.8086299, 35.5203704 ] } },
{ "type": "Feature", "properties": { "osm_id": 10042594660, "name": "كلية طب الأسنان", "amenity": "university", "building": null, "operator": "", "capacity": "", "addr_city": "", "country": "Syria", "iso3": "SYR", "source": "HOTOSM/OSM", "latitude": 35.52537, "longitude": 35.804878 }, "geometry": { "type": "Point", "coordinates": [ 35.8048775, 35.5253704 ] } },
{ "type": "Feature", "properties": { "osm_id": 10042610039, "name": "معهد التعويضات السنية", "amenity": "university", "building": null, "operator": "", "capacity": "", "addr_city": "", "country": "Syria", "iso3": "SYR", "source": "HOTOSM/OSM", "latitude": 35.519995, "longitude": 35.809512 }, "geometry": { "type": "Point", "coordinates": [ 35.8095118, 35.519995 ] } },
{ "type": "Feature", "properties": { "osm_id": 10042626591, "name": "المعهد التقاني للمحاسبة والتمويل", "amenity": "university", "building": null, "operator": "", "capacity": "", "addr_city": "", "country": "Syria", "iso3": "SYR", "source": "HOTOSM/OSM", "latitude": 35.520978, "longitude": 35.806999 }, "geometry": { "type": "Point", "coordinates": [ 35.8069992, 35.520978 ] } },
{ "type": "Feature", "properties": { "osm_id": 10134019417, "name": "مدرسة شباط الابتدائية", "amenity": "school", "building": null, "operator": "", "capacity": "", "addr_city": "", "country": "Syria", "iso3": "SYR", "source": "HOTOSM/OSM", "latitude": 34.899465, "longitude": 35.99997 }, "geometry": { "type": "Point", "coordinates": [ 35.9999702, 34.899465 ] } },
{ "type": "Feature", "properties": { "osm_id": 11677486069, "name": "مدرسة ابو فرع اعداديه", "amenity": "school", "building": null, "operator": "", "capacity": "", "addr_city": "", "country": "Syria", "iso3": "SYR", "source": "HOTOSM/OSM", "latitude": 36.893993, "longitude": 41.621178 }, "geometry": { "type": "Point", "coordinates": [ 41.6211781, 36.8939932 ] } },
{ "type": "Feature", "properties": { "osm_id": 11677501969, "name": "مدرسة ابو فرع", "amenity": "school", "building": null, "operator": "", "capacity": "", "addr_city": "", "country": "Syria", "iso3": "SYR", "source": "HOTOSM/OSM", "latitude": 36.893833, "longitude": 41.620916 }, "geometry": { "type": "Point", "coordinates": [ 41.6209163, 36.8938333 ] } },
{ "type": "Feature", "properties": { "osm_id": 10131988818, "name": "مدرسة جديتة", "amenity": "school", "building": null, "operator": "", "capacity": "", "addr_city": "", "country": "Syria", "iso3": "SYR", "source": "HOTOSM/OSM", "latitude": 34.903245, "longitude": 35.92916 }, "geometry": { "type": "Point", "coordinates": [ 35.92916, 34.9032455 ] } },
{ "type": "Feature", "properties": { "osm_id": 5099994423, "name": "مدرسة الخربة", "amenity": "school", "building": null, "operator": "", "capacity": "", "addr_city": "", "country": "Syria", "iso3": "SYR", "source": "HOTOSM/OSM", "latitude": 35.370093, "longitude": 36.592032 }, "geometry": { "type": "Point", "coordinates": [ 36.5920324, 35.3700926 ] } },
{ "type": "Feature", "properties": { "osm_id": 4187080089, "name": "ثانوية القادسيه", "amenity": "school", "building": null, "operator": "", "capacity": "", "addr_city": "", "country": "Syria", "iso3": "SYR", "source": "HOTOSM/OSM", "latitude": 37.050071, "longitude": 41.228201 }, "geometry": { "type": "Point", "coordinates": [ 41.2282007, 37.0500713 ] } },
{ "type": "Feature", "properties": { "osm_id": 5928853585, "name": "الوفاء", "amenity": "school", "building": null, "operator": "", "capacity": "", "addr_city": "", "country": "Syria", "iso3": "SYR", "source": "HOTOSM/OSM", "latitude": 37.054228, "longitude": 41.234998 }, "geometry": { "type": "Point", "coordinates": [ 41.2349981, 37.0542279 ] } },
{ "type": "Feature", "properties": { "osm_id": 8735750520, "name": "معهد الأمل", "amenity": "school", "building": null, "operator": "", "capacity": "", "addr_city": "", "country": "Syria", "iso3": "SYR", "source": "HOTOSM/OSM", "latitude": 37.047351, "longitude": 41.22773 }, "geometry": { "type": "Point", "coordinates": [ 41.2277303, 37.0473511 ] } },
{ "type": "Feature", "properties": { "osm_id": 10060610104, "name": "مدرسة علي بن أبي طالب", "amenity": "school", "building": null, "operator": "", "capacity": "", "addr_city": "", "country": "Syria", "iso3": "SYR", "source": "HOTOSM/OSM", "latitude": 36.188072, "longitude": 37.177887 }, "geometry": { "type": "Point", "coordinates": [ 37.1778871, 36.1880723 ] } },
{ "type": "Feature", "properties": { "osm_id": 10060535673, "name": "مدرسة عقبة بن نافع للبنات", "amenity": "school", "building": null, "operator": "", "capacity": "", "addr_city": "", "country": "Syria", "iso3": "SYR", "source": "HOTOSM/OSM", "latitude": 36.193912, "longitude": 37.172836 }, "geometry": { "type": "Point", "coordinates": [ 37.1728357, 36.193912 ] } },
{ "type": "Feature", "properties": { "osm_id": 10060366606, "name": "مدرسة محمد ديب بيطار", "amenity": "school", "building": null, "operator": "", "capacity": "", "addr_city": "", "country": "Syria", "iso3": "SYR", "source": "HOTOSM/OSM", "latitude": 36.19616, "longitude": 37.174639 }, "geometry": { "type": "Point", "coordinates": [ 37.1746389, 36.1961602 ] } },
{ "type": "Feature", "properties": { "osm_id": 4187067991, "name": "الثانوية الصناعيه", "amenity": "school", "building": null, "operator": "", "capacity": "", "addr_city": "", "country": "Syria", "iso3": "SYR", "source": "HOTOSM/OSM", "latitude": 37.05077, "longitude": 41.233533 }, "geometry": { "type": "Point", "coordinates": [ 41.2335325, 37.0507697 ] } },
{ "type": "Feature", "properties": { "osm_id": 4187079890, "name": "مدرسة الماظا خليل", "amenity": "school", "building": null, "operator": "", "capacity": "", "addr_city": "", "country": "Syria", "iso3": "SYR", "source": "HOTOSM/OSM", "latitude": 37.051134, "longitude": 41.235129 }, "geometry": { "type": "Point", "coordinates": [ 41.2351286, 37.0511339 ] } },
{ "type": "Feature", "properties": { "osm_id": 5959920485, "name": "ابراهيم هنانو", "amenity": "school", "building": null, "operator": "", "capacity": "", "addr_city": "", "country": "Syria", "iso3": "SYR", "source": "HOTOSM/OSM", "latitude": 37.0646, "longitude": 41.247948 }, "geometry": { "type": "Point", "coordinates": [ 41.2479478, 37.0645996 ] } },
{ "type": "Feature", "properties": { "osm_id": 1286981779, "name": "", "amenity": "school", "building": null, "operator": "", "capacity": "", "addr_city": "", "country": "Syria", "iso3": "SYR", "source": "HOTOSM/OSM", "latitude": 37.037214, "longitude": 41.226738 }, "geometry": { "type": "Point", "coordinates": [ 41.2267377, 37.0372144 ] } },
{ "type": "Feature", "properties": { "osm_id": 1286983163, "name": "مدرسة أبراهيم ايوب شيخ احمد", "amenity": "school", "building": null, "operator": "", "capacity": "", "addr_city": "", "country": "Syria", "iso3": "SYR", "source": "HOTOSM/OSM", "latitude": 37.03742, "longitude": 41.228184 }, "geometry": { "type": "Point", "coordinates": [ 41.2281838, 37.0374198 ] } },
{ "type": "Feature", "properties": { "osm_id": 6995380585, "name": "كلية الاقتصاد - فرع درعا", "amenity": "college", "building": null, "operator": "", "capacity": "", "addr_city": "", "country": "Syria", "iso3": "SYR", "source": "HOTOSM/OSM", "latitude": 32.640666, "longitude": 36.110091 }, "geometry": { "type": "Point", "coordinates": [ 36.1100914, 32.6406664 ] } },
{ "type": "Feature", "properties": { "osm_id": 6332298785, "name": "حضانة وروضة جامعة حلب", "amenity": "kindergarten", "building": null, "operator": "", "capacity": "", "addr_city": "", "country": "Syria", "iso3": "SYR", "source": "HOTOSM/OSM", "latitude": 36.211471, "longitude": 37.124852 }, "geometry": { "type": "Point", "coordinates": [ 37.1248519, 36.2114708 ] } },
{ "type": "Feature", "properties": { "osm_id": 7261170786, "name": "مدرسة الطبري", "amenity": "school", "building": null, "operator": "", "capacity": "", "addr_city": "", "country": "Syria", "iso3": "SYR", "source": "HOTOSM/OSM", "latitude": 36.228237, "longitude": 37.093795 }, "geometry": { "type": "Point", "coordinates": [ 37.0937946, 36.2282366 ] } },
{ "type": "Feature", "properties": { "osm_id": 10074711172, "name": "مدارس المعرفة الخاصة", "amenity": "school", "building": null, "operator": "", "capacity": "", "addr_city": "", "country": "Syria", "iso3": "SYR", "source": "HOTOSM/OSM", "latitude": 36.222473, "longitude": 37.116438 }, "geometry": { "type": "Point", "coordinates": [ 37.1164383, 36.2224734 ] } },
{ "type": "Feature", "properties": { "osm_id": 6936609985, "name": "شكري القوتلي", "amenity": "school", "building": null, "operator": "", "capacity": "", "addr_city": "", "country": "Syria", "iso3": "SYR", "source": "HOTOSM/OSM", "latitude": 36.20249, "longitude": 37.127578 }, "geometry": { "type": "Point", "coordinates": [ 37.1275775, 36.20249 ] } },
{ "type": "Feature", "properties": { "osm_id": 10060822315, "name": "مدرسة توفيق العلبي", "amenity": "school", "building": null, "operator": "", "capacity": "", "addr_city": "", "country": "Syria", "iso3": "SYR", "source": "HOTOSM/OSM", "latitude": 36.194598, "longitude": 37.128809 }, "geometry": { "type": "Point", "coordinates": [ 37.1288089, 36.1945983 ] } },
{ "type": "Feature", "properties": { "osm_id": 10060896692, "name": "ثانوية التجارة الرابعة للبنات", "amenity": "school", "building": null, "operator": "", "capacity": "", "addr_city": "", "country": "Syria", "iso3": "SYR", "source": "HOTOSM/OSM", "latitude": 36.190697, "longitude": 37.130301 }, "geometry": { "type": "Point", "coordinates": [ 37.130301, 36.1906968 ] } },
{ "type": "Feature", "properties": { "osm_id": 4584406593, "name": "", "amenity": "school", "building": null, "operator": "", "capacity": "", "addr_city": "", "country": "Syria", "iso3": "SYR", "source": "HOTOSM/OSM", "latitude": 36.004901, "longitude": 36.671431 }, "geometry": { "type": "Point", "coordinates": [ 36.6714309, 36.0049009 ] } },
{ "type": "Feature", "properties": { "osm_id": 4174179899, "name": "معهد الزهور", "amenity": "school", "building": null, "operator": "", "capacity": "", "addr_city": "", "country": "Syria", "iso3": "SYR", "source": "HOTOSM/OSM", "latitude": 36.012243, "longitude": 36.669528 }, "geometry": { "type": "Point", "coordinates": [ 36.6695278, 36.0122426 ] } },
{ "type": "Feature", "properties": { "osm_id": 7745534586, "name": "جهدالله بكاية", "amenity": "school", "building": null, "operator": "", "capacity": "", "addr_city": "", "country": "Syria", "iso3": "SYR", "source": "HOTOSM/OSM", "latitude": 36.010112, "longitude": 36.668406 }, "geometry": { "type": "Point", "coordinates": [ 36.668406, 36.0101122 ] } },
{ "type": "Feature", "properties": { "osm_id": 7745547486, "name": "جهدالله بكاية", "amenity": "school", "building": null, "operator": "", "capacity": "", "addr_city": "", "country": "Syria", "iso3": "SYR", "source": "HOTOSM/OSM", "latitude": 36.010072, "longitude": 36.668369 }, "geometry": { "type": "Point", "coordinates": [ 36.6683694, 36.0100724 ] } },
{ "type": "Feature", "properties": { "osm_id": 4807852825, "name": "", "amenity": "school", "building": null, "operator": "", "capacity": "", "addr_city": "", "country": "Syria", "iso3": "SYR", "source": "HOTOSM/OSM", "latitude": 36.010017, "longitude": 36.673102 }, "geometry": { "type": "Point", "coordinates": [ 36.6731017, 36.0100173 ] } },
{ "type": "Feature", "properties": { "osm_id": 540441733, "name": "مدرسة عبد المنعم رياض", "amenity": "school", "building": null, "operator": "", "capacity": "", "addr_city": "", "country": "Syria", "iso3": "SYR", "source": "HOTOSM/OSM", "latitude": 36.215382, "longitude": 37.139966 }, "geometry": { "type": "Point", "coordinates": [ 37.1399662, 36.2153824 ] } },
{ "type": "Feature", "properties": { "osm_id": 10069983192, "name": "مدرسة العامرية المحدثة", "amenity": "school", "building": null, "operator": "", "capacity": "", "addr_city": "", "country": "Syria", "iso3": "SYR", "source": "HOTOSM/OSM", "latitude": 36.17045, "longitude": 37.127073 }, "geometry": { "type": "Point", "coordinates": [ 37.1270727, 36.1704497 ] } },
{ "type": "Feature", "properties": { "osm_id": 7724170485, "name": "مدرسة يلبُغا", "amenity": "school", "building": null, "operator": "", "capacity": "", "addr_city": "", "country": "Syria", "iso3": "SYR", "source": "HOTOSM/OSM", "latitude": 36.213101, "longitude": 37.158865 }, "geometry": { "type": "Point", "coordinates": [ 37.1588647, 36.2131014 ] } },
{ "type": "Feature", "properties": { "osm_id": 4565359890, "name": "مدرسة الفرح", "amenity": "school", "building": null, "operator": "", "capacity": "", "addr_city": "", "country": "Syria", "iso3": "SYR", "source": "HOTOSM/OSM", "latitude": 36.213941, "longitude": 37.115158 }, "geometry": { "type": "Point", "coordinates": [ 37.1151583, 36.2139412 ] } },
{ "type": "Feature", "properties": { "osm_id": 10074597271, "name": "مدرسة المميزون", "amenity": "school", "building": null, "operator": "", "capacity": "", "addr_city": "", "country": "Syria", "iso3": "SYR", "source": "HOTOSM/OSM", "latitude": 36.216289, "longitude": 37.107967 }, "geometry": { "type": "Point", "coordinates": [ 37.1079669, 36.2162887 ] } },
{ "type": "Feature", "properties": { "osm_id": 4511741190, "name": "مدرسة المرح", "amenity": "school", "building": null, "operator": "", "capacity": "", "addr_city": "", "country": "Syria", "iso3": "SYR", "source": "HOTOSM/OSM", "latitude": 36.217455, "longitude": 37.10885 }, "geometry": { "type": "Point", "coordinates": [ 37.1088501, 36.2174554 ] } },
{ "type": "Feature", "properties": { "osm_id": 4883040921, "name": "المدرسة المحدثة", "amenity": "school", "building": null, "operator": "", "capacity": "", "addr_city": "", "country": "Syria", "iso3": "SYR", "source": "HOTOSM/OSM", "latitude": 36.190005, "longitude": 37.140802 }, "geometry": { "type": "Point", "coordinates": [ 37.1408017, 36.190005 ] } },
{ "type": "Feature", "properties": { "osm_id": 5362285221, "name": "Alhasan bn alhaitham (sheikh saeed)- الحسن ابن الهيثم", "amenity": "school", "building": null, "operator": "", "capacity": "", "addr_city": "", "country": "Syria", "iso3": "SYR", "source": "HOTOSM/OSM", "latitude": 36.158543, "longitude": 37.152623 }, "geometry": { "type": "Point", "coordinates": [ 37.1526234, 36.158543 ] } },
{ "type": "Feature", "properties": { "osm_id": 7727427535, "name": "Ali Bin Abi Talep Orta Okulu", "amenity": "school", "building": null, "operator": "", "capacity": "", "addr_city": "", "country": "Syria", "iso3": "SYR", "source": "HOTOSM/OSM", "latitude": 36.188102, "longitude": 37.17747 }, "geometry": { "type": "Point", "coordinates": [ 37.1774697, 36.1881025 ] } },
{ "type": "Feature", "properties": { "osm_id": 7727427536, "name": "Ali Bin Abi Talep Orta Okulu", "amenity": "school", "building": null, "operator": "", "capacity": "", "addr_city": "", "country": "Syria", "iso3": "SYR", "source": "HOTOSM/OSM", "latitude": 36.18776, "longitude": 37.177614 }, "geometry": { "type": "Point", "coordinates": [ 37.1776141, 36.1877603 ] } },
{ "type": "Feature", "properties": { "osm_id": 7267222286, "name": "مدرسة باتبو الغربية", "amenity": "school", "building": null, "operator": "", "capacity": "", "addr_city": "", "country": "Syria", "iso3": "SYR", "source": "HOTOSM/OSM", "latitude": 36.136375, "longitude": 36.732898 }, "geometry": { "type": "Point", "coordinates": [ 36.7328978, 36.1363745 ] } },
{ "type": "Feature", "properties": { "osm_id": 5302349524, "name": "كلية الآداب والعلوم الإنسانية", "amenity": "college", "building": null, "operator": "", "capacity": "", "addr_city": "", "country": "Syria", "iso3": "SYR", "source": "HOTOSM/OSM", "latitude": 36.209149, "longitude": 37.114409 }, "geometry": { "type": "Point", "coordinates": [ 37.1144085, 36.2091489 ] } },
{ "type": "Feature", "properties": { "osm_id": 5045469726, "name": "ثانوية التل للبنين", "amenity": "school", "building": null, "operator": "", "capacity": "", "addr_city": "", "country": "Syria", "iso3": "SYR", "source": "HOTOSM/OSM", "latitude": 33.60132, "longitude": 36.310967 }, "geometry": { "type": "Point", "coordinates": [ 36.310967, 33.6013202 ] } },
{ "type": "Feature", "properties": { "osm_id": 10148398418, "name": "مدرسة رويسة المندرة", "amenity": "school", "building": null, "operator": "", "capacity": "", "addr_city": "", "country": "Syria", "iso3": "SYR", "source": "HOTOSM/OSM", "latitude": 34.820709, "longitude": 36.092307 }, "geometry": { "type": "Point", "coordinates": [ 36.092307, 34.8207086 ] } },
{ "type": "Feature", "properties": { "osm_id": 10148416018, "name": "مدرسة جورة الشنبور الاعدادية والابتدائية", "amenity": "school", "building": null, "operator": "", "capacity": "", "addr_city": "", "country": "Syria", "iso3": "SYR", "source": "HOTOSM/OSM", "latitude": 34.795282, "longitude": 36.06756 }, "geometry": { "type": "Point", "coordinates": [ 36.0675603, 34.7952824 ] } },
{ "type": "Feature", "properties": { "osm_id": 5000107426, "name": "مدرسة الشريعة", "amenity": "school", "building": null, "operator": "", "capacity": "", "addr_city": "", "country": "Syria", "iso3": "SYR", "source": "HOTOSM/OSM", "latitude": 34.90364, "longitude": 35.883743 }, "geometry": { "type": "Point", "coordinates": [ 35.883743, 34.9036403 ] } },
{ "type": "Feature", "properties": { "osm_id": 4187041305, "name": "الفنون النسوية", "amenity": "school", "building": null, "operator": "", "capacity": "", "addr_city": "", "country": "Syria", "iso3": "SYR", "source": "HOTOSM/OSM", "latitude": 37.054862, "longitude": 41.241921 }, "geometry": { "type": "Point", "coordinates": [ 41.2419206, 37.0548623 ] } },
{ "type": "Feature", "properties": { "osm_id": 2156751938, "name": "مدرسة محي الدين التوتنجي", "amenity": "school", "building": null, "operator": "", "capacity": "", "addr_city": "", "country": "Syria", "iso3": "SYR", "source": "HOTOSM/OSM", "latitude": 36.214914, "longitude": 37.177474 }, "geometry": { "type": "Point", "coordinates": [ 37.1774742, 36.2149137 ] } },
{ "type": "Feature", "properties": { "osm_id": 10076496374, "name": "مدرسة عمر مصطفى حمال (النهضة)", "amenity": "school", "building": null, "operator": "", "capacity": "", "addr_city": "", "country": "Syria", "iso3": "SYR", "source": "HOTOSM/OSM", "latitude": 36.202916, "longitude": 37.166116 }, "geometry": { "type": "Point", "coordinates": [ 37.1661157, 36.2029163 ] } },
{ "type": "Feature", "properties": { "osm_id": 4564433890, "name": "دار الأيتام الإسلامية", "amenity": "school", "building": null, "operator": "", "capacity": "", "addr_city": "", "country": "Syria", "iso3": "SYR", "source": "HOTOSM/OSM", "latitude": 36.585035, "longitude": 37.040349 }, "geometry": { "type": "Point", "coordinates": [ 37.0403489, 36.5850353 ] } },
{ "type": "Feature", "properties": { "osm_id": 10060890014, "name": "مدرسة التضامن", "amenity": "school", "building": null, "operator": "", "capacity": "", "addr_city": "", "country": "Syria", "iso3": "SYR", "source": "HOTOSM/OSM", "latitude": 36.212164, "longitude": 37.179828 }, "geometry": { "type": "Point", "coordinates": [ 37.1798282, 36.212164 ] } },
{ "type": "Feature", "properties": { "osm_id": 7214520511, "name": "Dibistan", "amenity": "school", "building": null, "operator": "", "capacity": "", "addr_city": "", "country": "Syria", "iso3": "SYR", "source": "HOTOSM/OSM", "latitude": 36.512849, "longitude": 36.881483 }, "geometry": { "type": "Point", "coordinates": [ 36.8814832, 36.5128494 ] } },
{ "type": "Feature", "properties": { "osm_id": 6128222488, "name": "مدرسة الركابية", "amenity": "school", "building": null, "operator": "", "capacity": "", "addr_city": "", "country": "Syria", "iso3": "SYR", "source": "HOTOSM/OSM", "latitude": 36.969505, "longitude": 41.322737 }, "geometry": { "type": "Point", "coordinates": [ 41.3227374, 36.9695052 ] } },
{ "type": "Feature", "properties": { "osm_id": 5057343023, "name": "", "amenity": "school", "building": null, "operator": "", "capacity": "", "addr_city": "", "country": "Syria", "iso3": "SYR", "source": "HOTOSM/OSM", "latitude": 36.496574, "longitude": 40.743483 }, "geometry": { "type": "Point", "coordinates": [ 40.743483, 36.4965742 ] } },
{ "type": "Feature", "properties": { "osm_id": 5621713921, "name": "", "amenity": "school", "building": null, "operator": "", "capacity": "", "addr_city": "", "country": "Syria", "iso3": "SYR", "source": "HOTOSM/OSM", "latitude": 36.502403, "longitude": 40.748156 }, "geometry": { "type": "Point", "coordinates": [ 40.7481563, 36.5024029 ] } },
{ "type": "Feature", "properties": { "osm_id": 5357548724, "name": "كلية الهندسة الزراعية", "amenity": "college", "building": null, "operator": "", "capacity": "", "addr_city": "", "country": "Syria", "iso3": "SYR", "source": "HOTOSM/OSM", "latitude": 36.515192, "longitude": 40.719601 }, "geometry": { "type": "Point", "coordinates": [ 40.7196009, 36.5151921 ] } },
{ "type": "Feature", "properties": { "osm_id": 10125560625, "name": "مدرسة الاندلس الخاصة", "amenity": "school", "building": null, "operator": "", "capacity": "", "addr_city": "", "country": "Syria", "iso3": "SYR", "source": "HOTOSM/OSM", "latitude": 34.913618, "longitude": 35.914221 }, "geometry": { "type": "Point", "coordinates": [ 35.9142213, 34.9136175 ] } },
{ "type": "Feature", "properties": { "osm_id": 12308866201, "name": "مدرسة يوسف العظمة", "amenity": "school", "building": null, "operator": "", "capacity": "", "addr_city": "", "country": "Syria", "iso3": "SYR", "source": "HOTOSM/OSM", "latitude": 35.92506, "longitude": 36.631984 }, "geometry": { "type": "Point", "coordinates": [ 36.6319839, 35.9250602 ] } },
{ "type": "Feature", "properties": { "osm_id": 3927999341, "name": "", "amenity": "school", "building": null, "operator": "", "capacity": "", "addr_city": "", "country": "Syria", "iso3": "SYR", "source": "HOTOSM/OSM", "latitude": 35.300148, "longitude": 36.798882 }, "geometry": { "type": "Point", "coordinates": [ 36.7988822, 35.3001482 ] } },
{ "type": "Feature", "properties": { "osm_id": 3927999364, "name": "", "amenity": "school", "building": null, "operator": "", "capacity": "", "addr_city": "", "country": "Syria", "iso3": "SYR", "source": "HOTOSM/OSM", "latitude": 35.388559, "longitude": 36.858262 }, "geometry": { "type": "Point", "coordinates": [ 36.8582618, 35.3885593 ] } },
{ "type": "Feature", "properties": { "osm_id": 3927108257, "name": "", "amenity": "school", "building": null, "operator": "", "capacity": "", "addr_city": "", "country": "Syria", "iso3": "SYR", "source": "HOTOSM/OSM", "latitude": 35.087582, "longitude": 36.453391 }, "geometry": { "type": "Point", "coordinates": [ 36.453391, 35.0875819 ] } },
{ "type": "Feature", "properties": { "osm_id": 3925866044, "name": "", "amenity": "school", "building": null, "operator": "", "capacity": "", "addr_city": "", "country": "Syria", "iso3": "SYR", "source": "HOTOSM/OSM", "latitude": 34.99543, "longitude": 36.387411 }, "geometry": { "type": "Point", "coordinates": [ 36.3874107, 34.99543 ] } },
{ "type": "Feature", "properties": { "osm_id": 4883297022, "name": "مدرسة عبد الرحمن الداخل", "amenity": "school", "building": null, "operator": "", "capacity": "", "addr_city": "", "country": "Syria", "iso3": "SYR", "source": "HOTOSM/OSM", "latitude": 36.192433, "longitude": 37.142683 }, "geometry": { "type": "Point", "coordinates": [ 37.142683, 36.1924328 ] } },
{ "type": "Feature", "properties": { "osm_id": 6796847187, "name": "JLC Jarjour Language Center", "amenity": "school", "building": null, "operator": "", "capacity": "", "addr_city": "", "country": "Syria", "iso3": "SYR", "source": "HOTOSM/OSM", "latitude": 34.710379, "longitude": 36.763629 }, "geometry": { "type": "Point", "coordinates": [ 36.7636291, 34.7103787 ] } },
{ "type": "Feature", "properties": { "osm_id": 7841833485, "name": "", "amenity": "school", "building": null, "operator": "", "capacity": "", "addr_city": "", "country": "Syria", "iso3": "SYR", "source": "HOTOSM/OSM", "latitude": 36.509904, "longitude": 38.680809 }, "geometry": { "type": "Point", "coordinates": [ 38.6808087, 36.509904 ] } },
{ "type": "Feature", "properties": { "osm_id": 4882342122, "name": "مدرسة الشهيد ساهر انطكلي", "amenity": "school", "building": null, "operator": "", "capacity": "", "addr_city": "", "country": "Syria", "iso3": "SYR", "source": "HOTOSM/OSM", "latitude": 35.254759, "longitude": 36.571319 }, "geometry": { "type": "Point", "coordinates": [ 36.5713194, 35.2547593 ] } },
{ "type": "Feature", "properties": { "osm_id": 5706436397, "name": "مدرسة الشهيد عبد العزيز دوبا", "amenity": "school", "building": null, "operator": "", "capacity": "", "addr_city": "", "country": "Syria", "iso3": "SYR", "source": "HOTOSM/OSM", "latitude": 36.18079, "longitude": 37.112421 }, "geometry": { "type": "Point", "coordinates": [ 37.1124214, 36.1807898 ] } },
{ "type": "Feature", "properties": { "osm_id": 4787585824, "name": "مركز نخبة حلب", "amenity": "school", "building": null, "operator": "", "capacity": "", "addr_city": "", "country": "Syria", "iso3": "SYR", "source": "HOTOSM/OSM", "latitude": 36.194285, "longitude": 37.097656 }, "geometry": { "type": "Point", "coordinates": [ 37.0976556, 36.1942854 ] } },
{ "type": "Feature", "properties": { "osm_id": 10074629522, "name": "مدرسة دلال المغربي", "amenity": "school", "building": null, "operator": "", "capacity": "", "addr_city": "", "country": "Syria", "iso3": "SYR", "source": "HOTOSM/OSM", "latitude": 36.217677, "longitude": 37.111563 }, "geometry": { "type": "Point", "coordinates": [ 37.1115629, 36.2176769 ] } },
{ "type": "Feature", "properties": { "osm_id": 10069908014, "name": "مدرسه عبد الحميد رجب باشا", "amenity": "school", "building": null, "operator": "", "capacity": "", "addr_city": "", "country": "Syria", "iso3": "SYR", "source": "HOTOSM/OSM", "latitude": 36.199944, "longitude": 37.091763 }, "geometry": { "type": "Point", "coordinates": [ 37.0917627, 36.1999438 ] } },
{ "type": "Feature", "properties": { "osm_id": 10068372680, "name": "مدرسة فاتح مدرس", "amenity": "school", "building": null, "operator": "", "capacity": "", "addr_city": "", "country": "Syria", "iso3": "SYR", "source": "HOTOSM/OSM", "latitude": 36.177145, "longitude": 37.102872 }, "geometry": { "type": "Point", "coordinates": [ 37.1028717, 36.1771452 ] } },
{ "type": "Feature", "properties": { "osm_id": 12896358309, "name": "ثانوية حسين الضامن الشرعية", "amenity": "school", "building": null, "operator": "", "capacity": "", "addr_city": "", "country": "Syria", "iso3": "SYR", "source": "HOTOSM/OSM", "latitude": 35.288294, "longitude": 36.743703 }, "geometry": { "type": "Point", "coordinates": [ 36.7437027, 35.2882937 ] } },
{ "type": "Feature", "properties": { "osm_id": 12896358310, "name": "ثانوية حسين الضامن المهنية", "amenity": "school", "building": null, "operator": "", "capacity": "", "addr_city": "", "country": "Syria", "iso3": "SYR", "source": "HOTOSM/OSM", "latitude": 35.288106, "longitude": 36.743787 }, "geometry": { "type": "Point", "coordinates": [ 36.7437866, 35.2881061 ] } },
{ "type": "Feature", "properties": { "osm_id": 12896358311, "name": "مدرسة صلاح ديبو العلي", "amenity": "school", "building": null, "operator": "", "capacity": "", "addr_city": "", "country": "Syria", "iso3": "SYR", "source": "HOTOSM/OSM", "latitude": 35.288071, "longitude": 36.743579 }, "geometry": { "type": "Point", "coordinates": [ 36.743579, 35.2880706 ] } },
{ "type": "Feature", "properties": { "osm_id": 12896358313, "name": "مدرسة الزهراء الإعدادية", "amenity": "school", "building": null, "operator": "", "capacity": "", "addr_city": "", "country": "Syria", "iso3": "SYR", "source": "HOTOSM/OSM", "latitude": 35.289027, "longitude": 36.743482 }, "geometry": { "type": "Point", "coordinates": [ 36.743482, 35.2890267 ] } },
{ "type": "Feature", "properties": { "osm_id": 12896358308, "name": "ثانوية حسين الضامن (علمي - أدبي)", "amenity": "school", "building": null, "operator": "", "capacity": "", "addr_city": "", "country": "Syria", "iso3": "SYR", "source": "HOTOSM/OSM", "latitude": 35.288549, "longitude": 36.7439 }, "geometry": { "type": "Point", "coordinates": [ 36.7439003, 35.2885493 ] } },
{ "type": "Feature", "properties": { "osm_id": 7638732185, "name": "مدرسة نازك الملائكة", "amenity": "school", "building": null, "operator": "", "capacity": "", "addr_city": "", "country": "Syria", "iso3": "SYR", "source": "HOTOSM/OSM", "latitude": 37.024062, "longitude": 41.537905 }, "geometry": { "type": "Point", "coordinates": [ 41.537905, 37.0240617 ] } },
{ "type": "Feature", "properties": { "osm_id": 7638731888, "name": "مدرسة خولة بنت الازور", "amenity": "school", "building": null, "operator": "", "capacity": "", "addr_city": "", "country": "Syria", "iso3": "SYR", "source": "HOTOSM/OSM", "latitude": 37.029273, "longitude": 41.537396 }, "geometry": { "type": "Point", "coordinates": [ 41.5373955, 37.0292733 ] } },
{ "type": "Feature", "properties": { "osm_id": 7638731787, "name": "مدرسة الكندي", "amenity": "school", "building": null, "operator": "", "capacity": "", "addr_city": "", "country": "Syria", "iso3": "SYR", "source": "HOTOSM/OSM", "latitude": 37.033466, "longitude": 41.535714 }, "geometry": { "type": "Point", "coordinates": [ 41.5357141, 37.0334658 ] } },
{ "type": "Feature", "properties": { "osm_id": 7638731788, "name": "مدرسة عبد القادر الجزائري", "amenity": "school", "building": null, "operator": "", "capacity": "", "addr_city": "", "country": "Syria", "iso3": "SYR", "source": "HOTOSM/OSM", "latitude": 37.033302, "longitude": 41.538237 }, "geometry": { "type": "Point", "coordinates": [ 41.5382373, 37.0333023 ] } },
{ "type": "Feature", "properties": { "osm_id": 7638731889, "name": "مدرسة عمرو بن العاص", "amenity": "school", "building": null, "operator": "", "capacity": "", "addr_city": "", "country": "Syria", "iso3": "SYR", "source": "HOTOSM/OSM", "latitude": 37.026169, "longitude": 41.553294 }, "geometry": { "type": "Point", "coordinates": [ 41.5532938, 37.0261686 ] } },
{ "type": "Feature", "properties": { "osm_id": 7638732186, "name": "المجمع التربوي", "amenity": "school", "building": null, "operator": "", "capacity": "", "addr_city": "", "country": "Syria", "iso3": "SYR", "source": "HOTOSM/OSM", "latitude": 37.026548, "longitude": 41.55129 }, "geometry": { "type": "Point", "coordinates": [ 41.5512901, 37.0265485 ] } },
{ "type": "Feature", "properties": { "osm_id": 7638731785, "name": "مدرسة فيصل الحسين", "amenity": "school", "building": null, "operator": "", "capacity": "", "addr_city": "", "country": "Syria", "iso3": "SYR", "source": "HOTOSM/OSM", "latitude": 37.023126, "longitude": 41.546467 }, "geometry": { "type": "Point", "coordinates": [ 41.5464667, 37.0231265 ] } },
{ "type": "Feature", "properties": { "osm_id": 7638731885, "name": "مدرسة مجدل شمس", "amenity": "school", "building": null, "operator": "", "capacity": "", "addr_city": "", "country": "Syria", "iso3": "SYR", "source": "HOTOSM/OSM", "latitude": 37.023322, "longitude": 41.545704 }, "geometry": { "type": "Point", "coordinates": [ 41.5457037, 37.0233216 ] } },
{ "type": "Feature", "properties": { "osm_id": 7638731786, "name": "المدرسة المهنية والفنية", "amenity": "school", "building": null, "operator": "", "capacity": "", "addr_city": "", "country": "Syria", "iso3": "SYR", "source": "HOTOSM/OSM", "latitude": 37.021947, "longitude": 41.545214 }, "geometry": { "type": "Point", "coordinates": [ 41.5452139, 37.0219474 ] } },
{ "type": "Feature", "properties": { "osm_id": 7638731985, "name": "مدرسة فايز منصور", "amenity": "school", "building": null, "operator": "", "capacity": "", "addr_city": "", "country": "Syria", "iso3": "SYR", "source": "HOTOSM/OSM", "latitude": 37.032262, "longitude": 41.553416 }, "geometry": { "type": "Point", "coordinates": [ 41.5534161, 37.0322622 ] } },
{ "type": "Feature", "properties": { "osm_id": 7638731887, "name": "مدرسة عائشة", "amenity": "school", "building": null, "operator": "", "capacity": "", "addr_city": "", "country": "Syria", "iso3": "SYR", "source": "HOTOSM/OSM", "latitude": 37.027611, "longitude": 41.539698 }, "geometry": { "type": "Point", "coordinates": [ 41.539698, 37.0276111 ] } },
{ "type": "Feature", "properties": { "osm_id": 4811670021, "name": "مدرسة الشهيد طالب قاق", "amenity": "school", "building": null, "operator": "", "capacity": "", "addr_city": "", "country": "Syria", "iso3": "SYR", "source": "HOTOSM/OSM", "latitude": 35.906882, "longitude": 36.725701 }, "geometry": { "type": "Point", "coordinates": [ 36.7257007, 35.9068819 ] } },
{ "type": "Feature", "properties": { "osm_id": 1715235866, "name": "مدرسة فاطمة العلي", "amenity": "school", "building": null, "operator": "", "capacity": "", "addr_city": "", "country": "Syria", "iso3": "SYR", "source": "HOTOSM/OSM", "latitude": 34.88098, "longitude": 35.883283 }, "geometry": { "type": "Point", "coordinates": [ 35.8832828, 34.8809803 ] } },
{ "type": "Feature", "properties": { "osm_id": 4807607721, "name": "كلية هندسة تكنولوجيا المعلومات و الاتصالات", "amenity": "school", "building": null, "operator": "", "capacity": "", "addr_city": "", "country": "Syria", "iso3": "SYR", "source": "HOTOSM/OSM", "latitude": 34.864974, "longitude": 35.93884 }, "geometry": { "type": "Point", "coordinates": [ 35.9388396, 34.8649738 ] } },
{ "type": "Feature", "properties": { "osm_id": 4807610821, "name": "مدرسة رجب صالح", "amenity": "school", "building": null, "operator": "", "capacity": "", "addr_city": "", "country": "Syria", "iso3": "SYR", "source": "HOTOSM/OSM", "latitude": 34.881377, "longitude": 35.883165 }, "geometry": { "type": "Point", "coordinates": [ 35.8831649, 34.8813766 ] } },
{ "type": "Feature", "properties": { "osm_id": 10024131948, "name": "مدرسة الزعرورة", "amenity": "school", "building": null, "operator": "", "capacity": "", "addr_city": "", "country": "Syria", "iso3": "SYR", "source": "HOTOSM/OSM", "latitude": 33.463261, "longitude": 36.203187 }, "geometry": { "type": "Point", "coordinates": [ 36.2031871, 33.463261 ] } },
{ "type": "Feature", "properties": { "osm_id": 4708939790, "name": "مدرسة عقارب  الابتدائية الريفية", "amenity": "school", "building": null, "operator": "", "capacity": "", "addr_city": "", "country": "Syria", "iso3": "SYR", "source": "HOTOSM/OSM", "latitude": 35.101868, "longitude": 37.207855 }, "geometry": { "type": "Point", "coordinates": [ 37.2078547, 35.1018676 ] } },
{ "type": "Feature", "properties": { "osm_id": 8454167617, "name": "مدرسة الشهيد عامر الجيعان", "amenity": "school", "building": null, "operator": "", "capacity": "", "addr_city": "", "country": "Syria", "iso3": "SYR", "source": "HOTOSM/OSM", "latitude": 36.217433, "longitude": 36.772109 }, "geometry": { "type": "Point", "coordinates": [ 36.7721088, 36.2174326 ] } },
{ "type": "Feature", "properties": { "osm_id": 10069976387, "name": "الثانوية الشرعية", "amenity": "school", "building": null, "operator": "", "capacity": "", "addr_city": "", "country": "Syria", "iso3": "SYR", "source": "HOTOSM/OSM", "latitude": 36.179937, "longitude": 37.125547 }, "geometry": { "type": "Point", "coordinates": [ 37.1255473, 36.1799368 ] } },
{ "type": "Feature", "properties": { "osm_id": 10060966133, "name": "جامع حذيفة بن اليمان حلب", "amenity": "school", "building": null, "operator": "", "capacity": "", "addr_city": "", "country": "Syria", "iso3": "SYR", "source": "HOTOSM/OSM", "latitude": 36.189494, "longitude": 37.134696 }, "geometry": { "type": "Point", "coordinates": [ 37.1346963, 36.1894936 ] } },
{ "type": "Feature", "properties": { "osm_id": 3309158762, "name": "ثانوية منين", "amenity": "school", "building": null, "operator": "", "capacity": "", "addr_city": "", "country": "Syria", "iso3": "SYR", "source": "HOTOSM/OSM", "latitude": 33.641652, "longitude": 36.305708 }, "geometry": { "type": "Point", "coordinates": [ 36.305708, 33.6416523 ] } },
{ "type": "Feature", "properties": { "osm_id": 6707739085, "name": "معهد الرواد", "amenity": "school", "building": null, "operator": "", "capacity": "", "addr_city": "", "country": "Syria", "iso3": "SYR", "source": "HOTOSM/OSM", "latitude": 36.522107, "longitude": 37.935886 }, "geometry": { "type": "Point", "coordinates": [ 37.935886, 36.522107 ] } },
{ "type": "Feature", "properties": { "osm_id": 4586171110, "name": "مدرسة عبد الرحمن عرفة", "amenity": "school", "building": null, "operator": "", "capacity": "", "addr_city": "", "country": "Syria", "iso3": "SYR", "source": "HOTOSM/OSM", "latitude": 35.113766, "longitude": 36.768343 }, "geometry": { "type": "Point", "coordinates": [ 36.7683431, 35.1137658 ] } },
{ "type": "Feature", "properties": { "osm_id": 4586170996, "name": "مدرسة محمد ديب عواد", "amenity": "school", "building": null, "operator": "", "capacity": "", "addr_city": "", "country": "Syria", "iso3": "SYR", "source": "HOTOSM/OSM", "latitude": 35.114244, "longitude": 36.768429 }, "geometry": { "type": "Point", "coordinates": [ 36.7684289, 35.1142441 ] } },
{ "type": "Feature", "properties": { "osm_id": 4564451690, "name": "روضة ميسون", "amenity": "kindergarten", "building": null, "operator": "", "capacity": "", "addr_city": "", "country": "Syria", "iso3": "SYR", "source": "HOTOSM/OSM", "latitude": 36.586329, "longitude": 37.04621 }, "geometry": { "type": "Point", "coordinates": [ 37.0462102, 36.5863286 ] } },
{ "type": "Feature", "properties": { "osm_id": 5706436816, "name": "جامعة إيبلا الخاصة", "amenity": "university", "building": null, "operator": "", "capacity": "", "addr_city": "", "country": "Syria", "iso3": "SYR", "source": "HOTOSM/OSM", "latitude": 36.180256, "longitude": 37.114255 }, "geometry": { "type": "Point", "coordinates": [ 37.1142546, 36.1802565 ] } },
{ "type": "Feature", "properties": { "osm_id": 4863691823, "name": "مدرسة الجلاء", "amenity": "school", "building": null, "operator": "", "capacity": "", "addr_city": "", "country": "Syria", "iso3": "SYR", "source": "HOTOSM/OSM", "latitude": 36.893572, "longitude": 38.338796 }, "geometry": { "type": "Point", "coordinates": [ 38.3387961, 36.8935725 ] } },
{ "type": "Feature", "properties": { "osm_id": 10060641431, "name": "مدرسة عائشة ام المؤمنين", "amenity": "school", "building": null, "operator": "", "capacity": "", "addr_city": "", "country": "Syria", "iso3": "SYR", "source": "HOTOSM/OSM", "latitude": 36.187539, "longitude": 37.17859 }, "geometry": { "type": "Point", "coordinates": [ 37.1785901, 36.187539 ] } },
{ "type": "Feature", "properties": { "osm_id": 10076525017, "name": "Jamal Aldin Alafghani School", "amenity": "school", "building": null, "operator": "", "capacity": "", "addr_city": "", "country": "Syria", "iso3": "SYR", "source": "HOTOSM/OSM", "latitude": 36.19453, "longitude": 37.172215 }, "geometry": { "type": "Point", "coordinates": [ 37.1722153, 36.1945299 ] } },
{ "type": "Feature", "properties": { "osm_id": 10060689914, "name": "مدرسة كرم عزيزة الإبتدائية الإعدادية", "amenity": "school", "building": null, "operator": "", "capacity": "", "addr_city": "", "country": "Syria", "iso3": "SYR", "source": "HOTOSM/OSM", "latitude": 36.163811, "longitude": 37.190992 }, "geometry": { "type": "Point", "coordinates": [ 37.1909922, 36.1638111 ] } },
{ "type": "Feature", "properties": { "osm_id": 4608379089, "name": "ابو زيدان", "amenity": "school", "building": null, "operator": "", "capacity": "", "addr_city": "", "country": "Syria", "iso3": "SYR", "source": "HOTOSM/OSM", "latitude": 36.474182, "longitude": 37.681692 }, "geometry": { "type": "Point", "coordinates": [ 37.6816919, 36.4741816 ] } },
{ "type": "Feature", "properties": { "osm_id": 5675638322, "name": "عارف", "amenity": "school", "building": null, "operator": "", "capacity": "", "addr_city": "", "country": "Syria", "iso3": "SYR", "source": "HOTOSM/OSM", "latitude": 36.633053, "longitude": 36.819232 }, "geometry": { "type": "Point", "coordinates": [ 36.8192324, 36.6330532 ] } },
{ "type": "Feature", "properties": { "osm_id": 10060652579, "name": "مدرسة عصام النادري", "amenity": "school", "building": null, "operator": "", "capacity": "", "addr_city": "", "country": "Syria", "iso3": "SYR", "source": "HOTOSM/OSM", "latitude": 36.213426, "longitude": 37.189968 }, "geometry": { "type": "Point", "coordinates": [ 37.1899683, 36.2134257 ] } },
{ "type": "Feature", "properties": { "osm_id": 4863691827, "name": "مدرسة الريفية", "amenity": "school", "building": null, "operator": "", "capacity": "", "addr_city": "", "country": "Syria", "iso3": "SYR", "source": "HOTOSM/OSM", "latitude": 36.892552, "longitude": 38.355618 }, "geometry": { "type": "Point", "coordinates": [ 38.3556177, 36.8925522 ] } },
{ "type": "Feature", "properties": { "osm_id": 4863691726, "name": "مدرسة الصناعة", "amenity": "school", "building": null, "operator": "", "capacity": "", "addr_city": "", "country": "Syria", "iso3": "SYR", "source": "HOTOSM/OSM", "latitude": 36.892954, "longitude": 38.355904 }, "geometry": { "type": "Point", "coordinates": [ 38.3559042, 36.8929544 ] } },
{ "type": "Feature", "properties": { "osm_id": 947398136, "name": "", "amenity": "school", "building": null, "operator": "", "capacity": "", "addr_city": "", "country": "Syria", "iso3": "SYR", "source": "HOTOSM/OSM", "latitude": 35.923782, "longitude": 35.991147 }, "geometry": { "type": "Point", "coordinates": [ 35.9911475, 35.9237821 ] } },
{ "type": "Feature", "properties": { "osm_id": 7214581385, "name": "مدرسة الشهيد عدنان محمود بكرو", "amenity": "school", "building": null, "operator": "", "capacity": "", "addr_city": "", "country": "Syria", "iso3": "SYR", "source": "HOTOSM/OSM", "latitude": 36.239678, "longitude": 37.086133 }, "geometry": { "type": "Point", "coordinates": [ 37.0861327, 36.239678 ] } },
{ "type": "Feature", "properties": { "osm_id": 10060777947, "name": "مدرسة أحمد شاهين", "amenity": "school", "building": null, "operator": "", "capacity": "", "addr_city": "", "country": "Syria", "iso3": "SYR", "source": "HOTOSM/OSM", "latitude": 36.182997, "longitude": 37.113013 }, "geometry": { "type": "Point", "coordinates": [ 37.113013, 36.1829971 ] } },
{ "type": "Feature", "properties": { "osm_id": 10069950304, "name": "مدرسة أبو أيوب الإنصاري", "amenity": "school", "building": null, "operator": "", "capacity": "", "addr_city": "", "country": "Syria", "iso3": "SYR", "source": "HOTOSM/OSM", "latitude": 36.184169, "longitude": 37.132934 }, "geometry": { "type": "Point", "coordinates": [ 37.1329335, 36.1841692 ] } },
{ "type": "Feature", "properties": { "osm_id": 4550332399, "name": "ميخائيل كشور", "amenity": "school", "building": null, "operator": "", "capacity": "", "addr_city": "", "country": "Syria", "iso3": "SYR", "source": "HOTOSM/OSM", "latitude": 36.214438, "longitude": 37.159388 }, "geometry": { "type": "Point", "coordinates": [ 37.1593884, 36.2144375 ] } },
{ "type": "Feature", "properties": { "osm_id": 6656884485, "name": "مدرسة حطين", "amenity": "school", "building": null, "operator": "", "capacity": "", "addr_city": "", "country": "Syria", "iso3": "SYR", "source": "HOTOSM/OSM", "latitude": 36.326604, "longitude": 36.867126 }, "geometry": { "type": "Point", "coordinates": [ 36.8671258, 36.3266037 ] } },
{ "type": "Feature", "properties": { "osm_id": 10060769007, "name": "مدرسة كرم النزهة", "amenity": "school", "building": null, "operator": "", "capacity": "", "addr_city": "", "country": "Syria", "iso3": "SYR", "source": "HOTOSM/OSM", "latitude": 36.171908, "longitude": 37.149997 }, "geometry": { "type": "Point", "coordinates": [ 37.1499969, 36.1719079 ] } },
{ "type": "Feature", "properties": { "osm_id": 10074622163, "name": "جامع الزعيم", "amenity": "school", "building": null, "operator": "", "capacity": "", "addr_city": "", "country": "Syria", "iso3": "SYR", "source": "HOTOSM/OSM", "latitude": 36.218166, "longitude": 37.11068 }, "geometry": { "type": "Point", "coordinates": [ 37.1106804, 36.2181664 ] } },
{ "type": "Feature", "properties": { "osm_id": 2440165242, "name": "المدرسة الوطنية بحلب الخاصة", "amenity": "school", "building": null, "operator": "", "capacity": "", "addr_city": "", "country": "Syria", "iso3": "SYR", "source": "HOTOSM/OSM", "latitude": 36.217505, "longitude": 37.112873 }, "geometry": { "type": "Point", "coordinates": [ 37.1128727, 36.2175052 ] } },