{
"type": "FeatureCollection",
"name": "TCD_schools",
"crs": { "type": "name", "properties": { "name": "urn:ogc:def:crs:OGC:1.3:CRS84" } },
"features": [
{ "type": "Feature", "properties": { "osm_id": 10748311505, "name": "École Officielle \" LA LEPROSERIE\"", "amenity": "school", "building": null, "operator": "", "capacity": "", "addr_city": "", "country": "Chad", "iso3": "TCD", "source": "HOTOSM/OSM", "latitude": 12.098945, "longitude": 15.113028 }, "geometry": { "type": "Point", "coordinates": [ 15.1130281, 12.0989453 ] } },
{ "type": "Feature", "properties": { "osm_id": 10748184007, "name": "Lycée Royal", "amenity": "school", "building": null, "operator": "", "capacity": "", "addr_city": "", "country": "Chad", "iso3": "TCD", "source": "HOTOSM/OSM", "latitude": 12.097844, "longitude": 15.104673 }, "geometry": { "type": "Point", "coordinates": [ 15.1046728, 12.0978443 ] } },
{ "type": "Feature", "properties": { "osm_id": 10744928805, "name": "Institut Polytechnique KOUDORI GUIZINE/ Centre Formation des Agents Socio-Sanitaires (CFASS)", "amenity": "school", "building": null, "operator": "", "capacity": "", "addr_city": "", "country": "Chad", "iso3": "TCD", "source": "HOTOSM/OSM", "latitude": 12.099234, "longitude": 15.102136 }, "geometry": { "type": "Point", "coordinates": [ 15.1021356, 12.0992337 ] } },
{ "type": "Feature", "properties": { "osm_id": 10744928806, "name": "Établissements Privés Franco-anglais \"La Lumière \" d'Abena", "amenity": "school", "building": null, "operator": "", "capacity": "", "addr_city": "", "country": "Chad", "iso3": "TCD", "source": "HOTOSM/OSM", "latitude": 12.100245, "longitude": 15.102222 }, "geometry": { "type": "Point", "coordinates": [ 15.1022215, 12.1002447 ] } },
{ "type": "Feature", "properties": { "osm_id": 2175871191, "name": "Ecole de Belom I", "amenity": "school", "building": null, "operator": "", "capacity": "", "addr_city": "", "country": "Chad", "iso3": "TCD", "source": "HOTOSM/OSM", "latitude": 8.451622, "longitude": 18.754397 }, "geometry": { "type": "Point", "coordinates": [ 18.754397, 8.4516218 ] } },
{ "type": "Feature", "properties": { "osm_id": 4308427727, "name": "Koulkime", "amenity": "school", "building": null, "operator": "", "capacity": "", "addr_city": "", "country": "Chad", "iso3": "TCD", "source": "HOTOSM/OSM", "latitude": 13.492367, "longitude": 14.469867 }, "geometry": { "type": "Point", "coordinates": [ 14.4698667, 13.4923667 ] } },
{ "type": "Feature", "properties": { "osm_id": 4308427732, "name": "Maya", "amenity": "school", "building": null, "operator": "", "capacity": "", "addr_city": "", "country": "Chad", "iso3": "TCD", "source": "HOTOSM/OSM", "latitude": 13.640217, "longitude": 14.7127 }, "geometry": { "type": "Point", "coordinates": [ 14.7127, 13.6402167 ] } },
{ "type": "Feature", "properties": { "osm_id": 10748296405, "name": "Ecole Intérnationale de Formation en Santé ( EIFS)", "amenity": "school", "building": null, "operator": "", "capacity": "", "addr_city": "", "country": "Chad", "iso3": "TCD", "source": "HOTOSM/OSM", "latitude": 12.100955, "longitude": 15.11017 }, "geometry": { "type": "Point", "coordinates": [ 15.1101701, 12.100955 ] } },
{ "type": "Feature", "properties": { "osm_id": 4309167349, "name": "Ecole", "amenity": "school", "building": null, "operator": "", "capacity": "", "addr_city": "", "country": "Chad", "iso3": "TCD", "source": "HOTOSM/OSM", "latitude": 13.583306, "longitude": 14.465272 }, "geometry": { "type": "Point", "coordinates": [ 14.4652715, 13.5833058 ] } },
{ "type": "Feature", "properties": { "osm_id": 4308427735, "name": "Sodelac", "amenity": "school", "building": null, "operator": "", "capacity": "", "addr_city": "", "country": "Chad", "iso3": "TCD", "source": "HOTOSM/OSM", "latitude": 13.536625, "longitude": 14.321255 }, "geometry": { "type": "Point", "coordinates": [ 14.3212552, 13.5366254 ] } },
{ "type": "Feature", "properties": { "osm_id": 4309167341, "name": "Ecole", "amenity": "school", "building": null, "operator": "", "capacity": "", "addr_city": "", "country": "Chad", "iso3": "TCD", "source": "HOTOSM/OSM", "latitude": 13.547312, "longitude": 14.480219 }, "geometry": { "type": "Point", "coordinates": [ 14.4802189, 13.5473118 ] } },
{ "type": "Feature", "properties": { "osm_id": 4309167340, "name": "Ecole", "amenity": "school", "building": null, "operator": "", "capacity": "", "addr_city": "", "country": "Chad", "iso3": "TCD", "source": "HOTOSM/OSM", "latitude": 13.537807, "longitude": 14.488035 }, "geometry": { "type": "Point", "coordinates": [ 14.4880348, 13.5378065 ] } },
{ "type": "Feature", "properties": { "osm_id": 4308703658, "name": "Ecole", "amenity": "school", "building": null, "operator": "", "capacity": "", "addr_city": "", "country": "Chad", "iso3": "TCD", "source": "HOTOSM/OSM", "latitude": 13.538284, "longitude": 14.683404 }, "geometry": { "type": "Point", "coordinates": [ 14.6834042, 13.538284 ] } },
{ "type": "Feature", "properties": { "osm_id": 4308427737, "name": "Yakoua", "amenity": "school", "building": null, "operator": "", "capacity": "", "addr_city": "", "country": "Chad", "iso3": "TCD", "source": "HOTOSM/OSM", "latitude": 13.41915, "longitude": 14.7428 }, "geometry": { "type": "Point", "coordinates": [ 14.7428, 13.41915 ] } },
{ "type": "Feature", "properties": { "osm_id": 4308427728, "name": "Kousseri", "amenity": "school", "building": null, "operator": "", "capacity": "", "addr_city": "", "country": "Chad", "iso3": "TCD", "source": "HOTOSM/OSM", "latitude": 13.53315, "longitude": 14.302433 }, "geometry": { "type": "Point", "coordinates": [ 14.3024333, 13.53315 ] } },
{ "type": "Feature", "properties": { "osm_id": 10894807607, "name": "مدرسة مسترى بنين", "amenity": "college", "building": null, "operator": "", "capacity": "", "addr_city": "", "country": "Chad", "iso3": "TCD", "source": "HOTOSM/OSM", "latitude": 13.126532, "longitude": 22.186641 }, "geometry": { "type": "Point", "coordinates": [ 22.1866406, 13.1265316 ] } },
{ "type": "Feature", "properties": { "osm_id": 10894807608, "name": "ثانوية بنات Girls High School", "amenity": "college", "building": null, "operator": "", "capacity": "", "addr_city": "", "country": "Chad", "iso3": "TCD", "source": "HOTOSM/OSM", "latitude": 13.127028, "longitude": 22.188065 }, "geometry": { "type": "Point", "coordinates": [ 22.1880649, 13.1270279 ] } },
{ "type": "Feature", "properties": { "osm_id": 4308427722, "name": "دار النعيم Dar naim", "amenity": "school", "building": null, "operator": "", "capacity": "", "addr_city": "", "country": "Chad", "iso3": "TCD", "source": "HOTOSM/OSM", "latitude": 13.636433, "longitude": 14.314883 }, "geometry": { "type": "Point", "coordinates": [ 14.3148833, 13.6364333 ] } },
{ "type": "Feature", "properties": { "osm_id": 4308427736, "name": "Watani", "amenity": "school", "building": null, "operator": "", "capacity": "", "addr_city": "", "country": "Chad", "iso3": "TCD", "source": "HOTOSM/OSM", "latitude": 13.677167, "longitude": 14.327 }, "geometry": { "type": "Point", "coordinates": [ 14.327, 13.6771667 ] } },
{ "type": "Feature", "properties": { "osm_id": 4109108390, "name": "دوار المحطة الثانية;École primaire Arabe Achabia", "amenity": "school", "building": null, "operator": "", "capacity": "", "addr_city": "", "country": "Chad", "iso3": "TCD", "source": "HOTOSM/OSM", "latitude": 12.128199, "longitude": 15.062195 }, "geometry": { "type": "Point", "coordinates": [ 15.0621945, 12.1281987 ] } },
{ "type": "Feature", "properties": { "osm_id": 5236170121, "name": "المدرسة العليا للعلوم الحاسوب والإلكترونيات", "amenity": "school", "building": null, "operator": "", "capacity": "", "addr_city": "", "country": "Chad", "iso3": "TCD", "source": "HOTOSM/OSM", "latitude": 12.09478, "longitude": 15.072244 }, "geometry": { "type": "Point", "coordinates": [ 15.0722444, 12.09478 ] } },
{ "type": "Feature", "properties": { "osm_id": 2622403825, "name": "Al Afrah (École du Jardin )", "amenity": "school", "building": null, "operator": "", "capacity": "", "addr_city": "", "country": "Chad", "iso3": "TCD", "source": "HOTOSM/OSM", "latitude": 12.122856, "longitude": 15.052619 }, "geometry": { "type": "Point", "coordinates": [ 15.0526194, 12.1228562 ] } },
{ "type": "Feature", "properties": { "osm_id": 9734697092, "name": "Ecole Biblique de Bongor", "amenity": "school", "building": null, "operator": "", "capacity": "", "addr_city": "", "country": "Chad", "iso3": "TCD", "source": "HOTOSM/OSM", "latitude": 10.27815, "longitude": 15.374166 }, "geometry": { "type": "Point", "coordinates": [ 15.3741659, 10.2781499 ] } },
{ "type": "Feature", "properties": { "osm_id": 262213421, "name": "مدرسة أوزو كارا", "amenity": "school", "building": null, "operator": "", "capacity": "", "addr_city": "", "country": "Chad", "iso3": "TCD", "source": "HOTOSM/OSM", "latitude": 21.817147, "longitude": 17.426247 }, "geometry": { "type": "Point", "coordinates": [ 17.4262475, 21.8171469 ] } },
{ "type": "Feature", "properties": { "osm_id": 6948381285, "name": "Universite ADAM BARKA d'Abeche", "amenity": "college", "building": null, "operator": "", "capacity": "", "addr_city": "", "country": "Chad", "iso3": "TCD", "source": "HOTOSM/OSM", "latitude": 13.82311, "longitude": 20.806772 }, "geometry": { "type": "Point", "coordinates": [ 20.8067724, 13.8231096 ] } },
{ "type": "Feature", "properties": { "osm_id": 5618555167, "name": "College Donzonga كلية دونزونقا", "amenity": "college", "building": null, "operator": "", "capacity": "", "addr_city": "", "country": "Chad", "iso3": "TCD", "source": "HOTOSM/OSM", "latitude": 17.945869, "longitude": 19.116271 }, "geometry": { "type": "Point", "coordinates": [ 19.116271, 17.9458689 ] } },
{ "type": "Feature", "properties": { "osm_id": 5618555179, "name": "Lycée Martyre مدرسة الشهداء الثانوية", "amenity": "college", "building": null, "operator": "", "capacity": "", "addr_city": "", "country": "Chad", "iso3": "TCD", "source": "HOTOSM/OSM", "latitude": 17.919693, "longitude": 19.098094 }, "geometry": { "type": "Point", "coordinates": [ 19.0980937, 17.9196927 ] } },
{ "type": "Feature", "properties": { "osm_id": 12350320888, "name": "ISFOP", "amenity": "college", "building": null, "operator": "", "capacity": "", "addr_city": "", "country": "Chad", "iso3": "TCD", "source": "HOTOSM/OSM", "latitude": 12.094547, "longitude": 15.063198 }, "geometry": { "type": "Point", "coordinates": [ 15.0631979, 12.0945475 ] } },
{ "type": "Feature", "properties": { "osm_id": 4146092104, "name": "Jardin d'enfants les papillons روضة الفراشات", "amenity": "school", "building": null, "operator": "", "capacity": "", "addr_city": "", "country": "Chad", "iso3": "TCD", "source": "HOTOSM/OSM", "latitude": 12.073056, "longitude": 15.098083 }, "geometry": { "type": "Point", "coordinates": [ 15.0980828, 12.0730565 ] } },
{ "type": "Feature", "properties": { "osm_id": 5617381389, "name": "Lycée de Gassi مدرسة غاسي الثانوية", "amenity": "school", "building": null, "operator": "", "capacity": "", "addr_city": "", "country": "Chad", "iso3": "TCD", "source": "HOTOSM/OSM", "latitude": 12.085817, "longitude": 15.14116 }, "geometry": { "type": "Point", "coordinates": [ 15.1411597, 12.0858175 ] } },
{ "type": "Feature", "properties": { "osm_id": 4543040896, "name": "Lycée et CEG de walia مدرسة ثانوية وكلية التربية العامة واليا", "amenity": "school", "building": null, "operator": "", "capacity": "", "addr_city": "", "country": "Chad", "iso3": "TCD", "source": "HOTOSM/OSM", "latitude": 12.068235, "longitude": 15.101113 }, "geometry": { "type": "Point", "coordinates": [ 15.1011126, 12.0682346 ] } },
{ "type": "Feature", "properties": { "osm_id": 5609678625, "name": "École Catholique Associée Saint-François d'Assise", "amenity": "school", "building": null, "operator": "", "capacity": "", "addr_city": "", "country": "Chad", "iso3": "TCD", "source": "HOTOSM/OSM", "latitude": 12.106159, "longitude": 15.055283 }, "geometry": { "type": "Point", "coordinates": [ 15.0552834, 12.1061591 ] } },
{ "type": "Feature", "properties": { "osm_id": 5594258179, "name": "lycée d'Amtoukoui", "amenity": "school", "building": null, "operator": "", "capacity": "", "addr_city": "", "country": "Chad", "iso3": "TCD", "source": "HOTOSM/OSM", "latitude": 12.11554, "longitude": 15.102854 }, "geometry": { "type": "Point", "coordinates": [ 15.1028538, 12.1155403 ] } },
{ "type": "Feature", "properties": { "osm_id": 2213095088, "name": "Ecole de Gadjira Foi et Joie n°1 / مدرسة جزيرة الإيمان والفرح رقم 1", "amenity": "school", "building": null, "operator": "", "capacity": "", "addr_city": "", "country": "Chad", "iso3": "TCD", "source": "HOTOSM/OSM", "latitude": 12.170058, "longitude": 18.666964 }, "geometry": { "type": "Point", "coordinates": [ 18.6669638, 12.1700578 ] } },
{ "type": "Feature", "properties": { "osm_id": 2595365387, "name": "مدرسة أبيشي العربية الفرنسية", "amenity": "school", "building": null, "operator": "", "capacity": "", "addr_city": "", "country": "Chad", "iso3": "TCD", "source": "HOTOSM/OSM", "latitude": 13.828701, "longitude": 20.821929 }, "geometry": { "type": "Point", "coordinates": [ 20.8219287, 13.8287008 ] } },
{ "type": "Feature", "properties": { "osm_id": 7313127886, "name": "الصقور", "amenity": "school", "building": null, "operator": "", "capacity": "", "addr_city": "", "country": "Chad", "iso3": "TCD", "source": "HOTOSM/OSM", "latitude": 12.122897, "longitude": 15.046189 }, "geometry": { "type": "Point", "coordinates": [ 15.046189, 12.1228973 ] } },
{ "type": "Feature", "properties": { "osm_id": 3244752182, "name": "Jardin d'enfants SOS روضة أطفال إس أو إس", "amenity": "kindergarten", "building": null, "operator": "", "capacity": "", "addr_city": "", "country": "Chad", "iso3": "TCD", "source": "HOTOSM/OSM", "latitude": 12.118976, "longitude": 15.094132 }, "geometry": { "type": "Point", "coordinates": [ 15.0941317, 12.1189763 ] } },
{ "type": "Feature", "properties": { "osm_id": 7864963885, "name": "INJS", "amenity": "school", "building": null, "operator": "", "capacity": "", "addr_city": "", "country": "Chad", "iso3": "TCD", "source": "HOTOSM/OSM", "latitude": 12.101425, "longitude": 15.061569 }, "geometry": { "type": "Point", "coordinates": [ 15.061569, 12.1014247 ] } },
{ "type": "Feature", "properties": { "osm_id": 11795520955, "name": "NRC Scool", "amenity": "school", "building": null, "operator": "", "capacity": "", "addr_city": "", "country": "Chad", "iso3": "TCD", "source": "HOTOSM/OSM", "latitude": 13.19671, "longitude": 21.933532 }, "geometry": { "type": "Point", "coordinates": [ 21.9335315, 13.1967104 ] } },
{ "type": "Feature", "properties": { "osm_id": 11829942969, "name": "", "amenity": "school", "building": null, "operator": "", "capacity": "", "addr_city": "", "country": "Chad", "iso3": "TCD", "source": "HOTOSM/OSM", "latitude": 11.960332, "longitude": 15.437934 }, "geometry": { "type": "Point", "coordinates": [ 15.437934, 11.9603325 ] } },
{ "type": "Feature", "properties": { "osm_id": 2163801484, "name": "Lycée Thilam Thilam", "amenity": "school", "building": null, "operator": "", "capacity": "", "addr_city": "", "country": "Chad", "iso3": "TCD", "source": "HOTOSM/OSM", "latitude": 12.138539, "longitude": 15.054143 }, "geometry": { "type": "Point", "coordinates": [ 15.0541433, 12.1385387 ] } },
{ "type": "Feature", "properties": { "osm_id": 11795693269, "name": "CEG DE GUINDI", "amenity": "school", "building": null, "operator": "", "capacity": "", "addr_city": "", "country": "Chad", "iso3": "TCD", "source": "HOTOSM/OSM", "latitude": 9.453843, "longitude": 14.923602 }, "geometry": { "type": "Point", "coordinates": [ 14.9236021, 9.4538426 ] } },
{ "type": "Feature", "properties": { "osm_id": 2828980920, "name": "Ecole Bembere", "amenity": "school", "building": null, "operator": "", "capacity": "", "addr_city": "", "country": "Chad", "iso3": "TCD", "source": "HOTOSM/OSM", "latitude": 7.672939, "longitude": 16.646525 }, "geometry": { "type": "Point", "coordinates": [ 16.6465252, 7.6729391 ] } },
{ "type": "Feature", "properties": { "osm_id": 2829021833, "name": "Ecole Mixte de Badama", "amenity": "school", "building": null, "operator": "", "capacity": "", "addr_city": "", "country": "Chad", "iso3": "TCD", "source": "HOTOSM/OSM", "latitude": 7.6158, "longitude": 16.9611 }, "geometry": { "type": "Point", "coordinates": [ 16.9611, 7.6158 ] } },
{ "type": "Feature", "properties": { "osm_id": 2829021831, "name": "Complexe Scolaire Na kota nguia", "amenity": "school", "building": null, "operator": "", "capacity": "", "addr_city": "", "country": "Chad", "iso3": "TCD", "source": "HOTOSM/OSM", "latitude": 7.616364, "longitude": 16.958956 }, "geometry": { "type": "Point", "coordinates": [ 16.9589565, 7.6163643 ] } },
{ "type": "Feature", "properties": { "osm_id": 2828942633, "name": "Ecole Bembo", "amenity": "school", "building": null, "operator": "", "capacity": "", "addr_city": "", "country": "Chad", "iso3": "TCD", "source": "HOTOSM/OSM", "latitude": 7.750672, "longitude": 16.488893 }, "geometry": { "type": "Point", "coordinates": [ 16.4888926, 7.7506715 ] } },
{ "type": "Feature", "properties": { "osm_id": 2828945691, "name": "École de Bébingui", "amenity": "school", "building": null, "operator": "", "capacity": "", "addr_city": "", "country": "Chad", "iso3": "TCD", "source": "HOTOSM/OSM", "latitude": 7.815673, "longitude": 16.525776 }, "geometry": { "type": "Point", "coordinates": [ 16.5257757, 7.8156735 ] } },
{ "type": "Feature", "properties": { "osm_id": 2828917421, "name": "École de Begouladje 1", "amenity": "school", "building": null, "operator": "", "capacity": "", "addr_city": "", "country": "Chad", "iso3": "TCD", "source": "HOTOSM/OSM", "latitude": 7.699984, "longitude": 16.444427 }, "geometry": { "type": "Point", "coordinates": [ 16.4444271, 7.6999842 ] } },
{ "type": "Feature", "properties": { "osm_id": 2829021832, "name": "Ecole Boubou", "amenity": "school", "building": null, "operator": "", "capacity": "", "addr_city": "", "country": "Chad", "iso3": "TCD", "source": "HOTOSM/OSM", "latitude": 7.621513, "longitude": 16.960247 }, "geometry": { "type": "Point", "coordinates": [ 16.9602465, 7.6215133 ] } },
{ "type": "Feature", "properties": { "osm_id": 3244484674, "name": "Collège UNESCO كلية اليونسكو", "amenity": "college", "building": null, "operator": "", "capacity": "", "addr_city": "", "country": "Chad", "iso3": "TCD", "source": "HOTOSM/OSM", "latitude": 12.119191, "longitude": 15.101654 }, "geometry": { "type": "Point", "coordinates": [ 15.1016544, 12.1191911 ] } },
{ "type": "Feature", "properties": { "osm_id": 11761116969, "name": "CEG de Guindi", "amenity": "school", "building": null, "operator": "", "capacity": "", "addr_city": "", "country": "Chad", "iso3": "TCD", "source": "HOTOSM/OSM", "latitude": 9.453981, "longitude": 14.924044 }, "geometry": { "type": "Point", "coordinates": [ 14.924044, 9.453981 ] } },
{ "type": "Feature", "properties": { "osm_id": 5259583821, "name": "École Nôtre Dame des Apotres", "amenity": "school", "building": null, "operator": "", "capacity": "", "addr_city": "", "country": "Chad", "iso3": "TCD", "source": "HOTOSM/OSM", "latitude": 12.093483, "longitude": 15.079437 }, "geometry": { "type": "Point", "coordinates": [ 15.0794371, 12.0934825 ] } },
{ "type": "Feature", "properties": { "osm_id": 5174504308, "name": "Ecole primaire d'Ardo", "amenity": "school", "building": null, "operator": "", "capacity": "", "addr_city": "", "country": "Chad", "iso3": "TCD", "source": "HOTOSM/OSM", "latitude": 11.384212, "longitude": 20.515911 }, "geometry": { "type": "Point", "coordinates": [ 20.5159111, 11.3842116 ] } },
{ "type": "Feature", "properties": { "osm_id": 2611524336, "name": "Lycée Colege amitie", "amenity": "school", "building": null, "operator": "", "capacity": "", "addr_city": "", "country": "Chad", "iso3": "TCD", "source": "HOTOSM/OSM", "latitude": 8.58403, "longitude": 16.085622 }, "geometry": { "type": "Point", "coordinates": [ 16.0856222, 8.5840302 ] } },
{ "type": "Feature", "properties": { "osm_id": 7038585110, "name": "مدرسة الإخلاص", "amenity": "school", "building": null, "operator": "", "capacity": "", "addr_city": "", "country": "Chad", "iso3": "TCD", "source": "HOTOSM/OSM", "latitude": 12.136336, "longitude": 15.051874 }, "geometry": { "type": "Point", "coordinates": [ 15.0518744, 12.1363356 ] } },
{ "type": "Feature", "properties": { "osm_id": 3191590898, "name": "المدرسة العليا للعلوم الحاسوب والإلكترونيات", "amenity": "college", "building": null, "operator": "", "capacity": "", "addr_city": "", "country": "Chad", "iso3": "TCD", "source": "HOTOSM/OSM", "latitude": 12.094795, "longitude": 15.072231 }, "geometry": { "type": "Point", "coordinates": [ 15.0722311, 12.0947951 ] } },
{ "type": "Feature", "properties": { "osm_id": 4382404492, "name": "زيد بن ثابت", "amenity": "school", "building": null, "operator": "", "capacity": "", "addr_city": "", "country": "Chad", "iso3": "TCD", "source": "HOTOSM/OSM", "latitude": 12.136252, "longitude": 15.07897 }, "geometry": { "type": "Point", "coordinates": [ 15.0789697, 12.1362515 ] } },
{ "type": "Feature", "properties": { "osm_id": 2588802354, "name": "Lycée féminin d'Amriguebé مدرسة الليسيه الإناث أمريغيب", "amenity": "school", "building": null, "operator": "", "capacity": "", "addr_city": "", "country": "Chad", "iso3": "TCD", "source": "HOTOSM/OSM", "latitude": 12.119221, "longitude": 15.071935 }, "geometry": { "type": "Point", "coordinates": [ 15.0719346, 12.119221 ] } },
{ "type": "Feature", "properties": { "osm_id": 4382435189, "name": "زيد بن ثابت", "amenity": "school", "building": null, "operator": "", "capacity": "", "addr_city": "", "country": "Chad", "iso3": "TCD", "source": "HOTOSM/OSM", "latitude": 12.135965, "longitude": 15.078966 }, "geometry": { "type": "Point", "coordinates": [ 15.078966, 12.1359654 ] } },
{ "type": "Feature", "properties": { "osm_id": 2656221740, "name": "مدرسة عالية الوفاق Lycée de la Concorde", "amenity": "school", "building": null, "operator": "", "capacity": "", "addr_city": "", "country": "Chad", "iso3": "TCD", "source": "HOTOSM/OSM", "latitude": 12.102917, "longitude": 15.04948 }, "geometry": { "type": "Point", "coordinates": [ 15.0494804, 12.102917 ] } },
{ "type": "Feature", "properties": { "osm_id": 4543071691, "name": "Lycée de guelendeng مدرسة الثانوية غيلندنك", "amenity": "school", "building": null, "operator": "", "capacity": "", "addr_city": "", "country": "Chad", "iso3": "TCD", "source": "HOTOSM/OSM", "latitude": 10.928228, "longitude": 15.535998 }, "geometry": { "type": "Point", "coordinates": [ 15.5359978, 10.9282281 ] } },
{ "type": "Feature", "properties": { "osm_id": 2656235761, "name": "Lycée de la Paix", "amenity": "school", "building": null, "operator": "", "capacity": "", "addr_city": "", "country": "Chad", "iso3": "TCD", "source": "HOTOSM/OSM", "latitude": 12.128952, "longitude": 15.041696 }, "geometry": { "type": "Point", "coordinates": [ 15.0416957, 12.1289523 ] } },
{ "type": "Feature", "properties": { "osm_id": 11176429838, "name": "Ecole Abou Hourayra", "amenity": "college", "building": null, "operator": "", "capacity": "", "addr_city": "", "country": "Chad", "iso3": "TCD", "source": "HOTOSM/OSM", "latitude": 12.126067, "longitude": 14.961408 }, "geometry": { "type": "Point", "coordinates": [ 14.9614078, 12.1260668 ] } },
{ "type": "Feature", "properties": { "osm_id": 11176434237, "name": "Complexe Abou Hourayra", "amenity": "college", "building": null, "operator": "", "capacity": "", "addr_city": "", "country": "Chad", "iso3": "TCD", "source": "HOTOSM/OSM", "latitude": 12.124094, "longitude": 14.956767 }, "geometry": { "type": "Point", "coordinates": [ 14.9567668, 12.124094 ] } },
{ "type": "Feature", "properties": { "osm_id": 2064879741, "name": "كلية الإنجيلية الإخوان غوري Collège Evangélique La Fraternité de Goré", "amenity": "school", "building": null, "operator": "", "capacity": "", "addr_city": "", "country": "Chad", "iso3": "TCD", "source": "HOTOSM/OSM", "latitude": 7.937138, "longitude": 16.636215 }, "geometry": { "type": "Point", "coordinates": [ 16.636215, 7.9371377 ] } },
{ "type": "Feature", "properties": { "osm_id": 4309193409, "name": "Dar Es Salam دار السلام", "amenity": "school", "building": null, "operator": "", "capacity": "", "addr_city": "", "country": "Chad", "iso3": "TCD", "source": "HOTOSM/OSM", "latitude": 13.62455, "longitude": 14.297202 }, "geometry": { "type": "Point", "coordinates": [ 14.2972016, 13.6245498 ] } },
{ "type": "Feature", "properties": { "osm_id": 7617784592, "name": "École Ousmane Ibn Affane", "amenity": "school", "building": null, "operator": "", "capacity": "", "addr_city": "", "country": "Chad", "iso3": "TCD", "source": "HOTOSM/OSM", "latitude": 11.053659, "longitude": 20.285262 }, "geometry": { "type": "Point", "coordinates": [ 20.2852624, 11.0536592 ] } },
{ "type": "Feature", "properties": { "osm_id": 4116302100, "name": "Ecole Montaigne", "amenity": "school", "building": null, "operator": "", "capacity": "", "addr_city": "", "country": "Chad", "iso3": "TCD", "source": "HOTOSM/OSM", "latitude": 12.119568, "longitude": 15.038384 }, "geometry": { "type": "Point", "coordinates": [ 15.0383843, 12.1195683 ] } },
{ "type": "Feature", "properties": { "osm_id": 7611280285, "name": "École Pilote", "amenity": "school", "building": null, "operator": "", "capacity": "", "addr_city": "", "country": "Chad", "iso3": "TCD", "source": "HOTOSM/OSM", "latitude": 11.036, "longitude": 20.287548 }, "geometry": { "type": "Point", "coordinates": [ 20.2875476, 11.0360003 ] } },
{ "type": "Feature", "properties": { "osm_id": 7611269287, "name": "École Régionale", "amenity": "school", "building": null, "operator": "", "capacity": "", "addr_city": "", "country": "Chad", "iso3": "TCD", "source": "HOTOSM/OSM", "latitude": 11.042931, "longitude": 20.28636 }, "geometry": { "type": "Point", "coordinates": [ 20.2863601, 11.0429307 ] } },
{ "type": "Feature", "properties": { "osm_id": 7611280686, "name": "École Communale", "amenity": "school", "building": null, "operator": "", "capacity": "", "addr_city": "", "country": "Chad", "iso3": "TCD", "source": "HOTOSM/OSM", "latitude": 11.044447, "longitude": 20.280144 }, "geometry": { "type": "Point", "coordinates": [ 20.2801443, 11.0444467 ] } },
{ "type": "Feature", "properties": { "osm_id": 4565143489, "name": "Kindjiria", "amenity": "school", "building": null, "operator": "", "capacity": "", "addr_city": "", "country": "Chad", "iso3": "TCD", "source": "HOTOSM/OSM", "latitude": 13.571004, "longitude": 15.404404 }, "geometry": { "type": "Point", "coordinates": [ 15.4044043, 13.5710038 ] } },
{ "type": "Feature", "properties": { "osm_id": 2589310255, "name": "Ecole Catholique Associée(Beguinage)", "amenity": "school", "building": null, "operator": "", "capacity": "", "addr_city": "", "country": "Chad", "iso3": "TCD", "source": "HOTOSM/OSM", "latitude": 12.11653, "longitude": 15.037951 }, "geometry": { "type": "Point", "coordinates": [ 15.0379505, 12.1165299 ] } },
{ "type": "Feature", "properties": { "osm_id": 4543042691, "name": "", "amenity": "school", "building": null, "operator": "", "capacity": "", "addr_city": "", "country": "Chad", "iso3": "TCD", "source": "HOTOSM/OSM", "latitude": 10.543783, "longitude": 15.578071 }, "geometry": { "type": "Point", "coordinates": [ 15.5780711, 10.5437828 ] } },
{ "type": "Feature", "properties": { "osm_id": 7611280286, "name": "Lycée et CEG bilingues", "amenity": "college", "building": null, "operator": "", "capacity": "", "addr_city": "", "country": "Chad", "iso3": "TCD", "source": "HOTOSM/OSM", "latitude": 11.040942, "longitude": 20.289951 }, "geometry": { "type": "Point", "coordinates": [ 20.289951, 11.0409416 ] } },
{ "type": "Feature", "properties": { "osm_id": 7611269288, "name": "CEG Agro-Pastoral", "amenity": "college", "building": null, "operator": "", "capacity": "", "addr_city": "", "country": "Chad", "iso3": "TCD", "source": "HOTOSM/OSM", "latitude": 11.040113, "longitude": 20.290824 }, "geometry": { "type": "Point", "coordinates": [ 20.290824, 11.0401131 ] } },
{ "type": "Feature", "properties": { "osm_id": 7611269289, "name": "Lycée Agro-Pastoral", "amenity": "college", "building": null, "operator": "", "capacity": "", "addr_city": "", "country": "Chad", "iso3": "TCD", "source": "HOTOSM/OSM", "latitude": 11.039307, "longitude": 20.291923 }, "geometry": { "type": "Point", "coordinates": [ 20.2919229, 11.0393075 ] } },
{ "type": "Feature", "properties": { "osm_id": 6646424786, "name": "École de centre À", "amenity": "school", "building": null, "operator": "", "capacity": "", "addr_city": "", "country": "Chad", "iso3": "TCD", "source": "HOTOSM/OSM", "latitude": 17.935635, "longitude": 19.111187 }, "geometry": { "type": "Point", "coordinates": [ 19.1111868, 17.9356348 ] } },
{ "type": "Feature", "properties": { "osm_id": 2611524335, "name": "Ecole Advantist", "amenity": "school", "building": null, "operator": "", "capacity": "", "addr_city": "", "country": "Chad", "iso3": "TCD", "source": "HOTOSM/OSM", "latitude": 8.587234, "longitude": 16.089766 }, "geometry": { "type": "Point", "coordinates": [ 16.0897657, 8.5872342 ] } },
{ "type": "Feature", "properties": { "osm_id": 7604246985, "name": "Lycée moderne d'Am-Timan", "amenity": "college", "building": null, "operator": "", "capacity": "", "addr_city": "", "country": "Chad", "iso3": "TCD", "source": "HOTOSM/OSM", "latitude": 11.06471, "longitude": 20.262014 }, "geometry": { "type": "Point", "coordinates": [ 20.2620141, 11.0647103 ] } },
{ "type": "Feature", "properties": { "osm_id": 5473298921, "name": "Lycée", "amenity": "school", "building": null, "operator": "", "capacity": "", "addr_city": "", "country": "Chad", "iso3": "TCD", "source": "HOTOSM/OSM", "latitude": 13.777887, "longitude": 15.525317 }, "geometry": { "type": "Point", "coordinates": [ 15.5253169, 13.7778874 ] } },
{ "type": "Feature", "properties": { "osm_id": 4308427726, "name": "Ibni Afan", "amenity": "school", "building": null, "operator": "", "capacity": "", "addr_city": "", "country": "Chad", "iso3": "TCD", "source": "HOTOSM/OSM", "latitude": 13.53723, "longitude": 14.310887 }, "geometry": { "type": "Point", "coordinates": [ 14.3108865, 13.5372301 ] } },
{ "type": "Feature", "properties": { "osm_id": 11623209969, "name": "Complexe Scolaire Frère Polycarpe (CSFP)", "amenity": "school", "building": null, "operator": "", "capacity": "", "addr_city": "", "country": "Chad", "iso3": "TCD", "source": "HOTOSM/OSM", "latitude": 12.109215, "longitude": 15.139114 }, "geometry": { "type": "Point", "coordinates": [ 15.1391139, 12.1092152 ] } },
{ "type": "Feature", "properties": { "osm_id": 2123802029, "name": "Ecole Catholique Associée المدرسة الكاثوليكية المرتبطة", "amenity": "school", "building": null, "operator": "", "capacity": "", "addr_city": "", "country": "Chad", "iso3": "TCD", "source": "HOTOSM/OSM", "latitude": 8.147639, "longitude": 16.51802 }, "geometry": { "type": "Point", "coordinates": [ 16.5180199, 8.1476393 ] } },
{ "type": "Feature", "properties": { "osm_id": 4534972089, "name": "", "amenity": "school", "building": null, "operator": "", "capacity": "", "addr_city": "", "country": "Chad", "iso3": "TCD", "source": "HOTOSM/OSM", "latitude": 9.393051, "longitude": 16.294929 }, "geometry": { "type": "Point", "coordinates": [ 16.2949286, 9.3930514 ] } },
{ "type": "Feature", "properties": { "osm_id": 4534972090, "name": "Lycée de Madana", "amenity": "school", "building": null, "operator": "", "capacity": "", "addr_city": "", "country": "Chad", "iso3": "TCD", "source": "HOTOSM/OSM", "latitude": 9.00529, "longitude": 16.659056 }, "geometry": { "type": "Point", "coordinates": [ 16.6590558, 9.0052896 ] } },
{ "type": "Feature", "properties": { "osm_id": 2627026180, "name": "Ecole Rizière de Mbombaya الأرز مدرسة مبمبايا", "amenity": "school", "building": null, "operator": "", "capacity": "", "addr_city": "", "country": "Chad", "iso3": "TCD", "source": "HOTOSM/OSM", "latitude": 8.570881, "longitude": 16.077755 }, "geometry": { "type": "Point", "coordinates": [ 16.0777549, 8.570881 ] } },
{ "type": "Feature", "properties": { "osm_id": 2611524334, "name": "Ecole 15ans", "amenity": "school", "building": null, "operator": "", "capacity": "", "addr_city": "", "country": "Chad", "iso3": "TCD", "source": "HOTOSM/OSM", "latitude": 8.583412, "longitude": 16.083914 }, "geometry": { "type": "Point", "coordinates": [ 16.0839144, 8.5834118 ] } },
{ "type": "Feature", "properties": { "osm_id": 2174995115, "name": "Ecole Biblique Superieur", "amenity": "school", "building": null, "operator": "", "capacity": "", "addr_city": "", "country": "Chad", "iso3": "TCD", "source": "HOTOSM/OSM", "latitude": 8.607049, "longitude": 16.048183 }, "geometry": { "type": "Point", "coordinates": [ 16.0481833, 8.607049 ] } },
{ "type": "Feature", "properties": { "osm_id": 5445834041, "name": "Palmview", "amenity": "school", "building": null, "operator": "", "capacity": "", "addr_city": "", "country": "Chad", "iso3": "TCD", "source": "HOTOSM/OSM", "latitude": 8.606093, "longitude": 16.052688 }, "geometry": { "type": "Point", "coordinates": [ 16.0526877, 8.6060925 ] } },
{ "type": "Feature", "properties": { "osm_id": 5445834040, "name": "Palmview", "amenity": "school", "building": null, "operator": "", "capacity": "", "addr_city": "", "country": "Chad", "iso3": "TCD", "source": "HOTOSM/OSM", "latitude": 8.606615, "longitude": 16.053079 }, "geometry": { "type": "Point", "coordinates": [ 16.0530794, 8.6066149 ] } },
{ "type": "Feature", "properties": { "osm_id": 2150257169, "name": "CEG ADOUM DALLAH", "amenity": "college", "building": null, "operator": "", "capacity": "", "addr_city": "", "country": "Chad", "iso3": "TCD", "source": "HOTOSM/OSM", "latitude": 8.559467, "longitude": 16.081256 }, "geometry": { "type": "Point", "coordinates": [ 16.0812565, 8.5594674 ] } },
{ "type": "Feature", "properties": { "osm_id": 11610313669, "name": "Lycée-Collége \"La Révélation\"", "amenity": "school", "building": null, "operator": "", "capacity": "", "addr_city": "", "country": "Chad", "iso3": "TCD", "source": "HOTOSM/OSM", "latitude": 12.107911, "longitude": 15.138818 }, "geometry": { "type": "Point", "coordinates": [ 15.1388175, 12.1079111 ] } },
{ "type": "Feature", "properties": { "osm_id": 4534922893, "name": "Université de Doba", "amenity": "school", "building": null, "operator": "", "capacity": "", "addr_city": "", "country": "Chad", "iso3": "TCD", "source": "HOTOSM/OSM", "latitude": 8.713395, "longitude": 16.819343 }, "geometry": { "type": "Point", "coordinates": [ 16.8193427, 8.7133954 ] } },
{ "type": "Feature", "properties": { "osm_id": 2123782368, "name": "Ecole de Kondé", "amenity": "school", "building": null, "operator": "", "capacity": "", "addr_city": "", "country": "Chad", "iso3": "TCD", "source": "HOTOSM/OSM", "latitude": 8.193512, "longitude": 16.486674 }, "geometry": { "type": "Point", "coordinates": [ 16.4866745, 8.1935116 ] } },
{ "type": "Feature", "properties": { "osm_id": 4308427733, "name": "Ngolio", "amenity": "school", "building": null, "operator": "", "capacity": "", "addr_city": "", "country": "Chad", "iso3": "TCD", "source": "HOTOSM/OSM", "latitude": 13.686283, "longitude": 14.614683 }, "geometry": { "type": "Point", "coordinates": [ 14.6146833, 13.6862833 ] } },
{ "type": "Feature", "properties": { "osm_id": 4308427729, "name": "Maah", "amenity": "school", "building": null, "operator": "", "capacity": "", "addr_city": "", "country": "Chad", "iso3": "TCD", "source": "HOTOSM/OSM", "latitude": 13.569417, "longitude": 14.382817 }, "geometry": { "type": "Point", "coordinates": [ 14.3828167, 13.5694167 ] } },
{ "type": "Feature", "properties": { "osm_id": 6646425188, "name": "Lycée bilingue", "amenity": "school", "building": null, "operator": "", "capacity": "", "addr_city": "", "country": "Chad", "iso3": "TCD", "source": "HOTOSM/OSM", "latitude": 17.920514, "longitude": 19.096719 }, "geometry": { "type": "Point", "coordinates": [ 19.0967185, 17.9205144 ] } },
{ "type": "Feature", "properties": { "osm_id": 6646425185, "name": "Lycée des Martyrs", "amenity": "school", "building": null, "operator": "", "capacity": "", "addr_city": "", "country": "Chad", "iso3": "TCD", "source": "HOTOSM/OSM", "latitude": 17.919686, "longitude": 19.098086 }, "geometry": { "type": "Point", "coordinates": [ 19.0980859, 17.9196856 ] } },
{ "type": "Feature", "properties": { "osm_id": 5067143842, "name": "", "amenity": "school", "building": null, "operator": "", "capacity": "", "addr_city": "", "country": "Chad", "iso3": "TCD", "source": "HOTOSM/OSM", "latitude": 14.380727, "longitude": 22.05568 }, "geometry": { "type": "Point", "coordinates": [ 22.0556798, 14.3807266 ] } },
{ "type": "Feature", "properties": { "osm_id": 5618555172, "name": "Ecole de Centre", "amenity": "school", "building": null, "operator": "", "capacity": "", "addr_city": "", "country": "Chad", "iso3": "TCD", "source": "HOTOSM/OSM", "latitude": 17.935389, "longitude": 19.111114 }, "geometry": { "type": "Point", "coordinates": [ 19.1111141, 17.9353892 ] } },
{ "type": "Feature", "properties": { "osm_id": 7951756985, "name": "Adoum Younousmi", "amenity": "school", "building": null, "operator": "", "capacity": "", "addr_city": "", "country": "Chad", "iso3": "TCD", "source": "HOTOSM/OSM", "latitude": 17.930285, "longitude": 19.108562 }, "geometry": { "type": "Point", "coordinates": [ 19.1085619, 17.9302854 ] } },
{ "type": "Feature", "properties": { "osm_id": 6646422588, "name": "École primaire du Tchangoussous", "amenity": "school", "building": null, "operator": "", "capacity": "", "addr_city": "", "country": "Chad", "iso3": "TCD", "source": "HOTOSM/OSM", "latitude": 17.906572, "longitude": 19.088645 }, "geometry": { "type": "Point", "coordinates": [ 19.0886453, 17.9065719 ] } },
{ "type": "Feature", "properties": { "osm_id": 6184194189, "name": "Ecole de centre de Koukou", "amenity": "school", "building": null, "operator": "", "capacity": "", "addr_city": "", "country": "Chad", "iso3": "TCD", "source": "HOTOSM/OSM", "latitude": 12.005392, "longitude": 21.65876 }, "geometry": { "type": "Point", "coordinates": [ 21.65876, 12.0053924 ] } },
{ "type": "Feature", "properties": { "osm_id": 11260172447, "name": "Agra School", "amenity": "school", "building": null, "operator": "", "capacity": "", "addr_city": "", "country": "Chad", "iso3": "TCD", "source": "HOTOSM/OSM", "latitude": 12.69587, "longitude": 22.157584 }, "geometry": { "type": "Point", "coordinates": [ 22.1575839, 12.69587 ] } },
{ "type": "Feature", "properties": { "osm_id": 2213111542, "name": "Ecole de Baldjé Foi et Joie n°1 / مدرسة بلدجا الإيمان والفرح رقم 1", "amenity": "school", "building": null, "operator": "", "capacity": "", "addr_city": "", "country": "Chad", "iso3": "TCD", "source": "HOTOSM/OSM", "latitude": 12.196031, "longitude": 18.665863 }, "geometry": { "type": "Point", "coordinates": [ 18.6658628, 12.1960309 ] } },
{ "type": "Feature", "properties": { "osm_id": 2277670075, "name": "Ecole Officielle de Bokiyo Route", "amenity": "school", "building": null, "operator": "", "capacity": "", "addr_city": "", "country": "Chad", "iso3": "TCD", "source": "HOTOSM/OSM", "latitude": 11.929341, "longitude": 18.226884 }, "geometry": { "type": "Point", "coordinates": [ 18.2268842, 11.9293412 ] } },
{ "type": "Feature", "properties": { "osm_id": 2273841140, "name": "Ecole Officielle de Baïwangué", "amenity": "school", "building": null, "operator": "", "capacity": "", "addr_city": "", "country": "Chad", "iso3": "TCD", "source": "HOTOSM/OSM", "latitude": 12.12831, "longitude": 18.472102 }, "geometry": { "type": "Point", "coordinates": [ 18.4721022, 12.1283099 ] } },
{ "type": "Feature", "properties": { "osm_id": 2495644234, "name": "مركز دون بوسكو", "amenity": "school", "building": null, "operator": "", "capacity": "", "addr_city": "", "country": "Chad", "iso3": "TCD", "source": "HOTOSM/OSM", "latitude": 9.142256, "longitude": 18.392335 }, "geometry": { "type": "Point", "coordinates": [ 18.3923345, 9.1422563 ] } },
{ "type": "Feature", "properties": { "osm_id": 2105817926, "name": "Ecole communautaire de Dosseye", "amenity": "school", "building": null, "operator": "", "capacity": "", "addr_city": "", "country": "Chad", "iso3": "TCD", "source": "HOTOSM/OSM", "latitude": 8.150533, "longitude": 16.488573 }, "geometry": { "type": "Point", "coordinates": [ 16.4885732, 8.1505332 ] } },
{ "type": "Feature", "properties": { "osm_id": 11173879393, "name": "Ancienne école d'Arkoum", "amenity": "school", "building": null, "operator": "", "capacity": "", "addr_city": "", "country": "Chad", "iso3": "TCD", "source": "HOTOSM/OSM", "latitude": 13.193603, "longitude": 21.709373 }, "geometry": { "type": "Point", "coordinates": [ 21.7093733, 13.1936026 ] } },
{ "type": "Feature", "properties": { "osm_id": 2145709127, "name": "مدرسة موتوقو", "amenity": "school", "building": null, "operator": "", "capacity": "", "addr_city": "", "country": "Chad", "iso3": "TCD", "source": "HOTOSM/OSM", "latitude": 8.483479, "longitude": 18.749234 }, "geometry": { "type": "Point", "coordinates": [ 18.7492341, 8.4834793 ] } },
{ "type": "Feature", "properties": { "osm_id": 2566402171, "name": "صالة حفلات الوحدة موسورو", "amenity": "school", "building": null, "operator": "", "capacity": "", "addr_city": "", "country": "Chad", "iso3": "TCD", "source": "HOTOSM/OSM", "latitude": 13.646174, "longitude": 16.479892 }, "geometry": { "type": "Point", "coordinates": [ 16.4798915, 13.6461744 ] } },
{ "type": "Feature", "properties": { "osm_id": 3898424681, "name": "Lycée de Yamodo المدرسة الثانوية يمدو", "amenity": "college", "building": null, "operator": "", "capacity": "", "addr_city": "", "country": "Chad", "iso3": "TCD", "source": "HOTOSM/OSM", "latitude": 7.859946, "longitude": 17.112086 }, "geometry": { "type": "Point", "coordinates": [ 17.1120862, 7.8599461 ] } },
{ "type": "Feature", "properties": { "osm_id": 10880612782, "name": "Beida School", "amenity": "college", "building": null, "operator": "", "capacity": "", "addr_city": "", "country": "Chad", "iso3": "TCD", "source": "HOTOSM/OSM", "latitude": 12.711265, "longitude": 21.889029 }, "geometry": { "type": "Point", "coordinates": [ 21.8890287, 12.7112653 ] } },
{ "type": "Feature", "properties": { "osm_id": 5618555171, "name": "Ecole Donzonga مدرسة دونزونقا", "amenity": "school", "building": null, "operator": "", "capacity": "", "addr_city": "", "country": "Chad", "iso3": "TCD", "source": "HOTOSM/OSM", "latitude": 17.949316, "longitude": 19.119654 }, "geometry": { "type": "Point", "coordinates": [ 19.119654, 17.9493164 ] } },
{ "type": "Feature", "properties": { "osm_id": 2175645376, "name": "مدرسة موبو وسامندو", "amenity": "school", "building": null, "operator": "", "capacity": "", "addr_city": "", "country": "Chad", "iso3": "TCD", "source": "HOTOSM/OSM", "latitude": 8.360483, "longitude": 18.756811 }, "geometry": { "type": "Point", "coordinates": [ 18.7568111, 8.3604834 ] } },
{ "type": "Feature", "properties": { "osm_id": 4674935190, "name": "Lycée de Yagoua", "amenity": "school", "building": null, "operator": "", "capacity": "", "addr_city": "", "country": "Chad", "iso3": "TCD", "source": "HOTOSM/OSM", "latitude": 10.332071, "longitude": 15.254129 }, "geometry": { "type": "Point", "coordinates": [ 15.254129, 10.3320715 ] } },
{ "type": "Feature", "properties": { "osm_id": 4543079189, "name": "", "amenity": "school", "building": null, "operator": "", "capacity": "", "addr_city": "", "country": "Chad", "iso3": "TCD", "source": "HOTOSM/OSM", "latitude": 10.070084, "longitude": 15.586616 }, "geometry": { "type": "Point", "coordinates": [ 15.5866158, 10.0700835 ] } },
{ "type": "Feature", "properties": { "osm_id": 2175730870, "name": "Ecole de Mousmba", "amenity": "school", "building": null, "operator": "", "capacity": "", "addr_city": "", "country": "Chad", "iso3": "TCD", "source": "HOTOSM/OSM", "latitude": 8.422354, "longitude": 18.816146 }, "geometry": { "type": "Point", "coordinates": [ 18.816146, 8.422354 ] } },
{ "type": "Feature", "properties": { "osm_id": 2150257171, "name": "Licée Adoum Dallah يسيه آدم الله", "amenity": "school", "building": null, "operator": "", "capacity": "", "addr_city": "", "country": "Chad", "iso3": "TCD", "source": "HOTOSM/OSM", "latitude": 8.558843, "longitude": 16.078166 }, "geometry": { "type": "Point", "coordinates": [ 16.078166, 8.5588431 ] } },
{ "type": "Feature", "properties": { "osm_id": 4534970190, "name": "École normale d'instituteurs", "amenity": "school", "building": null, "operator": "", "capacity": "", "addr_city": "", "country": "Chad", "iso3": "TCD", "source": "HOTOSM/OSM", "latitude": 10.264066, "longitude": 15.377755 }, "geometry": { "type": "Point", "coordinates": [ 15.3777548, 10.2640657 ] } },
{ "type": "Feature", "properties": { "osm_id": 7748115317, "name": "مدرسة المسجد الدعوة", "amenity": "school", "building": null, "operator": "", "capacity": "", "addr_city": "", "country": "Chad", "iso3": "TCD", "source": "HOTOSM/OSM", "latitude": 12.484431, "longitude": 15.442336 }, "geometry": { "type": "Point", "coordinates": [ 15.4423364, 12.4844312 ] } },
{ "type": "Feature", "properties": { "osm_id": 4308427738, "name": "Yiga", "amenity": "school", "building": null, "operator": "", "capacity": "", "addr_city": "", "country": "Chad", "iso3": "TCD", "source": "HOTOSM/OSM", "latitude": 13.458433, "longitude": 14.691867 }, "geometry": { "type": "Point", "coordinates": [ 14.6918667, 13.4584333 ] } },
{ "type": "Feature", "properties": { "osm_id": 4308427721, "name": "Albouhaira البحيرة", "amenity": "school", "building": null, "operator": "", "capacity": "", "addr_city": "", "country": "Chad", "iso3": "TCD", "source": "HOTOSM/OSM", "latitude": 13.478418, "longitude": 14.703817 }, "geometry": { "type": "Point", "coordinates": [ 14.7038172, 13.4784175 ] } },
{ "type": "Feature", "properties": { "osm_id": 2199542163, "name": "Ecole de Paris-congo مدرسة باريس الكونغو", "amenity": "school", "building": null, "operator": "", "capacity": "", "addr_city": "", "country": "Chad", "iso3": "TCD", "source": "HOTOSM/OSM", "latitude": 12.103369, "longitude": 15.070095 }, "geometry": { "type": "Point", "coordinates": [ 15.070095, 12.1033688 ] } },
{ "type": "Feature", "properties": { "osm_id": 13207241446, "name": "lycee de berem", "amenity": "school", "building": null, "operator": "", "capacity": "", "addr_city": "", "country": "Chad", "iso3": "TCD", "source": "HOTOSM/OSM", "latitude": 9.48671, "longitude": 15.3887 }, "geometry": { "type": "Point", "coordinates": [ 15.3887, 9.48671 ] } },
{ "type": "Feature", "properties": { "osm_id": 13208411151, "name": "", "amenity": "school", "building": null, "operator": "", "capacity": "", "addr_city": "", "country": "Chad", "iso3": "TCD", "source": "HOTOSM/OSM", "latitude": 15.12766, "longitude": 22.24527 }, "geometry": { "type": "Point", "coordinates": [ 22.24527, 15.12766 ] } },
{ "type": "Feature", "properties": { "osm_id": 13208483982, "name": "Lycée College Temple de l'Excellence", "amenity": "school", "building": null, "operator": "", "capacity": "", "addr_city": "", "country": "Chad", "iso3": "TCD", "source": "HOTOSM/OSM", "latitude": 12.09332, "longitude": 15.10751 }, "geometry": { "type": "Point", "coordinates": [ 15.10751, 12.09332 ] } },
{ "type": "Feature", "properties": { "osm_id": 13208525813, "name": "Agora", "amenity": "school", "building": null, "operator": "", "capacity": "", "addr_city": "", "country": "Chad", "iso3": "TCD", "source": "HOTOSM/OSM", "latitude": 12.062413, "longitude": 15.076999 }, "geometry": { "type": "Point", "coordinates": [ 15.076999, 12.062413 ] } },
{ "type": "Feature", "properties": { "osm_id": 11017600605, "name": "Lycée Français", "amenity": "school", "building": null, "operator": "", "capacity": "", "addr_city": "", "country": "Chad", "iso3": "TCD", "source": "HOTOSM/OSM", "latitude": 13.455188, "longitude": 22.188306 }, "geometry": { "type": "Point", "coordinates": [ 22.1883058, 13.4551876 ] } },
{ "type": "Feature", "properties": { "osm_id": 4308427730, "name": "Madikimerom", "amenity": "school", "building": null, "operator": "", "capacity": "", "addr_city": "", "country": "Chad", "iso3": "TCD", "source": "HOTOSM/OSM", "latitude": 13.517117, "longitude": 14.730717 }, "geometry": { "type": "Point", "coordinates": [ 14.7307167, 13.5171167 ] } },
{ "type": "Feature", "properties": { "osm_id": 4309167638, "name": "Lycée", "amenity": "school", "building": null, "operator": "", "capacity": "", "addr_city": "", "country": "Chad", "iso3": "TCD", "source": "HOTOSM/OSM", "latitude": 13.554136, "longitude": 14.313079 }, "geometry": { "type": "Point", "coordinates": [ 14.3130787, 13.5541364 ] } },
{ "type": "Feature", "properties": { "osm_id": 10880540382, "name": "مدرسة كنقو حرازة", "amenity": "college", "building": null, "operator": "", "capacity": "", "addr_city": "", "country": "Chad", "iso3": "TCD", "source": "HOTOSM/OSM", "latitude": 12.928883, "longitude": 21.904724 }, "geometry": { "type": "Point", "coordinates": [ 21.9047241, 12.9288825 ] } },
{ "type": "Feature", "properties": { "osm_id": 6810755085, "name": "Lycée bilingue", "amenity": "school", "building": null, "operator": "", "capacity": "", "addr_city": "", "country": "Chad", "iso3": "TCD", "source": "HOTOSM/OSM", "latitude": 13.64214, "longitude": 16.493939 }, "geometry": { "type": "Point", "coordinates": [ 16.4939394, 13.6421403 ] } },
{ "type": "Feature", "properties": { "osm_id": 5363014594, "name": "", "amenity": "school", "building": null, "operator": "", "capacity": "", "addr_city": "", "country": "Chad", "iso3": "TCD", "source": "HOTOSM/OSM", "latitude": 12.163372, "longitude": 15.043562 }, "geometry": { "type": "Point", "coordinates": [ 15.0435624, 12.1633716 ] } },
{ "type": "Feature", "properties": { "osm_id": 6646425199, "name": "Halouwa", "amenity": "school", "building": null, "operator": "", "capacity": "", "addr_city": "", "country": "Chad", "iso3": "TCD", "source": "HOTOSM/OSM", "latitude": 12.165043, "longitude": 15.035512 }, "geometry": { "type": "Point", "coordinates": [ 15.0355115, 12.1650425 ] } },
{ "type": "Feature", "properties": { "osm_id": 5363014579, "name": "Lycée de Gozator", "amenity": "school", "building": null, "operator": "", "capacity": "", "addr_city": "", "country": "Chad", "iso3": "TCD", "source": "HOTOSM/OSM", "latitude": 12.161878, "longitude": 15.06033 }, "geometry": { "type": "Point", "coordinates": [ 15.0603299, 12.1618778 ] } },
{ "type": "Feature", "properties": { "osm_id": 5363014605, "name": "", "amenity": "school", "building": null, "operator": "", "capacity": "", "addr_city": "", "country": "Chad", "iso3": "TCD", "source": "HOTOSM/OSM", "latitude": 12.147702, "longitude": 15.056446 }, "geometry": { "type": "Point", "coordinates": [ 15.0564457, 12.1477016 ] } },
{ "type": "Feature", "properties": { "osm_id": 7187801282, "name": "Lycée de Massakory", "amenity": "school", "building": null, "operator": "", "capacity": "", "addr_city": "", "country": "Chad", "iso3": "TCD", "source": "HOTOSM/OSM", "latitude": 12.985119, "longitude": 15.724049 }, "geometry": { "type": "Point", "coordinates": [ 15.7240486, 12.9851193 ] } },
{ "type": "Feature", "properties": { "osm_id": 4146092014, "name": "مدرسة", "amenity": "school", "building": null, "operator": "", "capacity": "", "addr_city": "", "country": "Chad", "iso3": "TCD", "source": "HOTOSM/OSM", "latitude": 12.073407, "longitude": 15.099416 }, "geometry": { "type": "Point", "coordinates": [ 15.0994163, 12.0734069 ] } },
{ "type": "Feature", "properties": { "osm_id": 6184456805, "name": "Ecole de Kadamou 1", "amenity": "school", "building": null, "operator": "", "capacity": "", "addr_city": "", "country": "Chad", "iso3": "TCD", "source": "HOTOSM/OSM", "latitude": 12.186276, "longitude": 22.460504 }, "geometry": { "type": "Point", "coordinates": [ 22.4605041, 12.186276 ] } },
{ "type": "Feature", "properties": { "osm_id": 7325758785, "name": "Ecole et CEG d'Am Doback", "amenity": "school", "building": null, "operator": "", "capacity": "", "addr_city": "", "country": "Chad", "iso3": "TCD", "source": "HOTOSM/OSM", "latitude": 13.333061, "longitude": 15.67019 }, "geometry": { "type": "Point", "coordinates": [ 15.6701901, 13.3330609 ] } },
{ "type": "Feature", "properties": { "osm_id": 5363014584, "name": "", "amenity": "kindergarten", "building": null, "operator": "", "capacity": "", "addr_city": "", "country": "Chad", "iso3": "TCD", "source": "HOTOSM/OSM", "latitude": 12.158906, "longitude": 15.058501 }, "geometry": { "type": "Point", "coordinates": [ 15.0585006, 12.1589056 ] } },
{ "type": "Feature", "properties": { "osm_id": 5363014610, "name": "", "amenity": "kindergarten", "building": null, "operator": "", "capacity": "", "addr_city": "", "country": "Chad", "iso3": "TCD", "source": "HOTOSM/OSM", "latitude": 12.145633, "longitude": 15.05535 }, "geometry": { "type": "Point", "coordinates": [ 15.0553504, 12.1456329 ] } },
{ "type": "Feature", "properties": { "osm_id": 10907509003, "name": "خلوة تحفيظ القرآن", "amenity": "college", "building": null, "operator": "", "capacity": "", "addr_city": "", "country": "Chad", "iso3": "TCD", "source": "HOTOSM/OSM", "latitude": 12.732129, "longitude": 22.174963 }, "geometry": { "type": "Point", "coordinates": [ 22.1749626, 12.7321293 ] } },
{ "type": "Feature", "properties": { "osm_id": 10879142422, "name": "Arara School for boys", "amenity": "college", "building": null, "operator": "", "capacity": "", "addr_city": "", "country": "Chad", "iso3": "TCD", "source": "HOTOSM/OSM", "latitude": 12.728557, "longitude": 22.165089 }, "geometry": { "type": "Point", "coordinates": [ 22.165089, 12.7285573 ] } },
{ "type": "Feature", "properties": { "osm_id": 2566402156, "name": "CEG de Moussoro الكلية العامة موسورو", "amenity": "college", "building": null, "operator": "", "capacity": "", "addr_city": "", "country": "Chad", "iso3": "TCD", "source": "HOTOSM/OSM", "latitude": 13.649717, "longitude": 16.483171 }, "geometry": { "type": "Point", "coordinates": [ 16.4831709, 13.6497174 ] } },
{ "type": "Feature", "properties": { "osm_id": 5363014615, "name": "", "amenity": "college", "building": null, "operator": "", "capacity": "", "addr_city": "", "country": "Chad", "iso3": "TCD", "source": "HOTOSM/OSM", "latitude": 12.143122, "longitude": 15.057541 }, "geometry": { "type": "Point", "coordinates": [ 15.057541, 12.1431223 ] } },
{ "type": "Feature", "properties": { "osm_id": 10880612783, "name": "مدرسة بيضة الثانويه", "amenity": "college", "building": null, "operator": "", "capacity": "", "addr_city": "", "country": "Chad", "iso3": "TCD", "source": "HOTOSM/OSM", "latitude": 12.710752, "longitude": 21.888571 }, "geometry": { "type": "Point", "coordinates": [ 21.8885713, 12.7107517 ] } },
{ "type": "Feature", "properties": { "osm_id": 10894785571, "name": "Terbebe School", "amenity": "college", "building": null, "operator": "", "capacity": "", "addr_city": "", "country": "Chad", "iso3": "TCD", "source": "HOTOSM/OSM", "latitude": 13.066243, "longitude": 21.988128 }, "geometry": { "type": "Point", "coordinates": [ 21.988128, 13.0662426 ] } },
{ "type": "Feature", "properties": { "osm_id": 7196257277, "name": "Hamoudi", "amenity": "school", "building": null, "operator": "", "capacity": "", "addr_city": "", "country": "Chad", "iso3": "TCD", "source": "HOTOSM/OSM", "latitude": 12.151623, "longitude": 15.112807 }, "geometry": { "type": "Point", "coordinates": [ 15.1128068, 12.1516227 ] } },
{ "type": "Feature", "properties": { "osm_id": 4691514930, "name": "CEG de diguel est", "amenity": "school", "building": null, "operator": "", "capacity": "", "addr_city": "", "country": "Chad", "iso3": "TCD", "source": "HOTOSM/OSM", "latitude": 12.134798, "longitude": 15.088738 }, "geometry": { "type": "Point", "coordinates": [ 15.0887379, 12.1347981 ] } },
{ "type": "Feature", "properties": { "osm_id": 5363014566, "name": "", "amenity": "school", "building": null, "operator": "", "capacity": "", "addr_city": "", "country": "Chad", "iso3": "TCD", "source": "HOTOSM/OSM", "latitude": 12.131031, "longitude": 15.096365 }, "geometry": { "type": "Point", "coordinates": [ 15.0963646, 12.1310307 ] } },
{ "type": "Feature", "properties": { "osm_id": 5363014557, "name": "", "amenity": "school", "building": null, "operator": "", "capacity": "", "addr_city": "", "country": "Chad", "iso3": "TCD", "source": "HOTOSM/OSM", "latitude": 12.127346, "longitude": 15.11314 }, "geometry": { "type": "Point", "coordinates": [ 15.1131404, 12.1273455 ] } },
{ "type": "Feature", "properties": { "osm_id": 6949717285, "name": "Complexe scolaire prive trilingue Nouvel Elan", "amenity": "school", "building": null, "operator": "", "capacity": "", "addr_city": "", "country": "Chad", "iso3": "TCD", "source": "HOTOSM/OSM", "latitude": 12.130892, "longitude": 15.126921 }, "geometry": { "type": "Point", "coordinates": [ 15.1269213, 12.1308923 ] } },
{ "type": "Feature", "properties": { "osm_id": 4130058589, "name": "Jardin d'enfants Thilam-Thilam", "amenity": "school", "building": null, "operator": "", "capacity": "", "addr_city": "", "country": "Chad", "iso3": "TCD", "source": "HOTOSM/OSM", "latitude": 12.139583, "longitude": 15.055922 }, "geometry": { "type": "Point", "coordinates": [ 15.0559224, 12.1395827 ] } },
{ "type": "Feature", "properties": { "osm_id": 5363014758, "name": "Lycée de la Liberté", "amenity": "school", "building": null, "operator": "", "capacity": "", "addr_city": "", "country": "Chad", "iso3": "TCD", "source": "HOTOSM/OSM", "latitude": 12.131714, "longitude": 15.055231 }, "geometry": { "type": "Point", "coordinates": [ 15.0552314, 12.1317135 ] } },
{ "type": "Feature", "properties": { "osm_id": 296137308, "name": "مركز النور", "amenity": "school", "building": null, "operator": "", "capacity": "", "addr_city": "", "country": "Chad", "iso3": "TCD", "source": "HOTOSM/OSM", "latitude": 12.132317, "longitude": 15.057735 }, "geometry": { "type": "Point", "coordinates": [ 15.057735, 12.132317 ] } },
{ "type": "Feature", "properties": { "osm_id": 489724266, "name": "Lycée Montaigne", "amenity": "school", "building": null, "operator": "", "capacity": "", "addr_city": "", "country": "Chad", "iso3": "TCD", "source": "HOTOSM/OSM", "latitude": 12.119427, "longitude": 15.037654 }, "geometry": { "type": "Point", "coordinates": [ 15.0376541, 12.119427 ] } },
{ "type": "Feature", "properties": { "osm_id": 10877821005, "name": "Lycée Privé Gabriel Lisette", "amenity": "school", "building": null, "operator": "", "capacity": "", "addr_city": "", "country": "Chad", "iso3": "TCD", "source": "HOTOSM/OSM", "latitude": 12.095609, "longitude": 15.082513 }, "geometry": { "type": "Point", "coordinates": [ 15.0825132, 12.0956093 ] } },
{ "type": "Feature", "properties": { "osm_id": 6845755385, "name": "Complexe Scolaire Amen", "amenity": "school", "building": null, "operator": "", "capacity": "", "addr_city": "", "country": "Chad", "iso3": "TCD", "source": "HOTOSM/OSM", "latitude": 12.100722, "longitude": 15.081076 }, "geometry": { "type": "Point", "coordinates": [ 15.0810765, 12.1007223 ] } },
{ "type": "Feature", "properties": { "osm_id": 4146091100, "name": "جامعة إيمي كوسي Université Emi koussi", "amenity": "school", "building": null, "operator": "", "capacity": "", "addr_city": "", "country": "Chad", "iso3": "TCD", "source": "HOTOSM/OSM", "latitude": 12.093618, "longitude": 15.078001 }, "geometry": { "type": "Point", "coordinates": [ 15.0780007, 12.0936181 ] } },
{ "type": "Feature", "properties": { "osm_id": 8539154421, "name": "Collège Adventiste", "amenity": "school", "building": null, "operator": "", "capacity": "", "addr_city": "", "country": "Chad", "iso3": "TCD", "source": "HOTOSM/OSM", "latitude": 12.092643, "longitude": 15.087336 }, "geometry": { "type": "Point", "coordinates": [ 15.0873355, 12.0926433 ] } },
{ "type": "Feature", "properties": { "osm_id": 2163801477, "name": "Lycée Technique Commercial", "amenity": "school", "building": null, "operator": "", "capacity": "", "addr_city": "", "country": "Chad", "iso3": "TCD", "source": "HOTOSM/OSM", "latitude": 12.095688, "longitude": 15.061838 }, "geometry": { "type": "Point", "coordinates": [ 15.0618377, 12.0956875 ] } },
{ "type": "Feature", "properties": { "osm_id": 2622026968, "name": "Fraternité أخوية", "amenity": "school", "building": null, "operator": "", "capacity": "", "addr_city": "", "country": "Chad", "iso3": "TCD", "source": "HOTOSM/OSM", "latitude": 12.120701, "longitude": 15.048735 }, "geometry": { "type": "Point", "coordinates": [ 15.0487351, 12.1207009 ] } },
{ "type": "Feature", "properties": { "osm_id": 2589454529, "name": "مدرسة هارازاي", "amenity": "school", "building": null, "operator": "", "capacity": "", "addr_city": "", "country": "Chad", "iso3": "TCD", "source": "HOTOSM/OSM", "latitude": 12.118675, "longitude": 15.049986 }, "geometry": { "type": "Point", "coordinates": [ 15.0499858, 12.1186751 ] } },
{ "type": "Feature", "properties": { "osm_id": 5194923689, "name": "مدرسة وكلية دامبي", "amenity": "school", "building": null, "operator": "", "capacity": "", "addr_city": "", "country": "Chad", "iso3": "TCD", "source": "HOTOSM/OSM", "latitude": 12.106241, "longitude": 15.082244 }, "geometry": { "type": "Point", "coordinates": [ 15.0822437, 12.1062409 ] } },
{ "type": "Feature", "properties": { "osm_id": 10777687706, "name": "Lycée d'HABBENA", "amenity": "school", "building": null, "operator": "", "capacity": "", "addr_city": "", "country": "Chad", "iso3": "TCD", "source": "HOTOSM/OSM", "latitude": 12.103906, "longitude": 15.112585 }, "geometry": { "type": "Point", "coordinates": [ 15.1125848, 12.1039056 ] } },
{ "type": "Feature", "properties": { "osm_id": 10763102305, "name": "Ecole de Santé Le \"Bon Berger \"", "amenity": "school", "building": null, "operator": "", "capacity": "", "addr_city": "", "country": "Chad", "iso3": "TCD", "source": "HOTOSM/OSM", "latitude": 12.094401, "longitude": 15.114045 }, "geometry": { "type": "Point", "coordinates": [ 15.1140454, 12.0944008 ] } },
{ "type": "Feature", "properties": { "osm_id": 10748337406, "name": "Complexe scolaire \"Les petits Génies\"", "amenity": "school", "building": null, "operator": "", "capacity": "", "addr_city": "", "country": "Chad", "iso3": "TCD", "source": "HOTOSM/OSM", "latitude": 12.097158, "longitude": 15.113246 }, "geometry": { "type": "Point", "coordinates": [ 15.1132459, 12.0971579 ] } },
{ "type": "Feature", "properties": { "osm_id": 10744891007, "name": "Lycée Technique Commercial FRANCO-ANGLAIS LA \"LUMIÈRE \" D'ABENA", "amenity": "school", "building": null, "operator": "", "capacity": "", "addr_city": "", "country": "Chad", "iso3": "TCD", "source": "HOTOSM/OSM", "latitude": 12.099369, "longitude": 15.105174 }, "geometry": { "type": "Point", "coordinates": [ 15.1051738, 12.0993695 ] } },
{ "type": "Feature", "properties": { "osm_id": 4320032106, "name": "Collège d'enseignement général d'Abena", "amenity": "school", "building": null, "operator": "", "capacity": "", "addr_city": "", "country": "Chad", "iso3": "TCD", "source": "HOTOSM/OSM", "latitude": 12.096097, "longitude": 15.106141 }, "geometry": { "type": "Point", "coordinates": [ 15.1061413, 12.0960973 ] } },
{ "type": "Feature", "properties": { "osm_id": 4320032107, "name": "École communale de HABENA", "amenity": "school", "building": null, "operator": "", "capacity": "", "addr_city": "", "country": "Chad", "iso3": "TCD", "source": "HOTOSM/OSM", "latitude": 12.094283, "longitude": 15.101706 }, "geometry": { "type": "Point", "coordinates": [ 15.1017056, 12.094283 ] } },
{ "type": "Feature", "properties": { "osm_id": 10886200906, "name": "Lycée-Collège \"LE BON BERGER\"", "amenity": "school", "building": null, "operator": "", "capacity": "", "addr_city": "", "country": "Chad", "iso3": "TCD", "source": "HOTOSM/OSM", "latitude": 12.095761, "longitude": 15.090578 }, "geometry": { "type": "Point", "coordinates": [ 15.0905779, 12.0957608 ] } },
{ "type": "Feature", "properties": { "osm_id": 10872825306, "name": "Ecole Nationale de Formation Judiciaire ( ENFJ)", "amenity": "school", "building": null, "operator": "", "capacity": "", "addr_city": "", "country": "Chad", "iso3": "TCD", "source": "HOTOSM/OSM", "latitude": 12.118404, "longitude": 15.090338 }, "geometry": { "type": "Point", "coordinates": [ 15.0903376, 12.1184044 ] } },
{ "type": "Feature", "properties": { "osm_id": 11042885306, "name": "Lycée de L'Excellence de Gassi", "amenity": "school", "building": null, "operator": "", "capacity": "", "addr_city": "", "country": "Chad", "iso3": "TCD", "source": "HOTOSM/OSM", "latitude": 12.081029, "longitude": 15.146027 }, "geometry": { "type": "Point", "coordinates": [ 15.1460267, 12.0810293 ] } },
{ "type": "Feature", "properties": { "osm_id": 5594815524, "name": "lycée de gassi مدرسة غاسي الثانوية", "amenity": "school", "building": null, "operator": "", "capacity": "", "addr_city": "", "country": "Chad", "iso3": "TCD", "source": "HOTOSM/OSM", "latitude": 12.085784, "longitude": 15.141445 }, "geometry": { "type": "Point", "coordinates": [ 15.1414454, 12.0857841 ] } },
{ "type": "Feature", "properties": { "osm_id": 10878063105, "name": "Lycée-Collège-École \"Les Excellents\"", "amenity": "school", "building": null, "operator": "", "capacity": "", "addr_city": "", "country": "Chad", "iso3": "TCD", "source": "HOTOSM/OSM", "latitude": 12.105958, "longitude": 15.150856 }, "geometry": { "type": "Point", "coordinates": [ 15.1508559, 12.1059585 ] } },
{ "type": "Feature", "properties": { "osm_id": 11027661783, "name": "", "amenity": "school", "building": null, "operator": "", "capacity": "", "addr_city": "", "country": "Chad", "iso3": "TCD", "source": "HOTOSM/OSM", "latitude": 13.436563, "longitude": 21.651512 }, "geometry": { "type": "Point", "coordinates": [ 21.6515115, 13.4365628 ] } },
{ "type": "Feature", "properties": { "osm_id": 4308427734, "name": "Ngorerom", "amenity": "school", "building": null, "operator": "", "capacity": "", "addr_city": "", "country": "Chad", "iso3": "TCD", "source": "HOTOSM/OSM", "latitude": 13.31775, "longitude": 14.786067 }, "geometry": { "type": "Point", "coordinates": [ 14.7860667, 13.31775 ] } },
{ "type": "Feature", "properties": { "osm_id": 4308427731, "name": "Margoum", "amenity": "school", "building": null, "operator": "", "capacity": "", "addr_city": "", "country": "Chad", "iso3": "TCD", "source": "HOTOSM/OSM", "latitude": 13.6102, "longitude": 14.821083 }, "geometry": { "type": "Point", "coordinates": [ 14.8210833, 13.6102 ] } },
{ "type": "Feature", "properties": { "osm_id": 4543040705, "name": "Lycée de koundoul", "amenity": "school", "building": null, "operator": "", "capacity": "", "addr_city": "", "country": "Chad", "iso3": "TCD", "source": "HOTOSM/OSM", "latitude": 11.982175, "longitude": 15.148571 }, "geometry": { "type": "Point", "coordinates": [ 15.1485707, 11.982175 ] } },
{ "type": "Feature", "properties": { "osm_id": 7208673785, "name": "ENSOA", "amenity": "school", "building": null, "operator": "", "capacity": "", "addr_city": "", "country": "Chad", "iso3": "TCD", "source": "HOTOSM/OSM", "latitude": 11.982198, "longitude": 15.143484 }, "geometry": { "type": "Point", "coordinates": [ 15.1434841, 11.9821983 ] } },
{ "type": "Feature", "properties": { "osm_id": 4142253990, "name": "Université de Toukra جامعة تكورا", "amenity": "school", "building": null, "operator": "", "capacity": "", "addr_city": "", "country": "Chad", "iso3": "TCD", "source": "HOTOSM/OSM", "latitude": 12.017607, "longitude": 15.114976 }, "geometry": { "type": "Point", "coordinates": [ 15.1149763, 12.0176069 ] } },
{ "type": "Feature", "properties": { "osm_id": 4534968489, "name": "École mixte de Mailao", "amenity": "school", "building": null, "operator": "", "capacity": "", "addr_city": "", "country": "Chad", "iso3": "TCD", "source": "HOTOSM/OSM", "latitude": 11.590093, "longitude": 15.282719 }, "geometry": { "type": "Point", "coordinates": [ 15.2827186, 11.5900931 ] } },
{ "type": "Feature", "properties": { "osm_id": 4534895591, "name": "CEG de bongor", "amenity": "school", "building": null, "operator": "", "capacity": "", "addr_city": "", "country": "Chad", "iso3": "TCD", "source": "HOTOSM/OSM", "latitude": 10.242278, "longitude": 15.409294 }, "geometry": { "type": "Point", "coordinates": [ 15.4092943, 10.2422779 ] } },
{ "type": "Feature", "properties": { "osm_id": 4534923296, "name": "Lycée Jacques Moudeina", "amenity": "school", "building": null, "operator": "", "capacity": "", "addr_city": "", "country": "Chad", "iso3": "TCD", "source": "HOTOSM/OSM", "latitude": 10.277971, "longitude": 15.366279 }, "geometry": { "type": "Point", "coordinates": [ 15.3662787, 10.2779715 ] } },
{ "type": "Feature", "properties": { "osm_id": 7975966885, "name": "Lycée collège saint bitrus de bongor", "amenity": "school", "building": null, "operator": "", "capacity": "", "addr_city": "", "country": "Chad", "iso3": "TCD", "source": "HOTOSM/OSM", "latitude": 10.279836, "longitude": 15.371654 }, "geometry": { "type": "Point", "coordinates": [ 15.3716535, 10.279836 ] } },
{ "type": "Feature", "properties": { "osm_id": 4383729389, "name": "HEC tchad Primaire", "amenity": "school", "building": null, "operator": "", "capacity": "", "addr_city": "", "country": "Chad", "iso3": "TCD", "source": "HOTOSM/OSM", "latitude": 12.128768, "longitude": 15.083794 }, "geometry": { "type": "Point", "coordinates": [ 15.0837944, 12.1287685 ] } },
{ "type": "Feature", "properties": { "osm_id": 10826324605, "name": "Complexe Scolaire THILAM-THILAM", "amenity": "school", "building": null, "operator": "", "capacity": "", "addr_city": "", "country": "Chad", "iso3": "TCD", "source": "HOTOSM/OSM", "latitude": 12.117898, "longitude": 15.096733 }, "geometry": { "type": "Point", "coordinates": [ 15.0967333, 12.1178983 ] } },
{ "type": "Feature", "properties": { "osm_id": 6901800685, "name": "École primaire CORNELIA CONELI", "amenity": "school", "building": null, "operator": "", "capacity": "", "addr_city": "", "country": "Chad", "iso3": "TCD", "source": "HOTOSM/OSM", "latitude": 12.109685, "longitude": 15.105786 }, "geometry": { "type": "Point", "coordinates": [ 15.1057864, 12.1096846 ] } },
{ "type": "Feature", "properties": { "osm_id": 5363014740, "name": "", "amenity": "school", "building": null, "operator": "", "capacity": "", "addr_city": "", "country": "Chad", "iso3": "TCD", "source": "HOTOSM/OSM", "latitude": 12.135142, "longitude": 15.070733 }, "geometry": { "type": "Point", "coordinates": [ 15.0707334, 12.135142 ] } },
{ "type": "Feature", "properties": { "osm_id": 5363014746, "name": "", "amenity": "school", "building": null, "operator": "", "capacity": "", "addr_city": "", "country": "Chad", "iso3": "TCD", "source": "HOTOSM/OSM", "latitude": 12.136099, "longitude": 15.066387 }, "geometry": { "type": "Point", "coordinates": [ 15.0663869, 12.1360988 ] } },
{ "type": "Feature", "properties": { "osm_id": 4119167989, "name": "École Savane", "amenity": "school", "building": null, "operator": "", "capacity": "", "addr_city": "", "country": "Chad", "iso3": "TCD", "source": "HOTOSM/OSM", "latitude": 12.104503, "longitude": 15.053812 }, "geometry": { "type": "Point", "coordinates": [ 15.0538118, 12.1045034 ] } },
{ "type": "Feature", "properties": { "osm_id": 2139000057, "name": "Etoiles brillantes", "amenity": "school", "building": null, "operator": "", "capacity": "", "addr_city": "", "country": "Chad", "iso3": "TCD", "source": "HOTOSM/OSM", "latitude": 12.091705, "longitude": 15.060766 }, "geometry": { "type": "Point", "coordinates": [ 15.0607658, 12.0917045 ] } },
{ "type": "Feature", "properties": { "osm_id": 5360828542, "name": "", "amenity": "kindergarten", "building": null, "operator": "", "capacity": "", "addr_city": "", "country": "Chad", "iso3": "TCD", "source": "HOTOSM/OSM", "latitude": 12.096987, "longitude": 15.080671 }, "geometry": { "type": "Point", "coordinates": [ 15.0806708, 12.096987 ] } },
{ "type": "Feature", "properties": { "osm_id": 5360828543, "name": "Ecole Belle Vue", "amenity": "kindergarten", "building": null, "operator": "", "capacity": "", "addr_city": "", "country": "Chad", "iso3": "TCD", "source": "HOTOSM/OSM", "latitude": 12.096019, "longitude": 15.07523 }, "geometry": { "type": "Point", "coordinates": [ 15.0752303, 12.0960193 ] } },
{ "type": "Feature", "properties": { "osm_id": 5363071433, "name": "", "amenity": "kindergarten", "building": null, "operator": "", "capacity": "", "addr_city": "", "country": "Chad", "iso3": "TCD", "source": "HOTOSM/OSM", "latitude": 12.11546, "longitude": 15.066709 }, "geometry": { "type": "Point", "coordinates": [ 15.066709, 12.1154597 ] } },
{ "type": "Feature", "properties": { "osm_id": 5363014525, "name": "", "amenity": "kindergarten", "building": null, "operator": "", "capacity": "", "addr_city": "", "country": "Chad", "iso3": "TCD", "source": "HOTOSM/OSM", "latitude": 12.097422, "longitude": 15.087975 }, "geometry": { "type": "Point", "coordinates": [ 15.0879747, 12.0974224 ] } },
{ "type": "Feature", "properties": { "osm_id": 5363071425, "name": "", "amenity": "kindergarten", "building": null, "operator": "", "capacity": "", "addr_city": "", "country": "Chad", "iso3": "TCD", "source": "HOTOSM/OSM", "latitude": 12.123713, "longitude": 15.071499 }, "geometry": { "type": "Point", "coordinates": [ 15.0714992, 12.1237131 ] } },
{ "type": "Feature", "properties": { "osm_id": 3196840985, "name": "Institut Superieur Polytchechnique", "amenity": "college", "building": null, "operator": "", "capacity": "", "addr_city": "", "country": "Chad", "iso3": "TCD", "source": "HOTOSM/OSM", "latitude": 12.093837, "longitude": 15.074865 }, "geometry": { "type": "Point", "coordinates": [ 15.0748649, 12.0938374 ] } },
{ "type": "Feature", "properties": { "osm_id": 4108111807, "name": "Lycée Fidélité", "amenity": "college", "building": null, "operator": "", "capacity": "", "addr_city": "", "country": "Chad", "iso3": "TCD", "source": "HOTOSM/OSM", "latitude": 12.13009, "longitude": 15.084887 }, "geometry": { "type": "Point", "coordinates": [ 15.084887, 12.1300901 ] } },
{ "type": "Feature", "properties": { "osm_id": 7510129493, "name": "Faculté des Sciences Exactes et Appliquées", "amenity": "university", "building": null, "operator": "", "capacity": "", "addr_city": "", "country": "Chad", "iso3": "TCD", "source": "HOTOSM/OSM", "latitude": 12.127764, "longitude": 15.000217 }, "geometry": { "type": "Point", "coordinates": [ 15.0002171, 12.1277635 ] } },
{ "type": "Feature", "properties": { "osm_id": 4146727700, "name": "Tchado-Turc (primaire, maternelle)", "amenity": "school", "building": null, "operator": "", "capacity": "", "addr_city": "", "country": "Chad", "iso3": "TCD", "source": "HOTOSM/OSM", "latitude": 12.11596, "longitude": 15.043046 }, "geometry": { "type": "Point", "coordinates": [ 15.0430456, 12.1159596 ] } },
{ "type": "Feature", "properties": { "osm_id": 2656221998, "name": "lycée-collège Évangélique الإنجيلية المدرسة الكلية", "amenity": "school", "building": null, "operator": "", "capacity": "", "addr_city": "", "country": "Chad", "iso3": "TCD", "source": "HOTOSM/OSM", "latitude": 12.09439, "longitude": 15.079062 }, "geometry": { "type": "Point", "coordinates": [ 15.0790624, 12.0943904 ] } },
{ "type": "Feature", "properties": { "osm_id": 3244752181, "name": "Ecole Primaire SOS مدرسة ابتدائية إس أو إس", "amenity": "school", "building": null, "operator": "", "capacity": "", "addr_city": "", "country": "Chad", "iso3": "TCD", "source": "HOTOSM/OSM", "latitude": 12.119632, "longitude": 15.094399 }, "geometry": { "type": "Point", "coordinates": [ 15.0943985, 12.1196318 ] } },
{ "type": "Feature", "properties": { "osm_id": 7188611965, "name": "École primaire de centre", "amenity": "school", "building": null, "operator": "", "capacity": "", "addr_city": "", "country": "Chad", "iso3": "TCD", "source": "HOTOSM/OSM", "latitude": 12.992954, "longitude": 15.731314 }, "geometry": { "type": "Point", "coordinates": [ 15.7313139, 12.9929535 ] } },
{ "type": "Feature", "properties": { "osm_id": 13236454364, "name": "Ecole primaire Alkifa", "amenity": "school", "building": null, "operator": "", "capacity": "", "addr_city": "", "country": "Chad", "iso3": "TCD", "source": "HOTOSM/OSM", "latitude": 12.150437, "longitude": 15.045174 }, "geometry": { "type": "Point", "coordinates": [ 15.045174, 12.1504366 ] } },
{ "type": "Feature", "properties": { "osm_id": 4602151992, "name": "جامعة الملك فيصل", "amenity": "school", "building": null, "operator": "", "capacity": "", "addr_city": "", "country": "Chad", "iso3": "TCD", "source": "HOTOSM/OSM", "latitude": 12.120443, "longitude": 15.065199 }, "geometry": { "type": "Point", "coordinates": [ 15.0651989, 12.1204428 ] } },
{ "type": "Feature", "properties": { "osm_id": 4308427723, "name": "Djarngandou", "amenity": "school", "building": null, "operator": "", "capacity": "", "addr_city": "", "country": "Chad", "iso3": "TCD", "source": "HOTOSM/OSM", "latitude": 13.474567, "longitude": 14.708217 }, "geometry": { "type": "Point", "coordinates": [ 14.7082167, 13.4745667 ] } },
{ "type": "Feature", "properties": { "osm_id": 1988436930, "name": "Pépinière حضانة", "amenity": "kindergarten", "building": null, "operator": "", "capacity": "", "addr_city": "", "country": "Chad", "iso3": "TCD", "source": "HOTOSM/OSM", "latitude": 7.933179, "longitude": 16.633078 }, "geometry": { "type": "Point", "coordinates": [ 16.6330777, 7.9331795 ] } },
{ "type": "Feature", "properties": { "osm_id": 10878757603, "name": "", "amenity": "college", "building": null, "operator": "", "capacity": "", "addr_city": "", "country": "Chad", "iso3": "TCD", "source": "HOTOSM/OSM", "latitude": 12.710055, "longitude": 22.15963 }, "geometry": { "type": "Point", "coordinates": [ 22.1596296, 12.7100549 ] } },
{ "type": "Feature", "properties": { "osm_id": 10879142423, "name": "مدرسة ارارا للبنات", "amenity": "college", "building": null, "operator": "", "capacity": "", "addr_city": "", "country": "Chad", "iso3": "TCD", "source": "HOTOSM/OSM", "latitude": 12.729463, "longitude": 22.165252 }, "geometry": { "type": "Point", "coordinates": [ 22.1652516, 12.7294634 ] } },
{ "type": "Feature", "properties": { "osm_id": 12525266024, "name": "École de Nohi", "amenity": "school", "building": null, "operator": "", "capacity": "", "addr_city": "", "country": "Chad", "iso3": "TCD", "source": "HOTOSM/OSM", "latitude": 16.849196, "longitude": 22.050264 }, "geometry": { "type": "Point", "coordinates": [ 22.050264, 16.849196 ] } },
{ "type": "Feature", "properties": { "osm_id": 7419639924, "name": "Ecole Zaraf de Farcha", "amenity": "school", "building": null, "operator": "", "capacity": "", "addr_city": "", "country": "Chad", "iso3": "TCD", "source": "HOTOSM/OSM", "latitude": 12.140188, "longitude": 14.961158 }, "geometry": { "type": "Point", "coordinates": [ 14.9611581, 12.1401883 ] } },
{ "type": "Feature", "properties": { "osm_id": 9585692220, "name": "Ecole Centre De Mongo", "amenity": "school", "building": null, "operator": "", "capacity": "", "addr_city": "", "country": "Chad", "iso3": "TCD", "source": "HOTOSM/OSM", "latitude": 12.181305, "longitude": 18.68299 }, "geometry": { "type": "Point", "coordinates": [ 18.6829895, 12.1813047 ] } },
{ "type": "Feature", "properties": { "osm_id": 13250222104, "name": "Maï Dounama de Mao", "amenity": "school", "building": null, "operator": "", "capacity": "", "addr_city": "", "country": "Chad", "iso3": "TCD", "source": "HOTOSM/OSM", "latitude": 14.11632, "longitude": 15.317711 }, "geometry": { "type": "Point", "coordinates": [ 15.3177105, 14.11632 ] } },
{ "type": "Feature", "properties": { "osm_id": 7325758688, "name": "Motoa", "amenity": "school", "building": null, "operator": "", "capacity": "", "addr_city": "", "country": "Chad", "iso3": "TCD", "source": "HOTOSM/OSM", "latitude": 13.678617, "longitude": 15.458877 }, "geometry": { "type": "Point", "coordinates": [ 15.4588771, 13.6786174 ] } },
{ "type": "Feature", "properties": { "osm_id": 2175939469, "name": "Ecole de Belom II", "amenity": "school", "building": null, "operator": "", "capacity": "", "addr_city": "", "country": "Chad", "iso3": "TCD", "source": "HOTOSM/OSM", "latitude": 8.433411, "longitude": 18.750857 }, "geometry": { "type": "Point", "coordinates": [ 18.7508573, 8.4334112 ] } },
{ "type": "Feature", "properties": { "osm_id": 7864963785, "name": "École Normale Supérieure", "amenity": "college", "building": null, "operator": "", "capacity": "", "addr_city": "", "country": "Chad", "iso3": "TCD", "source": "HOTOSM/OSM", "latitude": 12.100483, "longitude": 15.061387 }, "geometry": { "type": "Point", "coordinates": [ 15.0613868, 12.1004831 ] } },
{ "type": "Feature", "properties": { "osm_id": 2064966288, "name": "Ecole nomade de Kondjala المدرسة البدوية في كونجالا", "amenity": "school", "building": null, "operator": "", "capacity": "", "addr_city": "", "country": "Chad", "iso3": "TCD", "source": "HOTOSM/OSM", "latitude": 7.936028, "longitude": 16.618077 }, "geometry": { "type": "Point", "coordinates": [ 16.6180769, 7.9360284 ] } },
{ "type": "Feature", "properties": { "osm_id": 13348388982, "name": "CEG et Lycee Bilingue d'Amtiman", "amenity": "school", "building": null, "operator": "", "capacity": "", "addr_city": "", "country": "Chad", "iso3": "TCD", "source": "HOTOSM/OSM", "latitude": 11.041155, "longitude": 20.290067 }, "geometry": { "type": "Point", "coordinates": [ 20.290067, 11.0411553 ] } },
{ "type": "Feature", "properties": { "osm_id": 4383729089, "name": "مجمع مدارس النخبة الحديثة كسكومي", "amenity": "school", "building": null, "operator": "", "capacity": "", "addr_city": "", "country": "Chad", "iso3": "TCD", "source": "HOTOSM/OSM", "latitude": 12.129921, "longitude": 15.105553 }, "geometry": { "type": "Point", "coordinates": [ 15.1055531, 12.1299205 ] } },
{ "type": "Feature", "properties": { "osm_id": 13358939601, "name": "LYCEE - COLLÈGE \"SAINT JOSEPH DE KELO\"", "amenity": "school", "building": null, "operator": "", "capacity": "", "addr_city": "", "country": "Chad", "iso3": "TCD", "source": "HOTOSM/OSM", "latitude": 9.286156, "longitude": 15.79764 }, "geometry": { "type": "Point", "coordinates": [ 15.7976395, 9.2861558 ] } },
{ "type": "Feature", "properties": { "osm_id": 5729854312, "name": "قسم العلوم بجامعة الملك فيصل", "amenity": "university", "building": null, "operator": "", "capacity": "", "addr_city": "", "country": "Chad", "iso3": "TCD", "source": "HOTOSM/OSM", "latitude": 12.119087, "longitude": 15.065607 }, "geometry": { "type": "Point", "coordinates": [ 15.0656074, 12.1190873 ] } },
{ "type": "Feature", "properties": { "osm_id": 2124067346, "name": "", "amenity": "kindergarten", "building": null, "operator": "", "capacity": "", "addr_city": "", "country": "Chad", "iso3": "TCD", "source": "HOTOSM/OSM", "latitude": 7.951132, "longitude": 16.550325 }, "geometry": { "type": "Point", "coordinates": [ 16.5503246, 7.9511317 ] } },
{ "type": "Feature", "properties": { "osm_id": 11610246602, "name": "Complexe Scolaire Frère Polycarpe", "amenity": "school", "building": null, "operator": "", "capacity": "", "addr_city": "", "country": "Chad", "iso3": "TCD", "source": "HOTOSM/OSM", "latitude": 12.109336, "longitude": 15.138964 }, "geometry": { "type": "Point", "coordinates": [ 15.1389643, 12.1093357 ] } },
{ "type": "Feature", "properties": { "osm_id": 4308427724, "name": "أمل 1", "amenity": "school", "building": null, "operator": "", "capacity": "", "addr_city": "", "country": "Chad", "iso3": "TCD", "source": "HOTOSM/OSM", "latitude": 13.6244, "longitude": 14.293183 }, "geometry": { "type": "Point", "coordinates": [ 14.2931833, 13.6244 ] } },
{ "type": "Feature", "properties": { "osm_id": 4308427725, "name": "أمل 2", "amenity": "school", "building": null, "operator": "", "capacity": "", "addr_city": "", "country": "Chad", "iso3": "TCD", "source": "HOTOSM/OSM", "latitude": 13.618133, "longitude": 14.303683 }, "geometry": { "type": "Point", "coordinates": [ 14.3036833, 13.6181333 ] } },
{ "type": "Feature", "properties": { "osm_id": 2163801468, "name": "Institut ISCAM", "amenity": "university", "building": null, "operator": "", "capacity": "", "addr_city": "", "country": "Chad", "iso3": "TCD", "source": "HOTOSM/OSM", "latitude": 12.137929, "longitude": 15.054192 }, "geometry": { "type": "Point", "coordinates": [ 15.0541924, 12.1379293 ] } },
{ "type": "Feature", "properties": { "osm_id": 11445830569, "name": "Complexe Scolaire Luthérien Bethesda", "amenity": "school", "building": null, "operator": "", "capacity": "", "addr_city": "", "country": "Chad", "iso3": "TCD", "source": "HOTOSM/OSM", "latitude": 12.169385, "longitude": 14.980547 }, "geometry": { "type": "Point", "coordinates": [ 14.9805473, 12.1693852 ] } },
{ "type": "Feature", "properties": { "osm_id": 5594314606, "name": "Lycée Collège Saint Etienne(Amtoukoui)", "amenity": "school", "building": null, "operator": "", "capacity": "", "addr_city": "", "country": "Chad", "iso3": "TCD", "source": "HOTOSM/OSM", "latitude": 12.112039, "longitude": 15.105354 }, "geometry": { "type": "Point", "coordinates": [ 15.1053536, 12.1120393 ] } },
{ "type": "Feature", "properties": { "osm_id": 13205504126, "name": "Ecole Evangelique Americaine", "amenity": "school", "building": null, "operator": "", "capacity": "", "addr_city": "", "country": "Chad", "iso3": "TCD", "source": "HOTOSM/OSM", "latitude": 12.12873, "longitude": 15.07975 }, "geometry": { "type": "Point", "coordinates": [ 15.07975, 12.12873 ] } },
{ "type": "Feature", "properties": { "osm_id": 11399934269, "name": "ESTMG + COMPLEXE MOZART", "amenity": "school", "building": null, "operator": "", "capacity": "", "addr_city": "", "country": "Chad", "iso3": "TCD", "source": "HOTOSM/OSM", "latitude": 12.105552, "longitude": 15.089817 }, "geometry": { "type": "Point", "coordinates": [ 15.0898174, 12.1055518 ] } },
{ "type": "Feature", "properties": { "osm_id": 13206976197, "name": "Lycee de Maro", "amenity": "school", "building": null, "operator": "", "capacity": "", "addr_city": "", "country": "Chad", "iso3": "TCD", "source": "HOTOSM/OSM", "latitude": 8.43768, "longitude": 18.76856 }, "geometry": { "type": "Point", "coordinates": [ 18.76856, 8.43768 ] } },
{ "type": "Feature", "properties": { "osm_id": 13208934245, "name": "Lycee officiel de Massakory", "amenity": "school", "building": null, "operator": "", "capacity": "", "addr_city": "", "country": "Chad", "iso3": "TCD", "source": "HOTOSM/OSM", "latitude": 12.98502, "longitude": 15.72411 }, "geometry": { "type": "Point", "coordinates": [ 15.72411, 12.98502 ] } },
{ "type": "Feature", "properties": { "osm_id": 13250190701, "name": "École Foie et Joie de DJEGRE", "amenity": "school", "building": null, "operator": "", "capacity": "", "addr_city": "", "country": "Chad", "iso3": "TCD", "source": "HOTOSM/OSM", "latitude": 12.011042, "longitude": 18.208589 }, "geometry": { "type": "Point", "coordinates": [ 18.2085894, 12.0110422 ] } },
{ "type": "Feature", "properties": { "osm_id": 13250196001, "name": "École officielle de Djerkatché", "amenity": "school", "building": null, "operator": "", "capacity": "", "addr_city": "", "country": "Chad", "iso3": "TCD", "source": "HOTOSM/OSM", "latitude": 11.914826, "longitude": 18.15379 }, "geometry": { "type": "Point", "coordinates": [ 18.1537898, 11.9148257 ] } },
{ "type": "Feature", "properties": { "osm_id": 13250196901, "name": "Ecole officielle de MOUKOULOU", "amenity": "school", "building": null, "operator": "", "capacity": "", "addr_city": "", "country": "Chad", "iso3": "TCD", "source": "HOTOSM/OSM", "latitude": 11.882081, "longitude": 18.223096 }, "geometry": { "type": "Point", "coordinates": [ 18.2230956, 11.8820807 ] } },
{ "type": "Feature", "properties": { "osm_id": 6512168185, "name": "Kindjiria", "amenity": "school", "building": null, "operator": "", "capacity": "", "addr_city": "", "country": "Chad", "iso3": "TCD", "source": "HOTOSM/OSM", "latitude": 13.571343, "longitude": 15.406594 }, "geometry": { "type": "Point", "coordinates": [ 15.4065943, 13.571343 ] } },
{ "type": "Feature", "properties": { "osm_id": 13253657401, "name": "Ecole primaire de Mataya", "amenity": "school", "building": null, "operator": "", "capacity": "", "addr_city": "", "country": "Chad", "iso3": "TCD", "source": "HOTOSM/OSM", "latitude": 11.989239, "longitude": 18.052451 }, "geometry": { "type": "Point", "coordinates": [ 18.0524508, 11.9892387 ] } },
{ "type": "Feature", "properties": { "osm_id": 13253657501, "name": "\"HAROUN GODY DE MATAYA\"", "amenity": "school", "building": null, "operator": "", "capacity": "", "addr_city": "", "country": "Chad", "iso3": "TCD", "source": "HOTOSM/OSM", "latitude": 11.99005, "longitude": 18.051898 }, "geometry": { "type": "Point", "coordinates": [ 18.0518979, 11.9900496 ] } },
{ "type": "Feature", "properties": { "osm_id": 13253657502, "name": "CEG de TCHALO IDEBA", "amenity": "school", "building": null, "operator": "", "capacity": "", "addr_city": "", "country": "Chad", "iso3": "TCD", "source": "HOTOSM/OSM", "latitude": 12.019351, "longitude": 18.274163 }, "geometry": { "type": "Point", "coordinates": [ 18.2741627, 12.0193511 ] } },
{ "type": "Feature", "properties": { "osm_id": 6398331386, "name": "complexe scolaire cokam", "amenity": "school", "building": null, "operator": "", "capacity": "", "addr_city": "", "country": "Chad", "iso3": "TCD", "source": "HOTOSM/OSM", "latitude": 9.136539, "longitude": 18.399058 }, "geometry": { "type": "Point", "coordinates": [ 18.3990584, 9.1365395 ] } },
{ "type": "Feature", "properties": { "osm_id": 13257095801, "name": "École \"CHEIKH NAIM DE MELFI\"", "amenity": "school", "building": null, "operator": "", "capacity": "", "addr_city": "", "country": "Chad", "iso3": "TCD", "source": "HOTOSM/OSM", "latitude": 11.068965, "longitude": 17.934725 }, "geometry": { "type": "Point", "coordinates": [ 17.934725, 11.068965 ] } },
{ "type": "Feature", "properties": { "osm_id": 13257095901, "name": "CEG GOGMI", "amenity": "school", "building": null, "operator": "", "capacity": "", "addr_city": "", "country": "Chad", "iso3": "TCD", "source": "HOTOSM/OSM", "latitude": 11.187309, "longitude": 17.789184 }, "geometry": { "type": "Point", "coordinates": [ 17.7891841, 11.1873095 ] } },
{ "type": "Feature", "properties": { "osm_id": 9466915017, "name": "Ecole Primaire (Mackaye)", "amenity": "school", "building": null, "operator": "", "capacity": "", "addr_city": "", "country": "Chad", "iso3": "TCD", "source": "HOTOSM/OSM", "latitude": 13.499915, "longitude": 14.180935 }, "geometry": { "type": "Point", "coordinates": [ 14.1809347, 13.499915 ] } },
{ "type": "Feature", "properties": { "osm_id": 6372812589, "name": "FATEK", "amenity": "university", "building": null, "operator": "", "capacity": "", "addr_city": "", "country": "Chad", "iso3": "TCD", "source": "HOTOSM/OSM", "latitude": 9.251361, "longitude": 15.806612 }, "geometry": { "type": "Point", "coordinates": [ 15.806612, 9.2513615 ] } },
{ "type": "Feature", "properties": { "osm_id": 9259011517, "name": "Lycée de Bardaï", "amenity": "school", "building": null, "operator": "", "capacity": "", "addr_city": "", "country": "Chad", "iso3": "TCD", "source": "HOTOSM/OSM", "latitude": 21.350545, "longitude": 17.003408 }, "geometry": { "type": "Point", "coordinates": [ 17.0034083, 21.3505448 ] } },
{ "type": "Feature", "properties": { "osm_id": 4534970192, "name": "Lycée de Miséré", "amenity": "school", "building": null, "operator": "", "capacity": "", "addr_city": "", "country": "Chad", "iso3": "TCD", "source": "HOTOSM/OSM", "latitude": 9.634696, "longitude": 16.043683 }, "geometry": { "type": "Point", "coordinates": [ 16.0436826, 9.6346963 ] } },
{ "type": "Feature", "properties": { "osm_id": 8959874617, "name": "École SODELAC de", "amenity": "school", "building": null, "operator": "", "capacity": "", "addr_city": "", "country": "Chad", "iso3": "TCD", "source": "HOTOSM/OSM", "latitude": 13.540806, "longitude": 14.609594 }, "geometry": { "type": "Point", "coordinates": [ 14.6095938, 13.5408063 ] } },
{ "type": "Feature", "properties": { "osm_id": 12089558413, "name": "Africa Avenir School Complex", "amenity": "school", "building": null, "operator": "", "capacity": "", "addr_city": "", "country": "Chad", "iso3": "TCD", "source": "HOTOSM/OSM", "latitude": 12.034777, "longitude": 15.110623 }, "geometry": { "type": "Point", "coordinates": [ 15.1106228, 12.0347771 ] } },
{ "type": "Feature", "properties": { "osm_id": 13310661764, "name": "École Primaire de Kountigu", "amenity": "school", "building": null, "operator": "", "capacity": "", "addr_city": "", "country": "Chad", "iso3": "TCD", "source": "HOTOSM/OSM", "latitude": 14.694145, "longitude": 13.647975 }, "geometry": { "type": "Point", "coordinates": [ 13.6479755, 14.6941451 ] } },
{ "type": "Feature", "properties": { "osm_id": 11843175269, "name": "", "amenity": "school", "building": null, "operator": "", "capacity": "", "addr_city": "", "country": "Chad", "iso3": "TCD", "source": "HOTOSM/OSM", "latitude": 9.480151, "longitude": 16.359025 }, "geometry": { "type": "Point", "coordinates": [ 16.3590246, 9.4801513 ] } },
{ "type": "Feature", "properties": { "osm_id": 11374077569, "name": "Lycée & Collège Moderne \" LE PATROTE\"", "amenity": "school", "building": null, "operator": "", "capacity": "", "addr_city": "", "country": "Chad", "iso3": "TCD", "source": "HOTOSM/OSM", "latitude": 12.074134, "longitude": 15.075168 }, "geometry": { "type": "Point", "coordinates": [ 15.0751683, 12.0741341 ] } },
{ "type": "Feature", "properties": { "osm_id": 13281386744, "name": "Ecole des métiers d'administration et de commerce", "amenity": "college", "building": null, "operator": "", "capacity": "", "addr_city": "", "country": "Chad", "iso3": "TCD", "source": "HOTOSM/OSM", "latitude": 12.094921, "longitude": 15.079568 }, "geometry": { "type": "Point", "coordinates": [ 15.0795682, 12.094921 ] } },
{ "type": "Feature", "properties": { "osm_id": 5185841123, "name": "École primaire Bilabrine", "amenity": "school", "building": null, "operator": "", "capacity": "", "addr_city": "", "country": "Chad", "iso3": "TCD", "source": "HOTOSM/OSM", "latitude": 14.426202, "longitude": 13.417165 }, "geometry": { "type": "Point", "coordinates": [ 13.4171646, 14.4262022 ] } },
{ "type": "Feature", "properties": { "osm_id": 5363014522, "name": "Ecole Sœur", "amenity": "kindergarten", "building": null, "operator": "", "capacity": "", "addr_city": "", "country": "Chad", "iso3": "TCD", "source": "HOTOSM/OSM", "latitude": 12.102194, "longitude": 15.118876 }, "geometry": { "type": "Point", "coordinates": [ 15.1188756, 12.1021944 ] } },
{ "type": "Feature", "properties": { "osm_id": 11809192769, "name": "UAMI(Université Africaine de Management et l'innovation)", "amenity": "school", "building": null, "operator": "", "capacity": "", "addr_city": "", "country": "Chad", "iso3": "TCD", "source": "HOTOSM/OSM", "latitude": 12.093324, "longitude": 15.054598 }, "geometry": { "type": "Point", "coordinates": [ 15.0545976, 12.0933242 ] } },
{ "type": "Feature", "properties": { "osm_id": 11809192970, "name": "COMPLEXE SCOLAIRE \"FRÈRE-POLYCARPE\"", "amenity": "school", "building": null, "operator": "", "capacity": "", "addr_city": "", "country": "Chad", "iso3": "TCD", "source": "HOTOSM/OSM", "latitude": 12.108954, "longitude": 15.13903 }, "geometry": { "type": "Point", "coordinates": [ 15.1390301, 12.1089538 ] } },
{ "type": "Feature", "properties": { "osm_id": 13348321138, "name": "Ecole Darassalam (Patapata)", "amenity": "school", "building": null, "operator": "", "capacity": "", "addr_city": "", "country": "Chad", "iso3": "TCD", "source": "HOTOSM/OSM", "latitude": 11.027323, "longitude": 20.274265 }, "geometry": { "type": "Point", "coordinates": [ 20.2742655, 11.0273228 ] } },
{ "type": "Feature", "properties": { "osm_id": 11042885206, "name": "Complexe Scolaire \"AVOGADRO\"", "amenity": "school", "building": null, "operator": "", "capacity": "", "addr_city": "", "country": "Chad", "iso3": "TCD", "source": "HOTOSM/OSM", "latitude": 12.082253, "longitude": 15.142501 }, "geometry": { "type": "Point", "coordinates": [ 15.1425012, 12.0822531 ] } },
{ "type": "Feature", "properties": { "osm_id": 11042886905, "name": "Université Emi Koussi (campus de Gassi)", "amenity": "school", "building": null, "operator": "", "capacity": "", "addr_city": "", "country": "Chad", "iso3": "TCD", "source": "HOTOSM/OSM", "latitude": 12.082223, "longitude": 15.139808 }, "geometry": { "type": "Point", "coordinates": [ 15.1398083, 12.0822231 ] } },
{ "type": "Feature", "properties": { "osm_id": 11042887106, "name": "Lycée Hérédité (Compartiment de Gassi)", "amenity": "school", "building": null, "operator": "", "capacity": "", "addr_city": "", "country": "Chad", "iso3": "TCD", "source": "HOTOSM/OSM", "latitude": 12.077844, "longitude": 15.141626 }, "geometry": { "type": "Point", "coordinates": [ 15.1416262, 12.0778441 ] } },
{ "type": "Feature", "properties": { "osm_id": 11042887107, "name": "COMPLEXE SCOLAIRE \"LA NOUVELLE GÉNÉRATION  PLUS\"", "amenity": "school", "building": null, "operator": "", "capacity": "", "addr_city": "", "country": "Chad", "iso3": "TCD", "source": "HOTOSM/OSM", "latitude": 12.087446, "longitude": 15.138604 }, "geometry": { "type": "Point", "coordinates": [ 15.1386043, 12.0874457 ] } },
{ "type": "Feature", "properties": { "osm_id": 5685120360, "name": "Sinje Central Mission School", "amenity": "school", "building": null, "operator": "", "capacity": "", "addr_city": "", "country": "Chad", "iso3": "TCD", "source": "HOTOSM/OSM", "latitude": 8.940917, "longitude": 17.3157 }, "geometry": { "type": "Point", "coordinates": [ 17.3157, 8.9409167 ] } },
{ "type": "Feature", "properties": { "osm_id": 10937165605, "name": "École primaire de", "amenity": "school", "building": null, "operator": "", "capacity": "", "addr_city": "", "country": "Chad", "iso3": "TCD", "source": "HOTOSM/OSM", "latitude": 9.392116, "longitude": 14.626741 }, "geometry": { "type": "Point", "coordinates": [ 14.6267415, 9.3921163 ] } },
{ "type": "Feature", "properties": { "osm_id": 10936470105, "name": "École Centre de Gagal", "amenity": "school", "building": null, "operator": "", "capacity": "", "addr_city": "", "country": "Chad", "iso3": "TCD", "source": "HOTOSM/OSM", "latitude": 9.021977, "longitude": 15.130015 }, "geometry": { "type": "Point", "coordinates": [ 15.1300147, 9.0219771 ] } },
{ "type": "Feature", "properties": { "osm_id": 10936470107, "name": "Ecole Djani", "amenity": "school", "building": null, "operator": "", "capacity": "", "addr_city": "", "country": "Chad", "iso3": "TCD", "source": "HOTOSM/OSM", "latitude": 9.027643, "longitude": 15.136029 }, "geometry": { "type": "Point", "coordinates": [ 15.1360295, 9.0276434 ] } },
{ "type": "Feature", "properties": { "osm_id": 10936470605, "name": "École primaire de Dari", "amenity": "school", "building": null, "operator": "", "capacity": "", "addr_city": "", "country": "Chad", "iso3": "TCD", "source": "HOTOSM/OSM", "latitude": 9.107569, "longitude": 14.577587 }, "geometry": { "type": "Point", "coordinates": [ 14.5775874, 9.1075687 ] } },
{ "type": "Feature", "properties": { "osm_id": 10936470705, "name": "Lycée-Collège de Dari", "amenity": "school", "building": null, "operator": "", "capacity": "", "addr_city": "", "country": "Chad", "iso3": "TCD", "source": "HOTOSM/OSM", "latitude": 9.109706, "longitude": 14.577086 }, "geometry": { "type": "Point", "coordinates": [ 14.5770856, 9.1097061 ] } },
{ "type": "Feature", "properties": { "osm_id": 10936471105, "name": "École Officielle de Bissi-Mafou Centre", "amenity": "school", "building": null, "operator": "", "capacity": "", "addr_city": "", "country": "Chad", "iso3": "TCD", "source": "HOTOSM/OSM", "latitude": 9.380699, "longitude": 14.618245 }, "geometry": { "type": "Point", "coordinates": [ 14.6182446, 9.3806994 ] } },