{
"type": "FeatureCollection",
"name": "YEM_schools",
"crs": { "type": "name", "properties": { "name": "urn:ogc:def:crs:OGC:1.3:CRS84" } },
"features": [
{ "type": "Feature", "properties": { "osm_id": 8576300472, "name": "", "amenity": "school", "building": null, "operator": "", "capacity": "", "addr_city": "", "country": "Yemen", "iso3": "YEM", "source": "HOTOSM/OSM", "latitude": 14.809529, "longitude": 45.719336 }, "geometry": { "type": "Point", "coordinates": [ 45.7193363, 14.8095292 ] } },
{ "type": "Feature", "properties": { "osm_id": 7581330285, "name": "عمر ابن الخطاب", "amenity": "school", "building": null, "operator": "", "capacity": "", "addr_city": "", "country": "Yemen", "iso3": "YEM", "source": "HOTOSM/OSM", "latitude": 15.417153, "longitude": 44.124334 }, "geometry": { "type": "Point", "coordinates": [ 44.1243338, 15.4171527 ] } },
{ "type": "Feature", "properties": { "osm_id": 5037550725, "name": "معهد لان تك", "amenity": "school", "building": null, "operator": "", "capacity": "", "addr_city": "", "country": "Yemen", "iso3": "YEM", "source": "HOTOSM/OSM", "latitude": 14.799413, "longitude": 42.946012 }, "geometry": { "type": "Point", "coordinates": [ 42.9460123, 14.7994131 ] } },
{ "type": "Feature", "properties": { "osm_id": 5031234521, "name": "مدرسة الشافعي الاهلية", "amenity": "school", "building": null, "operator": "", "capacity": "", "addr_city": "", "country": "Yemen", "iso3": "YEM", "source": "HOTOSM/OSM", "latitude": 14.804103, "longitude": 42.975183 }, "geometry": { "type": "Point", "coordinates": [ 42.9751825, 14.8041033 ] } },
{ "type": "Feature", "properties": { "osm_id": 8061839986, "name": "مدرسة نسيبة بنت كعب", "amenity": "school", "building": null, "operator": "", "capacity": "", "addr_city": "", "country": "Yemen", "iso3": "YEM", "source": "HOTOSM/OSM", "latitude": 15.725386, "longitude": 43.030266 }, "geometry": { "type": "Point", "coordinates": [ 43.0302661, 15.7253856 ] } },
{ "type": "Feature", "properties": { "osm_id": 5693736021, "name": "مدرسة المليانة بني طيبة", "amenity": "school", "building": null, "operator": "", "capacity": "", "addr_city": "", "country": "Yemen", "iso3": "YEM", "source": "HOTOSM/OSM", "latitude": 14.484866, "longitude": 44.114762 }, "geometry": { "type": "Point", "coordinates": [ 44.1147616, 14.484866 ] } },
{ "type": "Feature", "properties": { "osm_id": 8383195318, "name": "مدارس الجزيرة فرع البنين", "amenity": "school", "building": null, "operator": "", "capacity": "", "addr_city": "", "country": "Yemen", "iso3": "YEM", "source": "HOTOSM/OSM", "latitude": 15.304368, "longitude": 44.192551 }, "geometry": { "type": "Point", "coordinates": [ 44.1925507, 15.3043679 ] } },
{ "type": "Feature", "properties": { "osm_id": 7524076385, "name": "مدرسة أزال ( حدة)", "amenity": "school", "building": null, "operator": "", "capacity": "", "addr_city": "", "country": "Yemen", "iso3": "YEM", "source": "HOTOSM/OSM", "latitude": 15.306658, "longitude": 44.191063 }, "geometry": { "type": "Point", "coordinates": [ 44.1910628, 15.3066583 ] } },
{ "type": "Feature", "properties": { "osm_id": 7294968596, "name": "مدرسة أزال", "amenity": "school", "building": null, "operator": "", "capacity": "", "addr_city": "", "country": "Yemen", "iso3": "YEM", "source": "HOTOSM/OSM", "latitude": 15.30764, "longitude": 44.19423 }, "geometry": { "type": "Point", "coordinates": [ 44.19423, 15.30764 ] } },
{ "type": "Feature", "properties": { "osm_id": 5878121444, "name": "مدرسة وديان حدة", "amenity": "school", "building": null, "operator": "", "capacity": "", "addr_city": "", "country": "Yemen", "iso3": "YEM", "source": "HOTOSM/OSM", "latitude": 15.327757, "longitude": 44.18598 }, "geometry": { "type": "Point", "coordinates": [ 44.1859798, 15.3277566 ] } },
{ "type": "Feature", "properties": { "osm_id": 5043695721, "name": "مدرسة النصر حمر", "amenity": "school", "building": null, "operator": "", "capacity": "", "addr_city": "", "country": "Yemen", "iso3": "YEM", "source": "HOTOSM/OSM", "latitude": 15.217161, "longitude": 43.902696 }, "geometry": { "type": "Point", "coordinates": [ 43.9026959, 15.2171609 ] } },
{ "type": "Feature", "properties": { "osm_id": 4182490189, "name": "مدرسة الصديق", "amenity": "school", "building": null, "operator": "", "capacity": "", "addr_city": "", "country": "Yemen", "iso3": "YEM", "source": "HOTOSM/OSM", "latitude": 15.34059, "longitude": 44.165781 }, "geometry": { "type": "Point", "coordinates": [ 44.1657806, 15.3405895 ] } },
{ "type": "Feature", "properties": { "osm_id": 4182443493, "name": "مدرسة ام هاني للبنات", "amenity": "school", "building": null, "operator": "", "capacity": "", "addr_city": "", "country": "Yemen", "iso3": "YEM", "source": "HOTOSM/OSM", "latitude": 15.343882, "longitude": 44.16658 }, "geometry": { "type": "Point", "coordinates": [ 44.1665804, 15.343882 ] } },
{ "type": "Feature", "properties": { "osm_id": 6937218347, "name": "المعهد العلمي العالي", "amenity": "college", "building": null, "operator": "", "capacity": "", "addr_city": "", "country": "Yemen", "iso3": "YEM", "source": "HOTOSM/OSM", "latitude": 16.937837, "longitude": 43.754204 }, "geometry": { "type": "Point", "coordinates": [ 43.754204, 16.937837 ] } },
{ "type": "Feature", "properties": { "osm_id": 5878121448, "name": "كلية الهندسة", "amenity": "college", "building": null, "operator": "", "capacity": "", "addr_city": "", "country": "Yemen", "iso3": "YEM", "source": "HOTOSM/OSM", "latitude": 15.326434, "longitude": 44.184876 }, "geometry": { "type": "Point", "coordinates": [ 44.1848757, 15.3264336 ] } },
{ "type": "Feature", "properties": { "osm_id": 5070410521, "name": "كلية الشرطة", "amenity": "college", "building": null, "operator": "", "capacity": "", "addr_city": "", "country": "Yemen", "iso3": "YEM", "source": "HOTOSM/OSM", "latitude": 15.341916, "longitude": 44.207064 }, "geometry": { "type": "Point", "coordinates": [ 44.207064, 15.341916 ] } },
{ "type": "Feature", "properties": { "osm_id": 6022377620, "name": "جامعة الحضارة", "amenity": "university", "building": null, "operator": "", "capacity": "", "addr_city": "", "country": "Yemen", "iso3": "YEM", "source": "HOTOSM/OSM", "latitude": 15.310648, "longitude": 44.194553 }, "geometry": { "type": "Point", "coordinates": [ 44.1945529, 15.3106484 ] } },
{ "type": "Feature", "properties": { "osm_id": 4182443191, "name": "جامعة سبأ", "amenity": "university", "building": null, "operator": "", "capacity": "", "addr_city": "", "country": "Yemen", "iso3": "YEM", "source": "HOTOSM/OSM", "latitude": 15.343806, "longitude": 44.168472 }, "geometry": { "type": "Point", "coordinates": [ 44.168472, 15.3438058 ] } },
{ "type": "Feature", "properties": { "osm_id": 3773070279, "name": "مدرسة الفتح", "amenity": null, "building": "school", "operator": "", "capacity": "", "addr_city": "", "country": "Yemen", "iso3": "YEM", "source": "HOTOSM/OSM", "latitude": 15.463588, "longitude": 44.234938 }, "geometry": { "type": "Point", "coordinates": [ 44.2349378, 15.4635884 ] } },
{ "type": "Feature", "properties": { "osm_id": 3777088318, "name": "مدرسة شهداء الجوية للبنات", "amenity": null, "building": "school", "operator": "", "capacity": "", "addr_city": "", "country": "Yemen", "iso3": "YEM", "source": "HOTOSM/OSM", "latitude": 15.445929, "longitude": 44.219821 }, "geometry": { "type": "Point", "coordinates": [ 44.2198209, 15.445929 ] } },
{ "type": "Feature", "properties": { "osm_id": 5792789999, "name": "مدرسة الدحل", "amenity": "school", "building": null, "operator": "", "capacity": "", "addr_city": "", "country": "Yemen", "iso3": "YEM", "source": "HOTOSM/OSM", "latitude": 16.7157, "longitude": 44.8915 }, "geometry": { "type": "Point", "coordinates": [ 44.8915, 16.7157 ] } },
{ "type": "Feature", "properties": { "osm_id": 5009368123, "name": "مدرسة الأمجاد الأهلية-حدة", "amenity": "school", "building": null, "operator": "", "capacity": "", "addr_city": "", "country": "Yemen", "iso3": "YEM", "source": "HOTOSM/OSM", "latitude": 15.332455, "longitude": 44.185581 }, "geometry": { "type": "Point", "coordinates": [ 44.1855807, 15.332455 ] } },
{ "type": "Feature", "properties": { "osm_id": 9706384266, "name": "مدرسة الإمام الشوكاني", "amenity": "school", "building": null, "operator": "", "capacity": "", "addr_city": "", "country": "Yemen", "iso3": "YEM", "source": "HOTOSM/OSM", "latitude": 13.74704, "longitude": 44.105909 }, "geometry": { "type": "Point", "coordinates": [ 44.1059093, 13.7470402 ] } },
{ "type": "Feature", "properties": { "osm_id": 6172848885, "name": "مدرسة صالح قاسم للبنات", "amenity": "school", "building": null, "operator": "", "capacity": "", "addr_city": "", "country": "Yemen", "iso3": "YEM", "source": "HOTOSM/OSM", "latitude": 13.705201, "longitude": 44.735084 }, "geometry": { "type": "Point", "coordinates": [ 44.7350842, 13.705201 ] } },
{ "type": "Feature", "properties": { "osm_id": 6172847501, "name": "مدرسة أساسية", "amenity": "school", "building": null, "operator": "", "capacity": "", "addr_city": "", "country": "Yemen", "iso3": "YEM", "source": "HOTOSM/OSM", "latitude": 13.699536, "longitude": 44.728433 }, "geometry": { "type": "Point", "coordinates": [ 44.7284331, 13.6995356 ] } },
{ "type": "Feature", "properties": { "osm_id": 6670056188, "name": "اميدست", "amenity": "college", "building": null, "operator": "", "capacity": "", "addr_city": "", "country": "Yemen", "iso3": "YEM", "source": "HOTOSM/OSM", "latitude": 15.336128, "longitude": 44.187229 }, "geometry": { "type": "Point", "coordinates": [ 44.1872293, 15.336128 ] } },
{ "type": "Feature", "properties": { "osm_id": 7725482380, "name": "مبنى الإدارة الرئيسي لجامعة الملكة أروى", "amenity": "college", "building": null, "operator": "", "capacity": "", "addr_city": "", "country": "Yemen", "iso3": "YEM", "source": "HOTOSM/OSM", "latitude": 15.325791, "longitude": 44.186078 }, "geometry": { "type": "Point", "coordinates": [ 44.1860775, 15.3257907 ] } },
{ "type": "Feature", "properties": { "osm_id": 1841773468, "name": "", "amenity": "school", "building": null, "operator": "", "capacity": "", "addr_city": "", "country": "Yemen", "iso3": "YEM", "source": "HOTOSM/OSM", "latitude": 14.545757, "longitude": 49.128196 }, "geometry": { "type": "Point", "coordinates": [ 49.1281961, 14.5457574 ] } },
{ "type": "Feature", "properties": { "osm_id": 1841773470, "name": "", "amenity": "school", "building": null, "operator": "", "capacity": "", "addr_city": "", "country": "Yemen", "iso3": "YEM", "source": "HOTOSM/OSM", "latitude": 14.546551, "longitude": 49.128379 }, "geometry": { "type": "Point", "coordinates": [ 49.1283792, 14.5465512 ] } },
{ "type": "Feature", "properties": { "osm_id": 8390154717, "name": "مجمع الأمل التربوي", "amenity": "school", "building": null, "operator": "", "capacity": "", "addr_city": "", "country": "Yemen", "iso3": "YEM", "source": "HOTOSM/OSM", "latitude": 14.223559, "longitude": 44.582676 }, "geometry": { "type": "Point", "coordinates": [ 44.5826755, 14.2235587 ] } },
{ "type": "Feature", "properties": { "osm_id": 4701257490, "name": "مدرسة الشهيد الاحمر", "amenity": "school", "building": null, "operator": "", "capacity": "", "addr_city": "", "country": "Yemen", "iso3": "YEM", "source": "HOTOSM/OSM", "latitude": 15.389889, "longitude": 44.216162 }, "geometry": { "type": "Point", "coordinates": [ 44.2161621, 15.3898887 ] } },
{ "type": "Feature", "properties": { "osm_id": 1841773447, "name": "", "amenity": "school", "building": null, "operator": "", "capacity": "", "addr_city": "", "country": "Yemen", "iso3": "YEM", "source": "HOTOSM/OSM", "latitude": 14.545182, "longitude": 49.128484 }, "geometry": { "type": "Point", "coordinates": [ 49.1284835, 14.5451825 ] } },
{ "type": "Feature", "properties": { "osm_id": 8386603619, "name": "قاعة الفرنسي", "amenity": "college", "building": null, "operator": "", "capacity": "", "addr_city": "", "country": "Yemen", "iso3": "YEM", "source": "HOTOSM/OSM", "latitude": 14.576779, "longitude": 44.378389 }, "geometry": { "type": "Point", "coordinates": [ 44.3783891, 14.5767789 ] } },
{ "type": "Feature", "properties": { "osm_id": 8386604517, "name": "كلية الحاسبات ونظم المعلومات", "amenity": "college", "building": null, "operator": "", "capacity": "", "addr_city": "", "country": "Yemen", "iso3": "YEM", "source": "HOTOSM/OSM", "latitude": 14.580036, "longitude": 44.375503 }, "geometry": { "type": "Point", "coordinates": [ 44.3755032, 14.5800362 ] } },
{ "type": "Feature", "properties": { "osm_id": 1841773510, "name": "", "amenity": "university", "building": null, "operator": "", "capacity": "", "addr_city": "", "country": "Yemen", "iso3": "YEM", "source": "HOTOSM/OSM", "latitude": 14.550311, "longitude": 49.115185 }, "geometry": { "type": "Point", "coordinates": [ 49.115185, 14.550311 ] } },
{ "type": "Feature", "properties": { "osm_id": 1841773519, "name": "", "amenity": "university", "building": null, "operator": "", "capacity": "", "addr_city": "", "country": "Yemen", "iso3": "YEM", "source": "HOTOSM/OSM", "latitude": 14.550716, "longitude": 49.115904 }, "geometry": { "type": "Point", "coordinates": [ 49.1159039, 14.550716 ] } },
{ "type": "Feature", "properties": { "osm_id": 6111334685, "name": "مدرسة أسماء للبنات", "amenity": "school", "building": null, "operator": "", "capacity": "", "addr_city": "", "country": "Yemen", "iso3": "YEM", "source": "HOTOSM/OSM", "latitude": 13.975408, "longitude": 44.190813 }, "geometry": { "type": "Point", "coordinates": [ 44.1908126, 13.9754082 ] } },
{ "type": "Feature", "properties": { "osm_id": 12538705811, "name": "روضة ومدرسة رؤيتي", "amenity": "school", "building": null, "operator": "", "capacity": "", "addr_city": "", "country": "Yemen", "iso3": "YEM", "source": "HOTOSM/OSM", "latitude": 15.307101, "longitude": 44.200963 }, "geometry": { "type": "Point", "coordinates": [ 44.2009627, 15.3071011 ] } },
{ "type": "Feature", "properties": { "osm_id": 8758254955, "name": "", "amenity": "school", "building": null, "operator": "", "capacity": "", "addr_city": "", "country": "Yemen", "iso3": "YEM", "source": "HOTOSM/OSM", "latitude": 15.027701, "longitude": 47.93328 }, "geometry": { "type": "Point", "coordinates": [ 47.9332799, 15.0277015 ] } },
{ "type": "Feature", "properties": { "osm_id": 8757716691, "name": "", "amenity": "school", "building": null, "operator": "", "capacity": "", "addr_city": "", "country": "Yemen", "iso3": "YEM", "source": "HOTOSM/OSM", "latitude": 14.792925, "longitude": 49.760269 }, "geometry": { "type": "Point", "coordinates": [ 49.7602695, 14.7929246 ] } },
{ "type": "Feature", "properties": { "osm_id": 8764566516, "name": "", "amenity": "school", "building": null, "operator": "", "capacity": "", "addr_city": "", "country": "Yemen", "iso3": "YEM", "source": "HOTOSM/OSM", "latitude": 13.839179, "longitude": 45.964876 }, "geometry": { "type": "Point", "coordinates": [ 45.9648764, 13.839179 ] } },
{ "type": "Feature", "properties": { "osm_id": 8764832187, "name": "", "amenity": "school", "building": null, "operator": "", "capacity": "", "addr_city": "", "country": "Yemen", "iso3": "YEM", "source": "HOTOSM/OSM", "latitude": 14.06241, "longitude": 46.920344 }, "geometry": { "type": "Point", "coordinates": [ 46.9203436, 14.0624096 ] } },
{ "type": "Feature", "properties": { "osm_id": 10675647423, "name": "", "amenity": "school", "building": null, "operator": "", "capacity": "", "addr_city": "", "country": "Yemen", "iso3": "YEM", "source": "HOTOSM/OSM", "latitude": 14.69711, "longitude": 49.021715 }, "geometry": { "type": "Point", "coordinates": [ 49.0217149, 14.6971096 ] } },
{ "type": "Feature", "properties": { "osm_id": 7062915714, "name": "", "amenity": "school", "building": null, "operator": "", "capacity": "", "addr_city": "", "country": "Yemen", "iso3": "YEM", "source": "HOTOSM/OSM", "latitude": 14.749397, "longitude": 48.991776 }, "geometry": { "type": "Point", "coordinates": [ 48.9917761, 14.7493971 ] } },
{ "type": "Feature", "properties": { "osm_id": 7058214247, "name": "", "amenity": "school", "building": null, "operator": "", "capacity": "", "addr_city": "", "country": "Yemen", "iso3": "YEM", "source": "HOTOSM/OSM", "latitude": 14.133923, "longitude": 48.652997 }, "geometry": { "type": "Point", "coordinates": [ 48.652997, 14.1339226 ] } },
{ "type": "Feature", "properties": { "osm_id": 8295567744, "name": "", "amenity": "school", "building": null, "operator": "", "capacity": "", "addr_city": "", "country": "Yemen", "iso3": "YEM", "source": "HOTOSM/OSM", "latitude": 14.953238, "longitude": 49.414675 }, "geometry": { "type": "Point", "coordinates": [ 49.4146746, 14.9532381 ] } },
{ "type": "Feature", "properties": { "osm_id": 6680458277, "name": "", "amenity": "school", "building": null, "operator": "", "capacity": "", "addr_city": "", "country": "Yemen", "iso3": "YEM", "source": "HOTOSM/OSM", "latitude": 14.85564, "longitude": 49.802324 }, "geometry": { "type": "Point", "coordinates": [ 49.8023236, 14.8556401 ] } },
{ "type": "Feature", "properties": { "osm_id": 8522229895, "name": "", "amenity": "school", "building": null, "operator": "", "capacity": "", "addr_city": "", "country": "Yemen", "iso3": "YEM", "source": "HOTOSM/OSM", "latitude": 15.214414, "longitude": 48.320918 }, "geometry": { "type": "Point", "coordinates": [ 48.3209181, 15.2144137 ] } },
{ "type": "Feature", "properties": { "osm_id": 8211379417, "name": "مدرسة الشيخ سليمان سعيد بقشان خيلة بقشان", "amenity": "school", "building": null, "operator": "", "capacity": "", "addr_city": "", "country": "Yemen", "iso3": "YEM", "source": "HOTOSM/OSM", "latitude": 15.217947, "longitude": 48.386815 }, "geometry": { "type": "Point", "coordinates": [ 48.3868154, 15.2179472 ] } },
{ "type": "Feature", "properties": { "osm_id": 6718116200, "name": "ثانوية البنات", "amenity": "school", "building": null, "operator": "", "capacity": "", "addr_city": "", "country": "Yemen", "iso3": "YEM", "source": "HOTOSM/OSM", "latitude": 14.909345, "longitude": 49.990952 }, "geometry": { "type": "Point", "coordinates": [ 49.9909516, 14.9093448 ] } },
{ "type": "Feature", "properties": { "osm_id": 6718116219, "name": "مدرسة خالد بن الوليد", "amenity": "school", "building": null, "operator": "", "capacity": "", "addr_city": "", "country": "Yemen", "iso3": "YEM", "source": "HOTOSM/OSM", "latitude": 14.908755, "longitude": 49.9911 }, "geometry": { "type": "Point", "coordinates": [ 49.9911003, 14.9087552 ] } },
{ "type": "Feature", "properties": { "osm_id": 6718116209, "name": "مدرسة عمر بن عبدالعزيز", "amenity": "school", "building": null, "operator": "", "capacity": "", "addr_city": "", "country": "Yemen", "iso3": "YEM", "source": "HOTOSM/OSM", "latitude": 14.90808, "longitude": 49.991005 }, "geometry": { "type": "Point", "coordinates": [ 49.9910051, 14.9080798 ] } },
{ "type": "Feature", "properties": { "osm_id": 4597363266, "name": "", "amenity": "school", "building": null, "operator": "", "capacity": "", "addr_city": "", "country": "Yemen", "iso3": "YEM", "source": "HOTOSM/OSM", "latitude": 14.910009, "longitude": 49.946907 }, "geometry": { "type": "Point", "coordinates": [ 49.9469069, 14.9100094 ] } },
{ "type": "Feature", "properties": { "osm_id": 7575126276, "name": "", "amenity": "school", "building": null, "operator": "", "capacity": "", "addr_city": "", "country": "Yemen", "iso3": "YEM", "source": "HOTOSM/OSM", "latitude": 14.895126, "longitude": 49.982992 }, "geometry": { "type": "Point", "coordinates": [ 49.9829918, 14.8951263 ] } },
{ "type": "Feature", "properties": { "osm_id": 8295567400, "name": "", "amenity": "school", "building": null, "operator": "", "capacity": "", "addr_city": "", "country": "Yemen", "iso3": "YEM", "source": "HOTOSM/OSM", "latitude": 15.150403, "longitude": 49.074056 }, "geometry": { "type": "Point", "coordinates": [ 49.0740555, 15.150403 ] } },
{ "type": "Feature", "properties": { "osm_id": 4358692791, "name": "مدرسة جيل الثورة", "amenity": "school", "building": null, "operator": "", "capacity": "", "addr_city": "", "country": "Yemen", "iso3": "YEM", "source": "HOTOSM/OSM", "latitude": 14.538186, "longitude": 49.125776 }, "geometry": { "type": "Point", "coordinates": [ 49.1257764, 14.5381856 ] } },
{ "type": "Feature", "properties": { "osm_id": 4319622138, "name": "مدارس الصدارة الحديثة", "amenity": "school", "building": null, "operator": "", "capacity": "", "addr_city": "", "country": "Yemen", "iso3": "YEM", "source": "HOTOSM/OSM", "latitude": 14.558674, "longitude": 49.137579 }, "geometry": { "type": "Point", "coordinates": [ 49.1375793, 14.5586739 ] } },
{ "type": "Feature", "properties": { "osm_id": 4226493089, "name": "مدرسة الجماهير", "amenity": "school", "building": null, "operator": "", "capacity": "", "addr_city": "", "country": "Yemen", "iso3": "YEM", "source": "HOTOSM/OSM", "latitude": 14.532196, "longitude": 49.126349 }, "geometry": { "type": "Point", "coordinates": [ 49.1263489, 14.5321959 ] } },
{ "type": "Feature", "properties": { "osm_id": 4269169591, "name": "Arrdod primary school", "amenity": "school", "building": null, "operator": "", "capacity": "", "addr_city": "", "country": "Yemen", "iso3": "YEM", "source": "HOTOSM/OSM", "latitude": 15.868851, "longitude": 49.018243 }, "geometry": { "type": "Point", "coordinates": [ 49.0182427, 15.8688511 ] } },
{ "type": "Feature", "properties": { "osm_id": 4298021174, "name": "روضة الامل", "amenity": "school", "building": null, "operator": "", "capacity": "", "addr_city": "", "country": "Yemen", "iso3": "YEM", "source": "HOTOSM/OSM", "latitude": 15.841838, "longitude": 48.457193 }, "geometry": { "type": "Point", "coordinates": [ 48.4571928, 15.8418375 ] } },
{ "type": "Feature", "properties": { "osm_id": 8761472116, "name": "", "amenity": "school", "building": null, "operator": "", "capacity": "", "addr_city": "", "country": "Yemen", "iso3": "YEM", "source": "HOTOSM/OSM", "latitude": 13.807255, "longitude": 45.774257 }, "geometry": { "type": "Point", "coordinates": [ 45.7742572, 13.8072553 ] } },
{ "type": "Feature", "properties": { "osm_id": 8761472144, "name": "", "amenity": "school", "building": null, "operator": "", "capacity": "", "addr_city": "", "country": "Yemen", "iso3": "YEM", "source": "HOTOSM/OSM", "latitude": 13.798699, "longitude": 45.887594 }, "geometry": { "type": "Point", "coordinates": [ 45.8875939, 13.7986987 ] } },
{ "type": "Feature", "properties": { "osm_id": 8764576141, "name": "", "amenity": "school", "building": null, "operator": "", "capacity": "", "addr_city": "", "country": "Yemen", "iso3": "YEM", "source": "HOTOSM/OSM", "latitude": 13.683428, "longitude": 45.865668 }, "geometry": { "type": "Point", "coordinates": [ 45.8656681, 13.6834278 ] } },
{ "type": "Feature", "properties": { "osm_id": 8529721657, "name": "مدرسة ثبي للتعليم الأساسي بنات", "amenity": "school", "building": null, "operator": "", "capacity": "", "addr_city": "", "country": "Yemen", "iso3": "YEM", "source": "HOTOSM/OSM", "latitude": 16.022515, "longitude": 48.987168 }, "geometry": { "type": "Point", "coordinates": [ 48.9871681, 16.0225147 ] } },
{ "type": "Feature", "properties": { "osm_id": 6080667388, "name": "عمر بن عبدالعزيز", "amenity": "school", "building": null, "operator": "", "capacity": "", "addr_city": "", "country": "Yemen", "iso3": "YEM", "source": "HOTOSM/OSM", "latitude": 15.233249, "longitude": 43.797033 }, "geometry": { "type": "Point", "coordinates": [ 43.7970331, 15.2332485 ] } },
{ "type": "Feature", "properties": { "osm_id": 4298024863, "name": "مدرسه", "amenity": "school", "building": null, "operator": "", "capacity": "", "addr_city": "", "country": "Yemen", "iso3": "YEM", "source": "HOTOSM/OSM", "latitude": 14.773348, "longitude": 49.266245 }, "geometry": { "type": "Point", "coordinates": [ 49.2662448, 14.7733483 ] } },
{ "type": "Feature", "properties": { "osm_id": 8733527986, "name": "", "amenity": "school", "building": null, "operator": "", "capacity": "", "addr_city": "", "country": "Yemen", "iso3": "YEM", "source": "HOTOSM/OSM", "latitude": 14.787785, "longitude": 49.388199 }, "geometry": { "type": "Point", "coordinates": [ 49.3881986, 14.7877849 ] } },
{ "type": "Feature", "properties": { "osm_id": 8309071617, "name": "جديدة", "amenity": "school", "building": null, "operator": "", "capacity": "", "addr_city": "", "country": "Yemen", "iso3": "YEM", "source": "HOTOSM/OSM", "latitude": 15.081733, "longitude": 43.265787 }, "geometry": { "type": "Point", "coordinates": [ 43.2657871, 15.0817327 ] } },
{ "type": "Feature", "properties": { "osm_id": 8295567606, "name": "", "amenity": "school", "building": null, "operator": "", "capacity": "", "addr_city": "", "country": "Yemen", "iso3": "YEM", "source": "HOTOSM/OSM", "latitude": 15.004769, "longitude": 49.495881 }, "geometry": { "type": "Point", "coordinates": [ 49.4958812, 15.0047693 ] } },
{ "type": "Feature", "properties": { "osm_id": 8285674718, "name": "شهداء البطحة والقلفان", "amenity": "school", "building": null, "operator": "", "capacity": "", "addr_city": "", "country": "Yemen", "iso3": "YEM", "source": "HOTOSM/OSM", "latitude": 15.295948, "longitude": 44.263171 }, "geometry": { "type": "Point", "coordinates": [ 44.2631713, 15.2959484 ] } },
{ "type": "Feature", "properties": { "osm_id": 4700329700, "name": "مدرسه باحميش الطويله", "amenity": "school", "building": null, "operator": "", "capacity": "", "addr_city": "", "country": "Yemen", "iso3": "YEM", "source": "HOTOSM/OSM", "latitude": 12.776175, "longitude": 45.029493 }, "geometry": { "type": "Point", "coordinates": [ 45.0294928, 12.7761749 ] } },
{ "type": "Feature", "properties": { "osm_id": 10589179493, "name": "مدرسة", "amenity": "school", "building": null, "operator": "", "capacity": "", "addr_city": "", "country": "Yemen", "iso3": "YEM", "source": "HOTOSM/OSM", "latitude": 15.447363, "longitude": 44.068717 }, "geometry": { "type": "Point", "coordinates": [ 44.0687167, 15.4473633 ] } },
{ "type": "Feature", "properties": { "osm_id": 6045098989, "name": "مدرسة ودار الأيتام", "amenity": "school", "building": null, "operator": "", "capacity": "", "addr_city": "", "country": "Yemen", "iso3": "YEM", "source": "HOTOSM/OSM", "latitude": 14.797373, "longitude": 42.9617 }, "geometry": { "type": "Point", "coordinates": [ 42.9617002, 14.7973726 ] } },
{ "type": "Feature", "properties": { "osm_id": 5124728370, "name": "مدرسة عمار بن ياسر", "amenity": "school", "building": null, "operator": "", "capacity": "", "addr_city": "", "country": "Yemen", "iso3": "YEM", "source": "HOTOSM/OSM", "latitude": 14.806458, "longitude": 42.950133 }, "geometry": { "type": "Point", "coordinates": [ 42.9501331, 14.8064579 ] } },
{ "type": "Feature", "properties": { "osm_id": 10589269111, "name": "مدرسة", "amenity": "school", "building": null, "operator": "", "capacity": "", "addr_city": "", "country": "Yemen", "iso3": "YEM", "source": "HOTOSM/OSM", "latitude": 15.468728, "longitude": 44.013052 }, "geometry": { "type": "Point", "coordinates": [ 44.0130517, 15.4687283 ] } },
{ "type": "Feature", "properties": { "osm_id": 8245834795, "name": "مدرسه. النور", "amenity": "school", "building": null, "operator": "", "capacity": "", "addr_city": "", "country": "Yemen", "iso3": "YEM", "source": "HOTOSM/OSM", "latitude": 15.123717, "longitude": 44.362238 }, "geometry": { "type": "Point", "coordinates": [ 44.3622382, 15.1237175 ] } },
{ "type": "Feature", "properties": { "osm_id": 4298023873, "name": "Hadhramout University", "amenity": "college", "building": null, "operator": "", "capacity": "", "addr_city": "", "country": "Yemen", "iso3": "YEM", "source": "HOTOSM/OSM", "latitude": 14.484963, "longitude": 49.04549 }, "geometry": { "type": "Point", "coordinates": [ 49.0454903, 14.4849635 ] } },
{ "type": "Feature", "properties": { "osm_id": 6045098590, "name": "كلية الطب والعلوم الصحية", "amenity": "college", "building": null, "operator": "", "capacity": "", "addr_city": "", "country": "Yemen", "iso3": "YEM", "source": "HOTOSM/OSM", "latitude": 14.762349, "longitude": 42.958157 }, "geometry": { "type": "Point", "coordinates": [ 42.9581566, 14.7623494 ] } },
{ "type": "Feature", "properties": { "osm_id": 6042600701, "name": "كلية الهندسة جامعة الحديدة", "amenity": "college", "building": null, "operator": "", "capacity": "", "addr_city": "", "country": "Yemen", "iso3": "YEM", "source": "HOTOSM/OSM", "latitude": 14.804688, "longitude": 42.995492 }, "geometry": { "type": "Point", "coordinates": [ 42.9954922, 14.8046884 ] } },
{ "type": "Feature", "properties": { "osm_id": 12279251582, "name": "جامعة الرشيد الذكية", "amenity": "university", "building": null, "operator": "", "capacity": "", "addr_city": "", "country": "Yemen", "iso3": "YEM", "source": "HOTOSM/OSM", "latitude": 15.295532, "longitude": 44.199944 }, "geometry": { "type": "Point", "coordinates": [ 44.1999437, 15.2955319 ] } },
{ "type": "Feature", "properties": { "osm_id": 3804211975, "name": "مدرسة المطرح- بني إسحاق", "amenity": null, "building": "school", "operator": "", "capacity": "", "addr_city": "", "country": "Yemen", "iso3": "YEM", "source": "HOTOSM/OSM", "latitude": 15.055806, "longitude": 43.604792 }, "geometry": { "type": "Point", "coordinates": [ 43.6047922, 15.0558057 ] } },
{ "type": "Feature", "properties": { "osm_id": 3798774686, "name": "مدرسة الخير - الرام أعبوس", "amenity": null, "building": "school", "operator": "", "capacity": "", "addr_city": "", "country": "Yemen", "iso3": "YEM", "source": "HOTOSM/OSM", "latitude": 13.276412, "longitude": 44.264518 }, "geometry": { "type": "Point", "coordinates": [ 44.2645178, 13.2764121 ] } },
{ "type": "Feature", "properties": { "osm_id": 3798776270, "name": "مدرسة المحبوب - أغابرة", "amenity": null, "building": "school", "operator": "", "capacity": "", "addr_city": "", "country": "Yemen", "iso3": "YEM", "source": "HOTOSM/OSM", "latitude": 13.291518, "longitude": 44.273111 }, "geometry": { "type": "Point", "coordinates": [ 44.2731113, 13.2915181 ] } },
{ "type": "Feature", "properties": { "osm_id": 4990833737, "name": "مركز اعادة تأهيل الأطفال", "amenity": "kindergarten", "building": null, "operator": "", "capacity": "", "addr_city": "", "country": "Yemen", "iso3": "YEM", "source": "HOTOSM/OSM", "latitude": 15.299658, "longitude": 44.186168 }, "geometry": { "type": "Point", "coordinates": [ 44.1861677, 15.2996577 ] } },
{ "type": "Feature", "properties": { "osm_id": 8194110117, "name": "مدرسة كوكب العلوم", "amenity": "school", "building": null, "operator": "", "capacity": "", "addr_city": "", "country": "Yemen", "iso3": "YEM", "source": "HOTOSM/OSM", "latitude": 15.432375, "longitude": 44.213097 }, "geometry": { "type": "Point", "coordinates": [ 44.2130972, 15.4323748 ] } },
{ "type": "Feature", "properties": { "osm_id": 8194117719, "name": "مدرسة كوكب العلوم", "amenity": "school", "building": null, "operator": "", "capacity": "", "addr_city": "", "country": "Yemen", "iso3": "YEM", "source": "HOTOSM/OSM", "latitude": 15.432489, "longitude": 44.213106 }, "geometry": { "type": "Point", "coordinates": [ 44.2131058, 15.432489 ] } },
{ "type": "Feature", "properties": { "osm_id": 11906531469, "name": "مدرسة خوله", "amenity": "school", "building": null, "operator": "", "capacity": "", "addr_city": "", "country": "Yemen", "iso3": "YEM", "source": "HOTOSM/OSM", "latitude": 13.931645, "longitude": 43.477594 }, "geometry": { "type": "Point", "coordinates": [ 43.4775942, 13.931645 ] } },
{ "type": "Feature", "properties": { "osm_id": 7434458985, "name": "مدرسة الرويشان", "amenity": "school", "building": null, "operator": "", "capacity": "", "addr_city": "", "country": "Yemen", "iso3": "YEM", "source": "HOTOSM/OSM", "latitude": 13.85335, "longitude": 44.700547 }, "geometry": { "type": "Point", "coordinates": [ 44.700547, 13.8533504 ] } },
{ "type": "Feature", "properties": { "osm_id": 5895667784, "name": "الجامعة الدولية", "amenity": "university", "building": null, "operator": "", "capacity": "", "addr_city": "", "country": "Yemen", "iso3": "YEM", "source": "HOTOSM/OSM", "latitude": 15.360433, "longitude": 44.186076 }, "geometry": { "type": "Point", "coordinates": [ 44.1860755, 15.3604333 ] } },
{ "type": "Feature", "properties": { "osm_id": 5984702969, "name": "", "amenity": "school", "building": null, "operator": "", "capacity": "", "addr_city": "", "country": "Yemen", "iso3": "YEM", "source": "HOTOSM/OSM", "latitude": 15.041943, "longitude": 50.235516 }, "geometry": { "type": "Point", "coordinates": [ 50.2355164, 15.0419434 ] } },
{ "type": "Feature", "properties": { "osm_id": 4298022634, "name": "مدرسه الشهداء", "amenity": "school", "building": null, "operator": "", "capacity": "", "addr_city": "", "country": "Yemen", "iso3": "YEM", "source": "HOTOSM/OSM", "latitude": 15.310534, "longitude": 48.332319 }, "geometry": { "type": "Point", "coordinates": [ 48.3323195, 15.3105343 ] } },
{ "type": "Feature", "properties": { "osm_id": 4298024816, "name": "ثانوية المصموم", "amenity": "school", "building": null, "operator": "", "capacity": "", "addr_city": "", "country": "Yemen", "iso3": "YEM", "source": "HOTOSM/OSM", "latitude": 15.322299, "longitude": 48.331828 }, "geometry": { "type": "Point", "coordinates": [ 48.3318277, 15.3222987 ] } },
{ "type": "Feature", "properties": { "osm_id": 6542205687, "name": "مدرسه المظاربه راس العاره", "amenity": "school", "building": null, "operator": "", "capacity": "", "addr_city": "", "country": "Yemen", "iso3": "YEM", "source": "HOTOSM/OSM", "latitude": 12.734431, "longitude": 43.666432 }, "geometry": { "type": "Point", "coordinates": [ 43.6664322, 12.7344313 ] } },
{ "type": "Feature", "properties": { "osm_id": 8059190586, "name": "مدرسة الزهرة", "amenity": "school", "building": null, "operator": "", "capacity": "", "addr_city": "", "country": "Yemen", "iso3": "YEM", "source": "HOTOSM/OSM", "latitude": 15.722575, "longitude": 42.996908 }, "geometry": { "type": "Point", "coordinates": [ 42.996908, 15.7225753 ] } },
{ "type": "Feature", "properties": { "osm_id": 8079391323, "name": "جامعة العلوم والتكنولوجيا - تعز", "amenity": "university", "building": null, "operator": "", "capacity": "", "addr_city": "", "country": "Yemen", "iso3": "YEM", "source": "HOTOSM/OSM", "latitude": 13.582956, "longitude": 44.001081 }, "geometry": { "type": "Point", "coordinates": [ 44.0010806, 13.5829561 ] } },
{ "type": "Feature", "properties": { "osm_id": 4472852320, "name": "مدرسة بغداد", "amenity": "school", "building": null, "operator": "", "capacity": "", "addr_city": "", "country": "Yemen", "iso3": "YEM", "source": "HOTOSM/OSM", "latitude": 15.343052, "longitude": 44.185655 }, "geometry": { "type": "Point", "coordinates": [ 44.1856548, 15.3430521 ] } },
{ "type": "Feature", "properties": { "osm_id": 4642673495, "name": "مدرسة الحمزة بعولة", "amenity": "school", "building": null, "operator": "", "capacity": "", "addr_city": "", "country": "Yemen", "iso3": "YEM", "source": "HOTOSM/OSM", "latitude": 14.682437, "longitude": 43.699822 }, "geometry": { "type": "Point", "coordinates": [ 43.699822, 14.6824369 ] } },
{ "type": "Feature", "properties": { "osm_id": 11888485080, "name": "", "amenity": "school", "building": null, "operator": "", "capacity": "", "addr_city": "", "country": "Yemen", "iso3": "YEM", "source": "HOTOSM/OSM", "latitude": 15.006768, "longitude": 45.314537 }, "geometry": { "type": "Point", "coordinates": [ 45.3145373, 15.0067681 ] } },
{ "type": "Feature", "properties": { "osm_id": 5787976825, "name": "مدرسة النصر", "amenity": "school", "building": null, "operator": "", "capacity": "", "addr_city": "", "country": "Yemen", "iso3": "YEM", "source": "HOTOSM/OSM", "latitude": 13.298105, "longitude": 44.366122 }, "geometry": { "type": "Point", "coordinates": [ 44.3661221, 13.2981052 ] } },
{ "type": "Feature", "properties": { "osm_id": 5863037785, "name": "كلية طب الاسنان", "amenity": "college", "building": null, "operator": "", "capacity": "", "addr_city": "", "country": "Yemen", "iso3": "YEM", "source": "HOTOSM/OSM", "latitude": 14.542359, "longitude": 44.415474 }, "geometry": { "type": "Point", "coordinates": [ 44.4154741, 14.5423589 ] } },
{ "type": "Feature", "properties": { "osm_id": 11875933016, "name": "", "amenity": "school", "building": null, "operator": "", "capacity": "", "addr_city": "", "country": "Yemen", "iso3": "YEM", "source": "HOTOSM/OSM", "latitude": 14.944316, "longitude": 45.462882 }, "geometry": { "type": "Point", "coordinates": [ 45.4628822, 14.9443158 ] } },
{ "type": "Feature", "properties": { "osm_id": 5760514122, "name": "مدرسة سبأ", "amenity": "school", "building": null, "operator": "", "capacity": "", "addr_city": "", "country": "Yemen", "iso3": "YEM", "source": "HOTOSM/OSM", "latitude": 13.755323, "longitude": 44.13339 }, "geometry": { "type": "Point", "coordinates": [ 44.1333904, 13.7553233 ] } },
{ "type": "Feature", "properties": { "osm_id": 5751843031, "name": "مدرسة النور", "amenity": "school", "building": null, "operator": "", "capacity": "", "addr_city": "", "country": "Yemen", "iso3": "YEM", "source": "HOTOSM/OSM", "latitude": 13.252797, "longitude": 45.28474 }, "geometry": { "type": "Point", "coordinates": [ 45.2847397, 13.2527974 ] } },
{ "type": "Feature", "properties": { "osm_id": 7933834932, "name": "", "amenity": "school", "building": null, "operator": "", "capacity": "", "addr_city": "", "country": "Yemen", "iso3": "YEM", "source": "HOTOSM/OSM", "latitude": 14.029952, "longitude": 48.12612 }, "geometry": { "type": "Point", "coordinates": [ 48.12612, 14.0299521 ] } },
{ "type": "Feature", "properties": { "osm_id": 4532786189, "name": "مدارس المثالية التربوية", "amenity": "school", "building": null, "operator": "", "capacity": "", "addr_city": "", "country": "Yemen", "iso3": "YEM", "source": "HOTOSM/OSM", "latitude": 15.3166, "longitude": 44.227241 }, "geometry": { "type": "Point", "coordinates": [ 44.2272414, 15.3166004 ] } },
{ "type": "Feature", "properties": { "osm_id": 3777130962, "name": "مدرسة التعاون", "amenity": "school", "building": null, "operator": "", "capacity": "", "addr_city": "", "country": "Yemen", "iso3": "YEM", "source": "HOTOSM/OSM", "latitude": 15.44348, "longitude": 44.230107 }, "geometry": { "type": "Point", "coordinates": [ 44.2301071, 15.4434803 ] } },
{ "type": "Feature", "properties": { "osm_id": 4263194294, "name": "مدرسة بيرزاهر", "amenity": "school", "building": null, "operator": "", "capacity": "", "addr_city": "", "country": "Yemen", "iso3": "YEM", "source": "HOTOSM/OSM", "latitude": 15.524988, "longitude": 44.252623 }, "geometry": { "type": "Point", "coordinates": [ 44.2526227, 15.5249877 ] } },
{ "type": "Feature", "properties": { "osm_id": 4401651194, "name": "مدرسة الميثاق", "amenity": "school", "building": null, "operator": "", "capacity": "", "addr_city": "", "country": "Yemen", "iso3": "YEM", "source": "HOTOSM/OSM", "latitude": 15.366211, "longitude": 44.192117 }, "geometry": { "type": "Point", "coordinates": [ 44.1921171, 15.3662112 ] } },
{ "type": "Feature", "properties": { "osm_id": 7277051685, "name": "مجمع الشيخ عبدالله سعيد بقشان", "amenity": "school", "building": null, "operator": "", "capacity": "", "addr_city": "", "country": "Yemen", "iso3": "YEM", "source": "HOTOSM/OSM", "latitude": 15.229168, "longitude": 48.373105 }, "geometry": { "type": "Point", "coordinates": [ 48.3731052, 15.229168 ] } },
{ "type": "Feature", "properties": { "osm_id": 5207579126, "name": "مدرسة الامام زيد الشاطبي", "amenity": "school", "building": null, "operator": "", "capacity": "", "addr_city": "", "country": "Yemen", "iso3": "YEM", "source": "HOTOSM/OSM", "latitude": 15.231473, "longitude": 44.31111 }, "geometry": { "type": "Point", "coordinates": [ 44.3111104, 15.2314726 ] } },
{ "type": "Feature", "properties": { "osm_id": 4354420301, "name": "مدرسة الطبري", "amenity": "school", "building": null, "operator": "", "capacity": "", "addr_city": "", "country": "Yemen", "iso3": "YEM", "source": "HOTOSM/OSM", "latitude": 15.357238, "longitude": 44.209422 }, "geometry": { "type": "Point", "coordinates": [ 44.209422, 15.3572376 ] } },
{ "type": "Feature", "properties": { "osm_id": 5678355324, "name": "مدرسة الجهارنة الكميم الحداء تنفيذ مشروع الاشغال العامة", "amenity": "school", "building": null, "operator": "", "capacity": "", "addr_city": "", "country": "Yemen", "iso3": "YEM", "source": "HOTOSM/OSM", "latitude": 14.962394, "longitude": 44.363099 }, "geometry": { "type": "Point", "coordinates": [ 44.3630987, 14.9623943 ] } },
{ "type": "Feature", "properties": { "osm_id": 4298024888, "name": "ثانوية صيرة", "amenity": "school", "building": null, "operator": "", "capacity": "", "addr_city": "", "country": "Yemen", "iso3": "YEM", "source": "HOTOSM/OSM", "latitude": 12.781348, "longitude": 45.041113 }, "geometry": { "type": "Point", "coordinates": [ 45.041113, 12.781348 ] } },
{ "type": "Feature", "properties": { "osm_id": 11866313301, "name": "", "amenity": "school", "building": null, "operator": "", "capacity": "", "addr_city": "", "country": "Yemen", "iso3": "YEM", "source": "HOTOSM/OSM", "latitude": 14.671225, "longitude": 45.508722 }, "geometry": { "type": "Point", "coordinates": [ 45.5087225, 14.6712246 ] } },
{ "type": "Feature", "properties": { "osm_id": 11866315480, "name": "", "amenity": "school", "building": null, "operator": "", "capacity": "", "addr_city": "", "country": "Yemen", "iso3": "YEM", "source": "HOTOSM/OSM", "latitude": 14.719052, "longitude": 45.640777 }, "geometry": { "type": "Point", "coordinates": [ 45.640777, 14.7190524 ] } },
{ "type": "Feature", "properties": { "osm_id": 11866316184, "name": "", "amenity": "school", "building": null, "operator": "", "capacity": "", "addr_city": "", "country": "Yemen", "iso3": "YEM", "source": "HOTOSM/OSM", "latitude": 14.698442, "longitude": 45.622281 }, "geometry": { "type": "Point", "coordinates": [ 45.6222805, 14.6984419 ] } },
{ "type": "Feature", "properties": { "osm_id": 11866316500, "name": "", "amenity": "school", "building": null, "operator": "", "capacity": "", "addr_city": "", "country": "Yemen", "iso3": "YEM", "source": "HOTOSM/OSM", "latitude": 14.68827, "longitude": 45.607936 }, "geometry": { "type": "Point", "coordinates": [ 45.6079361, 14.6882702 ] } },
{ "type": "Feature", "properties": { "osm_id": 11865596969, "name": "", "amenity": "school", "building": null, "operator": "", "capacity": "", "addr_city": "", "country": "Yemen", "iso3": "YEM", "source": "HOTOSM/OSM", "latitude": 14.673889, "longitude": 45.606952 }, "geometry": { "type": "Point", "coordinates": [ 45.6069517, 14.6738894 ] } },
{ "type": "Feature", "properties": { "osm_id": 11865597395, "name": "", "amenity": "school", "building": null, "operator": "", "capacity": "", "addr_city": "", "country": "Yemen", "iso3": "YEM", "source": "HOTOSM/OSM", "latitude": 14.580252, "longitude": 45.532472 }, "geometry": { "type": "Point", "coordinates": [ 45.5324721, 14.5802517 ] } },
{ "type": "Feature", "properties": { "osm_id": 11865509902, "name": "", "amenity": "school", "building": null, "operator": "", "capacity": "", "addr_city": "", "country": "Yemen", "iso3": "YEM", "source": "HOTOSM/OSM", "latitude": 14.554645, "longitude": 45.519759 }, "geometry": { "type": "Point", "coordinates": [ 45.5197585, 14.554645 ] } },
{ "type": "Feature", "properties": { "osm_id": 11865548003, "name": "", "amenity": "school", "building": null, "operator": "", "capacity": "", "addr_city": "", "country": "Yemen", "iso3": "YEM", "source": "HOTOSM/OSM", "latitude": 14.494678, "longitude": 45.561881 }, "geometry": { "type": "Point", "coordinates": [ 45.5618812, 14.4946778 ] } },
{ "type": "Feature", "properties": { "osm_id": 6938694985, "name": "كلية الهندسة - جامعة عدن", "amenity": "college", "building": null, "operator": "", "capacity": "", "addr_city": "", "country": "Yemen", "iso3": "YEM", "source": "HOTOSM/OSM", "latitude": 12.84803, "longitude": 44.91727 }, "geometry": { "type": "Point", "coordinates": [ 44.91727, 12.8480303 ] } },
{ "type": "Feature", "properties": { "osm_id": 4298022444, "name": "Alsaeed Islamic Science College", "amenity": "college", "building": null, "operator": "", "capacity": "", "addr_city": "", "country": "Yemen", "iso3": "YEM", "source": "HOTOSM/OSM", "latitude": 13.589702, "longitude": 44.015522 }, "geometry": { "type": "Point", "coordinates": [ 44.015522, 13.589702 ] } },
{ "type": "Feature", "properties": { "osm_id": 5673912123, "name": "جامعة الحكمة", "amenity": "college", "building": null, "operator": "", "capacity": "", "addr_city": "", "country": "Yemen", "iso3": "YEM", "source": "HOTOSM/OSM", "latitude": 15.365108, "longitude": 44.192321 }, "geometry": { "type": "Point", "coordinates": [ 44.1923209, 15.3651082 ] } },
{ "type": "Feature", "properties": { "osm_id": 5164066422, "name": "مركز المبدعون للهندسة", "amenity": "college", "building": null, "operator": "", "capacity": "", "addr_city": "", "country": "Yemen", "iso3": "YEM", "source": "HOTOSM/OSM", "latitude": 15.307171, "longitude": 44.242122 }, "geometry": { "type": "Point", "coordinates": [ 44.2421216, 15.3071706 ] } },
{ "type": "Feature", "properties": { "osm_id": 4323043827, "name": "معهد مالي", "amenity": "university", "building": null, "operator": "", "capacity": "", "addr_city": "", "country": "Yemen", "iso3": "YEM", "source": "HOTOSM/OSM", "latitude": 12.808977, "longitude": 45.030697 }, "geometry": { "type": "Point", "coordinates": [ 45.0306967, 12.8089774 ] } },
{ "type": "Feature", "properties": { "osm_id": 4323043829, "name": "معهد امديست", "amenity": "university", "building": null, "operator": "", "capacity": "", "addr_city": "", "country": "Yemen", "iso3": "YEM", "source": "HOTOSM/OSM", "latitude": 12.808659, "longitude": 45.031407 }, "geometry": { "type": "Point", "coordinates": [ 45.0314072, 12.8086591 ] } },
{ "type": "Feature", "properties": { "osm_id": 3030216039, "name": "مدرسة الثورة الأساسية", "amenity": null, "building": "school", "operator": "", "capacity": "", "addr_city": "", "country": "Yemen", "iso3": "YEM", "source": "HOTOSM/OSM", "latitude": 14.933455, "longitude": 45.499245 }, "geometry": { "type": "Point", "coordinates": [ 45.4992446, 14.9334552 ] } },
{ "type": "Feature", "properties": { "osm_id": 3777190325, "name": "رئاسة جامعة صنعاء", "amenity": null, "building": "university", "operator": "", "capacity": "", "addr_city": "", "country": "Yemen", "iso3": "YEM", "source": "HOTOSM/OSM", "latitude": 15.36916, "longitude": 44.185897 }, "geometry": { "type": "Point", "coordinates": [ 44.1858966, 15.3691605 ] } },
{ "type": "Feature", "properties": { "osm_id": 11857398969, "name": "مدرسة الفوز 3", "amenity": "school", "building": null, "operator": "", "capacity": "", "addr_city": "", "country": "Yemen", "iso3": "YEM", "source": "HOTOSM/OSM", "latitude": 14.861858, "longitude": 43.23458 }, "geometry": { "type": "Point", "coordinates": [ 43.2345805, 14.8618584 ] } },
{ "type": "Feature", "properties": { "osm_id": 11857400469, "name": "مدرسة الفوز 4", "amenity": "school", "building": null, "operator": "", "capacity": "", "addr_city": "", "country": "Yemen", "iso3": "YEM", "source": "HOTOSM/OSM", "latitude": 14.861821, "longitude": 43.234567 }, "geometry": { "type": "Point", "coordinates": [ 43.2345672, 14.8618208 ] } },
{ "type": "Feature", "properties": { "osm_id": 6573169087, "name": "مدرسة فرسان اليمن", "amenity": "school", "building": null, "operator": "", "capacity": "", "addr_city": "", "country": "Yemen", "iso3": "YEM", "source": "HOTOSM/OSM", "latitude": 15.399829, "longitude": 44.154635 }, "geometry": { "type": "Point", "coordinates": [ 44.1546347, 15.3998293 ] } },
{ "type": "Feature", "properties": { "osm_id": 11857396569, "name": "مدرسة الفوز", "amenity": "school", "building": null, "operator": "", "capacity": "", "addr_city": "", "country": "Yemen", "iso3": "YEM", "source": "HOTOSM/OSM", "latitude": 14.861756, "longitude": 43.234507 }, "geometry": { "type": "Point", "coordinates": [ 43.234507, 14.8617564 ] } },
{ "type": "Feature", "properties": { "osm_id": 11857397369, "name": "مدرسة الفوز 2", "amenity": "school", "building": null, "operator": "", "capacity": "", "addr_city": "", "country": "Yemen", "iso3": "YEM", "source": "HOTOSM/OSM", "latitude": 14.86178, "longitude": 43.234468 }, "geometry": { "type": "Point", "coordinates": [ 43.2344685, 14.8617802 ] } },
{ "type": "Feature", "properties": { "osm_id": 6936517920, "name": "مدرسة القادسية", "amenity": "school", "building": null, "operator": "", "capacity": "", "addr_city": "", "country": "Yemen", "iso3": "YEM", "source": "HOTOSM/OSM", "latitude": 13.485907, "longitude": 44.022532 }, "geometry": { "type": "Point", "coordinates": [ 44.0225324, 13.4859072 ] } },
{ "type": "Feature", "properties": { "osm_id": 6937224454, "name": "المدرسة البيطرة", "amenity": "school", "building": null, "operator": "", "capacity": "", "addr_city": "", "country": "Yemen", "iso3": "YEM", "source": "HOTOSM/OSM", "latitude": 15.37674, "longitude": 44.208291 }, "geometry": { "type": "Point", "coordinates": [ 44.208291, 15.37674 ] } },
{ "type": "Feature", "properties": { "osm_id": 7888998691, "name": "مدرسة السلام زنم", "amenity": "school", "building": null, "operator": "", "capacity": "", "addr_city": "", "country": "Yemen", "iso3": "YEM", "source": "HOTOSM/OSM", "latitude": 13.479535, "longitude": 44.02728 }, "geometry": { "type": "Point", "coordinates": [ 44.0272796, 13.4795349 ] } },
{ "type": "Feature", "properties": { "osm_id": 11840880767, "name": "", "amenity": "school", "building": null, "operator": "", "capacity": "", "addr_city": "", "country": "Yemen", "iso3": "YEM", "source": "HOTOSM/OSM", "latitude": 14.638465, "longitude": 45.675423 }, "geometry": { "type": "Point", "coordinates": [ 45.6754231, 14.6384646 ] } },
{ "type": "Feature", "properties": { "osm_id": 8848836225, "name": "", "amenity": "school", "building": null, "operator": "", "capacity": "", "addr_city": "", "country": "Yemen", "iso3": "YEM", "source": "HOTOSM/OSM", "latitude": 13.998352, "longitude": 45.339374 }, "geometry": { "type": "Point", "coordinates": [ 45.3393745, 13.9983525 ] } },
{ "type": "Feature", "properties": { "osm_id": 8848836749, "name": "", "amenity": "school", "building": null, "operator": "", "capacity": "", "addr_city": "", "country": "Yemen", "iso3": "YEM", "source": "HOTOSM/OSM", "latitude": 13.980333, "longitude": 45.369737 }, "geometry": { "type": "Point", "coordinates": [ 45.3697371, 13.9803333 ] } },
{ "type": "Feature", "properties": { "osm_id": 8848837294, "name": "", "amenity": "school", "building": null, "operator": "", "capacity": "", "addr_city": "", "country": "Yemen", "iso3": "YEM", "source": "HOTOSM/OSM", "latitude": 13.932593, "longitude": 45.227201 }, "geometry": { "type": "Point", "coordinates": [ 45.2272015, 13.9325934 ] } },
{ "type": "Feature", "properties": { "osm_id": 7205596785, "name": "مدارس أنوار العلى", "amenity": "school", "building": null, "operator": "", "capacity": "", "addr_city": "", "country": "Yemen", "iso3": "YEM", "source": "HOTOSM/OSM", "latitude": 15.407607, "longitude": 44.159698 }, "geometry": { "type": "Point", "coordinates": [ 44.159698, 15.4076066 ] } },
{ "type": "Feature", "properties": { "osm_id": 7294950957, "name": "مدرسة الفاروق", "amenity": "school", "building": null, "operator": "", "capacity": "", "addr_city": "", "country": "Yemen", "iso3": "YEM", "source": "HOTOSM/OSM", "latitude": 15.374332, "longitude": 44.211901 }, "geometry": { "type": "Point", "coordinates": [ 44.2119008, 15.3743317 ] } },
{ "type": "Feature", "properties": { "osm_id": 8836344958, "name": "", "amenity": "school", "building": null, "operator": "", "capacity": "", "addr_city": "", "country": "Yemen", "iso3": "YEM", "source": "HOTOSM/OSM", "latitude": 13.714465, "longitude": 46.089041 }, "geometry": { "type": "Point", "coordinates": [ 46.0890412, 13.7144651 ] } },
{ "type": "Feature", "properties": { "osm_id": 5407378886, "name": "مدرسة ال عقار", "amenity": "school", "building": null, "operator": "", "capacity": "", "addr_city": "", "country": "Yemen", "iso3": "YEM", "source": "HOTOSM/OSM", "latitude": 15.450184, "longitude": 45.422951 }, "geometry": { "type": "Point", "coordinates": [ 45.4229506, 15.4501841 ] } },
{ "type": "Feature", "properties": { "osm_id": 11825217104, "name": "", "amenity": "school", "building": null, "operator": "", "capacity": "", "addr_city": "", "country": "Yemen", "iso3": "YEM", "source": "HOTOSM/OSM", "latitude": 14.137643, "longitude": 45.815464 }, "geometry": { "type": "Point", "coordinates": [ 45.815464, 14.1376434 ] } },
{ "type": "Feature", "properties": { "osm_id": 11825043896, "name": "", "amenity": "school", "building": null, "operator": "", "capacity": "", "addr_city": "", "country": "Yemen", "iso3": "YEM", "source": "HOTOSM/OSM", "latitude": 14.093655, "longitude": 45.748717 }, "geometry": { "type": "Point", "coordinates": [ 45.7487172, 14.0936554 ] } },
{ "type": "Feature", "properties": { "osm_id": 11825043897, "name": "", "amenity": "school", "building": null, "operator": "", "capacity": "", "addr_city": "", "country": "Yemen", "iso3": "YEM", "source": "HOTOSM/OSM", "latitude": 14.093734, "longitude": 45.748395 }, "geometry": { "type": "Point", "coordinates": [ 45.7483953, 14.0937335 ] } },
{ "type": "Feature", "properties": { "osm_id": 11825043963, "name": "", "amenity": "school", "building": null, "operator": "", "capacity": "", "addr_city": "", "country": "Yemen", "iso3": "YEM", "source": "HOTOSM/OSM", "latitude": 14.04407, "longitude": 45.741966 }, "geometry": { "type": "Point", "coordinates": [ 45.7419661, 14.0440699 ] } },
{ "type": "Feature", "properties": { "osm_id": 11824010460, "name": "", "amenity": "school", "building": null, "operator": "", "capacity": "", "addr_city": "", "country": "Yemen", "iso3": "YEM", "source": "HOTOSM/OSM", "latitude": 14.011733, "longitude": 45.716321 }, "geometry": { "type": "Point", "coordinates": [ 45.7163215, 14.0117334 ] } },
{ "type": "Feature", "properties": { "osm_id": 11817111106, "name": "", "amenity": "school", "building": null, "operator": "", "capacity": "", "addr_city": "", "country": "Yemen", "iso3": "YEM", "source": "HOTOSM/OSM", "latitude": 14.013305, "longitude": 45.58084 }, "geometry": { "type": "Point", "coordinates": [ 45.5808404, 14.0133052 ] } },
{ "type": "Feature", "properties": { "osm_id": 11811380198, "name": "", "amenity": "school", "building": null, "operator": "", "capacity": "", "addr_city": "", "country": "Yemen", "iso3": "YEM", "source": "HOTOSM/OSM", "latitude": 13.934624, "longitude": 45.628458 }, "geometry": { "type": "Point", "coordinates": [ 45.6284577, 13.9346243 ] } },
{ "type": "Feature", "properties": { "osm_id": 11811380203, "name": "", "amenity": "school", "building": null, "operator": "", "capacity": "", "addr_city": "", "country": "Yemen", "iso3": "YEM", "source": "HOTOSM/OSM", "latitude": 13.927325, "longitude": 45.643697 }, "geometry": { "type": "Point", "coordinates": [ 45.6436966, 13.9273246 ] } },
{ "type": "Feature", "properties": { "osm_id": 11811297220, "name": "", "amenity": "school", "building": null, "operator": "", "capacity": "", "addr_city": "", "country": "Yemen", "iso3": "YEM", "source": "HOTOSM/OSM", "latitude": 13.916846, "longitude": 45.697881 }, "geometry": { "type": "Point", "coordinates": [ 45.6978813, 13.9168458 ] } },
{ "type": "Feature", "properties": { "osm_id": 11810121397, "name": "", "amenity": "school", "building": null, "operator": "", "capacity": "", "addr_city": "", "country": "Yemen", "iso3": "YEM", "source": "HOTOSM/OSM", "latitude": 13.830773, "longitude": 45.564276 }, "geometry": { "type": "Point", "coordinates": [ 45.5642764, 13.8307733 ] } },
{ "type": "Feature", "properties": { "osm_id": 6937224328, "name": "كلية الطب", "amenity": "college", "building": null, "operator": "", "capacity": "", "addr_city": "", "country": "Yemen", "iso3": "YEM", "source": "HOTOSM/OSM", "latitude": 15.382331, "longitude": 44.173902 }, "geometry": { "type": "Point", "coordinates": [ 44.173902, 15.382331 ] } },
{ "type": "Feature", "properties": { "osm_id": 6937224389, "name": "معهد صنعاء", "amenity": "college", "building": null, "operator": "", "capacity": "", "addr_city": "", "country": "Yemen", "iso3": "YEM", "source": "HOTOSM/OSM", "latitude": 15.381174, "longitude": 44.219963 }, "geometry": { "type": "Point", "coordinates": [ 44.219963, 15.381174 ] } },
{ "type": "Feature", "properties": { "osm_id": 11806699385, "name": "", "amenity": "school", "building": null, "operator": "", "capacity": "", "addr_city": "", "country": "Yemen", "iso3": "YEM", "source": "HOTOSM/OSM", "latitude": 13.81073, "longitude": 45.271387 }, "geometry": { "type": "Point", "coordinates": [ 45.2713872, 13.81073 ] } },
{ "type": "Feature", "properties": { "osm_id": 11806605549, "name": "", "amenity": "school", "building": null, "operator": "", "capacity": "", "addr_city": "", "country": "Yemen", "iso3": "YEM", "source": "HOTOSM/OSM", "latitude": 13.803821, "longitude": 45.205575 }, "geometry": { "type": "Point", "coordinates": [ 45.2055752, 13.803821 ] } },
{ "type": "Feature", "properties": { "osm_id": 11806605859, "name": "", "amenity": "school", "building": null, "operator": "", "capacity": "", "addr_city": "", "country": "Yemen", "iso3": "YEM", "source": "HOTOSM/OSM", "latitude": 13.790404, "longitude": 45.197558 }, "geometry": { "type": "Point", "coordinates": [ 45.1975581, 13.7904036 ] } },
{ "type": "Feature", "properties": { "osm_id": 11802629197, "name": "", "amenity": "school", "building": null, "operator": "", "capacity": "", "addr_city": "", "country": "Yemen", "iso3": "YEM", "source": "HOTOSM/OSM", "latitude": 13.784337, "longitude": 45.186761 }, "geometry": { "type": "Point", "coordinates": [ 45.1867609, 13.7843373 ] } },
{ "type": "Feature", "properties": { "osm_id": 11806608497, "name": "", "amenity": "school", "building": null, "operator": "", "capacity": "", "addr_city": "", "country": "Yemen", "iso3": "YEM", "source": "HOTOSM/OSM", "latitude": 13.812299, "longitude": 45.187008 }, "geometry": { "type": "Point", "coordinates": [ 45.1870083, 13.8122993 ] } },
{ "type": "Feature", "properties": { "osm_id": 5392775208, "name": "مدرسة العلاء", "amenity": "school", "building": null, "operator": "", "capacity": "", "addr_city": "", "country": "Yemen", "iso3": "YEM", "source": "HOTOSM/OSM", "latitude": 13.345973, "longitude": 44.239408 }, "geometry": { "type": "Point", "coordinates": [ 44.2394084, 13.3459732 ] } },
{ "type": "Feature", "properties": { "osm_id": 11804333496, "name": "", "amenity": "school", "building": null, "operator": "", "capacity": "", "addr_city": "", "country": "Yemen", "iso3": "YEM", "source": "HOTOSM/OSM", "latitude": 13.716955, "longitude": 45.230961 }, "geometry": { "type": "Point", "coordinates": [ 45.230961, 13.7169549 ] } },
{ "type": "Feature", "properties": { "osm_id": 11802643297, "name": "", "amenity": "school", "building": null, "operator": "", "capacity": "", "addr_city": "", "country": "Yemen", "iso3": "YEM", "source": "HOTOSM/OSM", "latitude": 13.77429, "longitude": 45.220197 }, "geometry": { "type": "Point", "coordinates": [ 45.2201973, 13.7742904 ] } },
{ "type": "Feature", "properties": { "osm_id": 7184994685, "name": "الاتقان الأهلية", "amenity": "school", "building": null, "operator": "", "capacity": "", "addr_city": "", "country": "Yemen", "iso3": "YEM", "source": "HOTOSM/OSM", "latitude": 15.388297, "longitude": 44.206643 }, "geometry": { "type": "Point", "coordinates": [ 44.2066434, 15.3882967 ] } },
{ "type": "Feature", "properties": { "osm_id": 8836344601, "name": "", "amenity": "school", "building": null, "operator": "", "capacity": "", "addr_city": "", "country": "Yemen", "iso3": "YEM", "source": "HOTOSM/OSM", "latitude": 13.700905, "longitude": 46.024432 }, "geometry": { "type": "Point", "coordinates": [ 46.0244322, 13.7009045 ] } },
{ "type": "Feature", "properties": { "osm_id": 8836344867, "name": "", "amenity": "school", "building": null, "operator": "", "capacity": "", "addr_city": "", "country": "Yemen", "iso3": "YEM", "source": "HOTOSM/OSM", "latitude": 13.706402, "longitude": 46.071238 }, "geometry": { "type": "Point", "coordinates": [ 46.0712377, 13.7064025 ] } },
{ "type": "Feature", "properties": { "osm_id": 11829068082, "name": "", "amenity": "school", "building": null, "operator": "", "capacity": "", "addr_city": "", "country": "Yemen", "iso3": "YEM", "source": "HOTOSM/OSM", "latitude": 14.478629, "longitude": 45.719621 }, "geometry": { "type": "Point", "coordinates": [ 45.7196206, 14.4786288 ] } },
{ "type": "Feature", "properties": { "osm_id": 11827354213, "name": "", "amenity": "school", "building": null, "operator": "", "capacity": "", "addr_city": "", "country": "Yemen", "iso3": "YEM", "source": "HOTOSM/OSM", "latitude": 14.368428, "longitude": 45.743162 }, "geometry": { "type": "Point", "coordinates": [ 45.7431623, 14.368428 ] } },
{ "type": "Feature", "properties": { "osm_id": 11825196701, "name": "", "amenity": "school", "building": null, "operator": "", "capacity": "", "addr_city": "", "country": "Yemen", "iso3": "YEM", "source": "HOTOSM/OSM", "latitude": 14.181243, "longitude": 45.802968 }, "geometry": { "type": "Point", "coordinates": [ 45.8029675, 14.1812431 ] } },
{ "type": "Feature", "properties": { "osm_id": 11825196702, "name": "", "amenity": "school", "building": null, "operator": "", "capacity": "", "addr_city": "", "country": "Yemen", "iso3": "YEM", "source": "HOTOSM/OSM", "latitude": 14.181566, "longitude": 45.803083 }, "geometry": { "type": "Point", "coordinates": [ 45.8030829, 14.1815656 ] } },
{ "type": "Feature", "properties": { "osm_id": 11802372046, "name": "", "amenity": "school", "building": null, "operator": "", "capacity": "", "addr_city": "", "country": "Yemen", "iso3": "YEM", "source": "HOTOSM/OSM", "latitude": 13.741477, "longitude": 45.119702 }, "geometry": { "type": "Point", "coordinates": [ 45.1197016, 13.7414773 ] } },
{ "type": "Feature", "properties": { "osm_id": 11802372567, "name": "", "amenity": "school", "building": null, "operator": "", "capacity": "", "addr_city": "", "country": "Yemen", "iso3": "YEM", "source": "HOTOSM/OSM", "latitude": 13.720299, "longitude": 45.120377 }, "geometry": { "type": "Point", "coordinates": [ 45.1203775, 13.7202993 ] } },
{ "type": "Feature", "properties": { "osm_id": 11799904231, "name": "", "amenity": "school", "building": null, "operator": "", "capacity": "", "addr_city": "", "country": "Yemen", "iso3": "YEM", "source": "HOTOSM/OSM", "latitude": 13.576807, "longitude": 44.980423 }, "geometry": { "type": "Point", "coordinates": [ 44.9804226, 13.5768068 ] } },
{ "type": "Feature", "properties": { "osm_id": 7857891986, "name": "مدرسه المشاخرة", "amenity": "school", "building": null, "operator": "", "capacity": "", "addr_city": "", "country": "Yemen", "iso3": "YEM", "source": "HOTOSM/OSM", "latitude": 14.658568, "longitude": 44.60132 }, "geometry": { "type": "Point", "coordinates": [ 44.60132, 14.6585685 ] } },
{ "type": "Feature", "properties": { "osm_id": 7857895985, "name": "مدرسة المشاخرة", "amenity": "school", "building": null, "operator": "", "capacity": "", "addr_city": "", "country": "Yemen", "iso3": "YEM", "source": "HOTOSM/OSM", "latitude": 14.660283, "longitude": 44.602981 }, "geometry": { "type": "Point", "coordinates": [ 44.6029809, 14.6602834 ] } },
{ "type": "Feature", "properties": { "osm_id": 8589849027, "name": "مدرسة النور", "amenity": "school", "building": null, "operator": "", "capacity": "", "addr_city": "", "country": "Yemen", "iso3": "YEM", "source": "HOTOSM/OSM", "latitude": 13.293878, "longitude": 43.443293 }, "geometry": { "type": "Point", "coordinates": [ 43.4432929, 13.2938779 ] } },
{ "type": "Feature", "properties": { "osm_id": 8687950020, "name": "مدارس قحطان الأهلية", "amenity": "school", "building": null, "operator": "", "capacity": "", "addr_city": "", "country": "Yemen", "iso3": "YEM", "source": "HOTOSM/OSM", "latitude": 15.386691, "longitude": 44.203422 }, "geometry": { "type": "Point", "coordinates": [ 44.2034223, 15.3866906 ] } },
{ "type": "Feature", "properties": { "osm_id": 8740465017, "name": "مدرسة سكينة للبنات", "amenity": "school", "building": null, "operator": "", "capacity": "", "addr_city": "", "country": "Yemen", "iso3": "YEM", "source": "HOTOSM/OSM", "latitude": 13.377542, "longitude": 44.296922 }, "geometry": { "type": "Point", "coordinates": [ 44.2969224, 13.377542 ] } },
{ "type": "Feature", "properties": { "osm_id": 8370870617, "name": "كلية المجتمع سقطرى", "amenity": "college", "building": null, "operator": "", "capacity": "", "addr_city": "", "country": "Yemen", "iso3": "YEM", "source": "HOTOSM/OSM", "latitude": 12.649604, "longitude": 54.013107 }, "geometry": { "type": "Point", "coordinates": [ 54.0131072, 12.6496037 ] } },
{ "type": "Feature", "properties": { "osm_id": 5176505323, "name": "مدراس السهيل الاهلية", "amenity": "kindergarten", "building": null, "operator": "", "capacity": "", "addr_city": "", "country": "Yemen", "iso3": "YEM", "source": "HOTOSM/OSM", "latitude": 15.299373, "longitude": 44.228778 }, "geometry": { "type": "Point", "coordinates": [ 44.2287779, 15.2993735 ] } },
{ "type": "Feature", "properties": { "osm_id": 2591810037, "name": "مدرسة ابو بكر الصديق", "amenity": "school", "building": null, "operator": "", "capacity": "", "addr_city": "", "country": "Yemen", "iso3": "YEM", "source": "HOTOSM/OSM", "latitude": 15.448364, "longitude": 45.398918 }, "geometry": { "type": "Point", "coordinates": [ 45.3989177, 15.4483637 ] } },
{ "type": "Feature", "properties": { "osm_id": 4327604505, "name": "روضة الطفل بسيئون", "amenity": "school", "building": null, "operator": "", "capacity": "", "addr_city": "", "country": "Yemen", "iso3": "YEM", "source": "HOTOSM/OSM", "latitude": 15.942842, "longitude": 48.788912 }, "geometry": { "type": "Point", "coordinates": [ 48.7889118, 15.9428421 ] } },
{ "type": "Feature", "properties": { "osm_id": 4324725968, "name": "ثانوية النعمان", "amenity": "school", "building": null, "operator": "", "capacity": "", "addr_city": "", "country": "Yemen", "iso3": "YEM", "source": "HOTOSM/OSM", "latitude": 12.864746, "longitude": 44.976094 }, "geometry": { "type": "Point", "coordinates": [ 44.9760939, 12.8647457 ] } },
{ "type": "Feature", "properties": { "osm_id": 7830810187, "name": "مدرسة 30 نوفمبر", "amenity": "school", "building": null, "operator": "", "capacity": "", "addr_city": "", "country": "Yemen", "iso3": "YEM", "source": "HOTOSM/OSM", "latitude": 12.869296, "longitude": 44.996943 }, "geometry": { "type": "Point", "coordinates": [ 44.9969429, 12.8692964 ] } },
{ "type": "Feature", "properties": { "osm_id": 7830810188, "name": "مدرسة بلقيس", "amenity": "school", "building": null, "operator": "", "capacity": "", "addr_city": "", "country": "Yemen", "iso3": "YEM", "source": "HOTOSM/OSM", "latitude": 12.869949, "longitude": 44.996728 }, "geometry": { "type": "Point", "coordinates": [ 44.9967282, 12.8699491 ] } },
{ "type": "Feature", "properties": { "osm_id": 7830809588, "name": "مدرسة الفجر", "amenity": "school", "building": null, "operator": "", "capacity": "", "addr_city": "", "country": "Yemen", "iso3": "YEM", "source": "HOTOSM/OSM", "latitude": 12.868975, "longitude": 44.998815 }, "geometry": { "type": "Point", "coordinates": [ 44.9988154, 12.8689751 ] } },
{ "type": "Feature", "properties": { "osm_id": 11748505082, "name": "", "amenity": "school", "building": null, "operator": "", "capacity": "", "addr_city": "", "country": "Yemen", "iso3": "YEM", "source": "HOTOSM/OSM", "latitude": 13.539172, "longitude": 45.01907 }, "geometry": { "type": "Point", "coordinates": [ 45.0190705, 13.539172 ] } },
{ "type": "Feature", "properties": { "osm_id": 11745206516, "name": "", "amenity": "school", "building": null, "operator": "", "capacity": "", "addr_city": "", "country": "Yemen", "iso3": "YEM", "source": "HOTOSM/OSM", "latitude": 13.741245, "longitude": 45.077776 }, "geometry": { "type": "Point", "coordinates": [ 45.077776, 13.7412454 ] } },
{ "type": "Feature", "properties": { "osm_id": 6938009823, "name": "مدرسة الشهيد حسين عوض صالح للبنين", "amenity": "school", "building": null, "operator": "", "capacity": "", "addr_city": "", "country": "Yemen", "iso3": "YEM", "source": "HOTOSM/OSM", "latitude": 13.833019, "longitude": 45.257575 }, "geometry": { "type": "Point", "coordinates": [ 45.257575, 13.8330189 ] } },
{ "type": "Feature", "properties": { "osm_id": 11740818210, "name": "", "amenity": "school", "building": null, "operator": "", "capacity": "", "addr_city": "", "country": "Yemen", "iso3": "YEM", "source": "HOTOSM/OSM", "latitude": 13.937477, "longitude": 45.304871 }, "geometry": { "type": "Point", "coordinates": [ 45.3048706, 13.9374775 ] } },
{ "type": "Feature", "properties": { "osm_id": 11740818215, "name": "", "amenity": "school", "building": null, "operator": "", "capacity": "", "addr_city": "", "country": "Yemen", "iso3": "YEM", "source": "HOTOSM/OSM", "latitude": 13.945537, "longitude": 45.311313 }, "geometry": { "type": "Point", "coordinates": [ 45.3113133, 13.945537 ] } },
{ "type": "Feature", "properties": { "osm_id": 11739197447, "name": "", "amenity": "school", "building": null, "operator": "", "capacity": "", "addr_city": "", "country": "Yemen", "iso3": "YEM", "source": "HOTOSM/OSM", "latitude": 14.022783, "longitude": 45.319931 }, "geometry": { "type": "Point", "coordinates": [ 45.3199312, 14.0227829 ] } },
{ "type": "Feature", "properties": { "osm_id": 7294964381, "name": "مدرسة جعفر بن أباطالب", "amenity": "school", "building": null, "operator": "", "capacity": "", "addr_city": "", "country": "Yemen", "iso3": "YEM", "source": "HOTOSM/OSM", "latitude": 14.61942, "longitude": 43.75094 }, "geometry": { "type": "Point", "coordinates": [ 43.75094, 14.61942 ] } },
{ "type": "Feature", "properties": { "osm_id": 11730063026, "name": "", "amenity": "school", "building": null, "operator": "", "capacity": "", "addr_city": "", "country": "Yemen", "iso3": "YEM", "source": "HOTOSM/OSM", "latitude": 13.964971, "longitude": 45.485775 }, "geometry": { "type": "Point", "coordinates": [ 45.4857749, 13.9649713 ] } },
{ "type": "Feature", "properties": { "osm_id": 11730063067, "name": "", "amenity": "school", "building": null, "operator": "", "capacity": "", "addr_city": "", "country": "Yemen", "iso3": "YEM", "source": "HOTOSM/OSM", "latitude": 13.962722, "longitude": 45.501743 }, "geometry": { "type": "Point", "coordinates": [ 45.5017434, 13.9627223 ] } },
{ "type": "Feature", "properties": { "osm_id": 11745173183, "name": "", "amenity": "school", "building": null, "operator": "", "capacity": "", "addr_city": "", "country": "Yemen", "iso3": "YEM", "source": "HOTOSM/OSM", "latitude": 13.713225, "longitude": 45.075218 }, "geometry": { "type": "Point", "coordinates": [ 45.0752185, 13.7132248 ] } },
{ "type": "Feature", "properties": { "osm_id": 11743591797, "name": "", "amenity": "school", "building": null, "operator": "", "capacity": "", "addr_city": "", "country": "Yemen", "iso3": "YEM", "source": "HOTOSM/OSM", "latitude": 13.702686, "longitude": 45.103932 }, "geometry": { "type": "Point", "coordinates": [ 45.1039316, 13.7026856 ] } },
{ "type": "Feature", "properties": { "osm_id": 11743591821, "name": "", "amenity": "school", "building": null, "operator": "", "capacity": "", "addr_city": "", "country": "Yemen", "iso3": "YEM", "source": "HOTOSM/OSM", "latitude": 13.717467, "longitude": 45.130801 }, "geometry": { "type": "Point", "coordinates": [ 45.1308006, 13.7174669 ] } },
{ "type": "Feature", "properties": { "osm_id": 11743596595, "name": "", "amenity": "school", "building": null, "operator": "", "capacity": "", "addr_city": "", "country": "Yemen", "iso3": "YEM", "source": "HOTOSM/OSM", "latitude": 13.725399, "longitude": 45.134442 }, "geometry": { "type": "Point", "coordinates": [ 45.1344417, 13.7253986 ] } },
{ "type": "Feature", "properties": { "osm_id": 11735409969, "name": "مدرسة الروضة - 5 فبراير سابقا", "amenity": "school", "building": null, "operator": "", "capacity": "", "addr_city": "", "country": "Yemen", "iso3": "YEM", "source": "HOTOSM/OSM", "latitude": 12.78362, "longitude": 44.99914 }, "geometry": { "type": "Point", "coordinates": [ 44.99914, 12.7836204 ] } },
{ "type": "Feature", "properties": { "osm_id": 7294969045, "name": "مدرسة المياسي", "amenity": "school", "building": null, "operator": "", "capacity": "", "addr_city": "", "country": "Yemen", "iso3": "YEM", "source": "HOTOSM/OSM", "latitude": 14.645567, "longitude": 43.737424 }, "geometry": { "type": "Point", "coordinates": [ 43.737424, 14.645567 ] } },
{ "type": "Feature", "properties": { "osm_id": 7294964375, "name": "مدرسة القرن", "amenity": "school", "building": null, "operator": "", "capacity": "", "addr_city": "", "country": "Yemen", "iso3": "YEM", "source": "HOTOSM/OSM", "latitude": 14.625144, "longitude": 43.767867 }, "geometry": { "type": "Point", "coordinates": [ 43.767867, 14.625144 ] } },
{ "type": "Feature", "properties": { "osm_id": 12860888073, "name": "مدرسة بلال بن رباح الإبتدائية", "amenity": "school", "building": null, "operator": "", "capacity": "", "addr_city": "", "country": "Yemen", "iso3": "YEM", "source": "HOTOSM/OSM", "latitude": 14.642692, "longitude": 43.754838 }, "geometry": { "type": "Point", "coordinates": [ 43.7548376, 14.6426918 ] } },
{ "type": "Feature", "properties": { "osm_id": 11708216755, "name": "", "amenity": "school", "building": null, "operator": "", "capacity": "", "addr_city": "", "country": "Yemen", "iso3": "YEM", "source": "HOTOSM/OSM", "latitude": 14.368483, "longitude": 45.158564 }, "geometry": { "type": "Point", "coordinates": [ 45.1585641, 14.3684825 ] } },
{ "type": "Feature", "properties": { "osm_id": 11708353592, "name": "", "amenity": "school", "building": null, "operator": "", "capacity": "", "addr_city": "", "country": "Yemen", "iso3": "YEM", "source": "HOTOSM/OSM", "latitude": 14.337498, "longitude": 45.151912 }, "geometry": { "type": "Point", "coordinates": [ 45.1519123, 14.3374981 ] } },
{ "type": "Feature", "properties": { "osm_id": 11697061762, "name": "", "amenity": "school", "building": null, "operator": "", "capacity": "", "addr_city": "", "country": "Yemen", "iso3": "YEM", "source": "HOTOSM/OSM", "latitude": 14.863887, "longitude": 45.109944 }, "geometry": { "type": "Point", "coordinates": [ 45.1099437, 14.8638869 ] } },
{ "type": "Feature", "properties": { "osm_id": 4298024874, "name": "معهد سيئون العالي", "amenity": "college", "building": null, "operator": "", "capacity": "", "addr_city": "", "country": "Yemen", "iso3": "YEM", "source": "HOTOSM/OSM", "latitude": 15.948501, "longitude": 48.77728 }, "geometry": { "type": "Point", "coordinates": [ 48.77728, 15.948501 ] } },
{ "type": "Feature", "properties": { "osm_id": 10649030366, "name": "جامعة سبأ- عمادة الدراسات العليا", "amenity": "college", "building": null, "operator": "", "capacity": "", "addr_city": "", "country": "Yemen", "iso3": "YEM", "source": "HOTOSM/OSM", "latitude": 15.327609, "longitude": 44.19761 }, "geometry": { "type": "Point", "coordinates": [ 44.1976104, 15.3276091 ] } },
{ "type": "Feature", "properties": { "osm_id": 7773011085, "name": "مدارس الرسالة", "amenity": "school", "building": null, "operator": "", "capacity": "", "addr_city": "", "country": "Yemen", "iso3": "YEM", "source": "HOTOSM/OSM", "latitude": 13.99377, "longitude": 45.568187 }, "geometry": { "type": "Point", "coordinates": [ 45.5681874, 13.9937703 ] } },
{ "type": "Feature", "properties": { "osm_id": 11722349519, "name": "", "amenity": "school", "building": null, "operator": "", "capacity": "", "addr_city": "", "country": "Yemen", "iso3": "YEM", "source": "HOTOSM/OSM", "latitude": 14.051461, "longitude": 45.485668 }, "geometry": { "type": "Point", "coordinates": [ 45.4856676, 14.0514608 ] } },
{ "type": "Feature", "properties": { "osm_id": 11716887129, "name": "", "amenity": "school", "building": null, "operator": "", "capacity": "", "addr_city": "", "country": "Yemen", "iso3": "YEM", "source": "HOTOSM/OSM", "latitude": 14.152693, "longitude": 45.396109 }, "geometry": { "type": "Point", "coordinates": [ 45.3961086, 14.1526934 ] } },
{ "type": "Feature", "properties": { "osm_id": 11716758630, "name": "", "amenity": "school", "building": null, "operator": "", "capacity": "", "addr_city": "", "country": "Yemen", "iso3": "YEM", "source": "HOTOSM/OSM", "latitude": 14.309774, "longitude": 45.287785 }, "geometry": { "type": "Point", "coordinates": [ 45.2877849, 14.3097738 ] } },
{ "type": "Feature", "properties": { "osm_id": 11707891971, "name": "مدرسة قرية الابيات العليا", "amenity": "school", "building": null, "operator": "", "capacity": "", "addr_city": "", "country": "Yemen", "iso3": "YEM", "source": "HOTOSM/OSM", "latitude": 14.782545, "longitude": 43.13191 }, "geometry": { "type": "Point", "coordinates": [ 43.1319101, 14.7825448 ] } },
{ "type": "Feature", "properties": { "osm_id": 10632742535, "name": "مدارس رواد اليمن الدولية فرع البراعم", "amenity": "school", "building": null, "operator": "", "capacity": "", "addr_city": "", "country": "Yemen", "iso3": "YEM", "source": "HOTOSM/OSM", "latitude": 15.331912, "longitude": 44.224311 }, "geometry": { "type": "Point", "coordinates": [ 44.2243107, 15.3319125 ] } },
{ "type": "Feature", "properties": { "osm_id": 7278891252, "name": "", "amenity": "school", "building": null, "operator": "", "capacity": "", "addr_city": "", "country": "Yemen", "iso3": "YEM", "source": "HOTOSM/OSM", "latitude": 15.16747, "longitude": 45.243026 }, "geometry": { "type": "Point", "coordinates": [ 45.2430256, 15.1674697 ] } },
{ "type": "Feature", "properties": { "osm_id": 6937218331, "name": "مدرسة خولة بنت الأزور", "amenity": "school", "building": null, "operator": "", "capacity": "", "addr_city": "", "country": "Yemen", "iso3": "YEM", "source": "HOTOSM/OSM", "latitude": 14.793257, "longitude": 42.948299 }, "geometry": { "type": "Point", "coordinates": [ 42.948299, 14.793257 ] } },
{ "type": "Feature", "properties": { "osm_id": 4690487996, "name": "مدارس ربى العلوم النموذجية", "amenity": "school", "building": null, "operator": "", "capacity": "", "addr_city": "", "country": "Yemen", "iso3": "YEM", "source": "HOTOSM/OSM", "latitude": 15.309388, "longitude": 44.189605 }, "geometry": { "type": "Point", "coordinates": [ 44.1896047, 15.3093883 ] } },
{ "type": "Feature", "properties": { "osm_id": 7770349085, "name": "مدرسة ١٤ اكتوبر", "amenity": "school", "building": null, "operator": "", "capacity": "", "addr_city": "", "country": "Yemen", "iso3": "YEM", "source": "HOTOSM/OSM", "latitude": 13.850069, "longitude": 44.699527 }, "geometry": { "type": "Point", "coordinates": [ 44.6995266, 13.850069 ] } },
{ "type": "Feature", "properties": { "osm_id": 4957875929, "name": "الجامعة الإماراتية", "amenity": "university", "building": null, "operator": "", "capacity": "", "addr_city": "", "country": "Yemen", "iso3": "YEM", "source": "HOTOSM/OSM", "latitude": 15.312396, "longitude": 44.185998 }, "geometry": { "type": "Point", "coordinates": [ 44.1859984, 15.3123961 ] } },
{ "type": "Feature", "properties": { "osm_id": 12583232932, "name": "مدرسة الناصر للبنين", "amenity": "school", "building": null, "operator": "", "capacity": "", "addr_city": "", "country": "Yemen", "iso3": "YEM", "source": "HOTOSM/OSM", "latitude": 15.278732, "longitude": 44.220852 }, "geometry": { "type": "Point", "coordinates": [ 44.2208516, 15.2787317 ] } },
{ "type": "Feature", "properties": { "osm_id": 5079952021, "name": "مدرسة معين", "amenity": "school", "building": null, "operator": "", "capacity": "", "addr_city": "", "country": "Yemen", "iso3": "YEM", "source": "HOTOSM/OSM", "latitude": 15.349782, "longitude": 44.219034 }, "geometry": { "type": "Point", "coordinates": [ 44.219034, 15.349782 ] } },
{ "type": "Feature", "properties": { "osm_id": 5081804121, "name": "ملعب ثانوية العبادي", "amenity": "school", "building": null, "operator": "", "capacity": "", "addr_city": "", "country": "Yemen", "iso3": "YEM", "source": "HOTOSM/OSM", "latitude": 13.82987, "longitude": 44.867494 }, "geometry": { "type": "Point", "coordinates": [ 44.8674945, 13.8298702 ] } },
{ "type": "Feature", "properties": { "osm_id": 5052506725, "name": "مجمع النصر التربوي للتعليم الاساسي الثانوي", "amenity": "school", "building": null, "operator": "", "capacity": "", "addr_city": "", "country": "Yemen", "iso3": "YEM", "source": "HOTOSM/OSM", "latitude": 14.472593, "longitude": 44.012034 }, "geometry": { "type": "Point", "coordinates": [ 44.0120339, 14.4725929 ] } },
{ "type": "Feature", "properties": { "osm_id": 11657934714, "name": "", "amenity": "school", "building": null, "operator": "", "capacity": "", "addr_city": "", "country": "Yemen", "iso3": "YEM", "source": "HOTOSM/OSM", "latitude": 16.288194, "longitude": 43.977231 }, "geometry": { "type": "Point", "coordinates": [ 43.9772308, 16.2881944 ] } },
{ "type": "Feature", "properties": { "osm_id": 10160025045, "name": "مدارس قحطان الأهلية الفرع", "amenity": "school", "building": null, "operator": "", "capacity": "", "addr_city": "", "country": "Yemen", "iso3": "YEM", "source": "HOTOSM/OSM", "latitude": 15.387262, "longitude": 44.200215 }, "geometry": { "type": "Point", "coordinates": [ 44.2002154, 15.3872621 ] } },
{ "type": "Feature", "properties": { "osm_id": 8767983232, "name": "", "amenity": "school", "building": null, "operator": "", "capacity": "", "addr_city": "", "country": "Yemen", "iso3": "YEM", "source": "HOTOSM/OSM", "latitude": 13.840815, "longitude": 45.766183 }, "geometry": { "type": "Point", "coordinates": [ 45.7661834, 13.8408145 ] } },
{ "type": "Feature", "properties": { "osm_id": 8764832204, "name": "", "amenity": "school", "building": null, "operator": "", "capacity": "", "addr_city": "", "country": "Yemen", "iso3": "YEM", "source": "HOTOSM/OSM", "latitude": 14.058695, "longitude": 46.910335 }, "geometry": { "type": "Point", "coordinates": [ 46.9103351, 14.0586948 ] } },
{ "type": "Feature", "properties": { "osm_id": 8764760336, "name": "", "amenity": "school", "building": null, "operator": "", "capacity": "", "addr_city": "", "country": "Yemen", "iso3": "YEM", "source": "HOTOSM/OSM", "latitude": 13.951956, "longitude": 46.350948 }, "geometry": { "type": "Point", "coordinates": [ 46.3509482, 13.9519562 ] } },
{ "type": "Feature", "properties": { "osm_id": 3256253232, "name": "مدرسة بلقيس", "amenity": "school", "building": null, "operator": "", "capacity": "", "addr_city": "", "country": "Yemen", "iso3": "YEM", "source": "HOTOSM/OSM", "latitude": 15.35598, "longitude": 44.196442 }, "geometry": { "type": "Point", "coordinates": [ 44.1964422, 15.3559803 ] } },
{ "type": "Feature", "properties": { "osm_id": 8764760408, "name": "", "amenity": "school", "building": null, "operator": "", "capacity": "", "addr_city": "", "country": "Yemen", "iso3": "YEM", "source": "HOTOSM/OSM", "latitude": 13.939555, "longitude": 46.204596 }, "geometry": { "type": "Point", "coordinates": [ 46.2045962, 13.9395548 ] } },
{ "type": "Feature", "properties": { "osm_id": 8761472142, "name": "", "amenity": "school", "building": null, "operator": "", "capacity": "", "addr_city": "", "country": "Yemen", "iso3": "YEM", "source": "HOTOSM/OSM", "latitude": 13.797442, "longitude": 45.893711 }, "geometry": { "type": "Point", "coordinates": [ 45.8937113, 13.7974423 ] } },
{ "type": "Feature", "properties": { "osm_id": 8760703107, "name": "", "amenity": "school", "building": null, "operator": "", "capacity": "", "addr_city": "", "country": "Yemen", "iso3": "YEM", "source": "HOTOSM/OSM", "latitude": 14.172201, "longitude": 46.286838 }, "geometry": { "type": "Point", "coordinates": [ 46.2868384, 14.1722006 ] } },
{ "type": "Feature", "properties": { "osm_id": 8760482945, "name": "", "amenity": "school", "building": null, "operator": "", "capacity": "", "addr_city": "", "country": "Yemen", "iso3": "YEM", "source": "HOTOSM/OSM", "latitude": 13.512132, "longitude": 46.53343 }, "geometry": { "type": "Point", "coordinates": [ 46.5334296, 13.5121315 ] } },
{ "type": "Feature", "properties": { "osm_id": 8757531848, "name": "مدرسة رضوم", "amenity": "school", "building": null, "operator": "", "capacity": "", "addr_city": "", "country": "Yemen", "iso3": "YEM", "source": "HOTOSM/OSM", "latitude": 14.090861, "longitude": 47.730294 }, "geometry": { "type": "Point", "coordinates": [ 47.7302938, 14.0908613 ] } },
{ "type": "Feature", "properties": { "osm_id": 7725171859, "name": "مدرسة 26 سبتمبر", "amenity": "school", "building": null, "operator": "", "capacity": "", "addr_city": "", "country": "Yemen", "iso3": "YEM", "source": "HOTOSM/OSM", "latitude": 13.46511, "longitude": 43.493521 }, "geometry": { "type": "Point", "coordinates": [ 43.4935212, 13.4651105 ] } },
{ "type": "Feature", "properties": { "osm_id": 7725205467, "name": "مدرسة الشهيد زيد عون", "amenity": "school", "building": null, "operator": "", "capacity": "", "addr_city": "", "country": "Yemen", "iso3": "YEM", "source": "HOTOSM/OSM", "latitude": 13.355884, "longitude": 43.621216 }, "geometry": { "type": "Point", "coordinates": [ 43.6212158, 13.3558842 ] } },
{ "type": "Feature", "properties": { "osm_id": 7725145525, "name": "مدرسة الوحدة", "amenity": "school", "building": null, "operator": "", "capacity": "", "addr_city": "", "country": "Yemen", "iso3": "YEM", "source": "HOTOSM/OSM", "latitude": 13.382898, "longitude": 43.648252 }, "geometry": { "type": "Point", "coordinates": [ 43.6482525, 13.3828979 ] } },
{ "type": "Feature", "properties": { "osm_id": 7725197253, "name": "مدرسة الشهداء", "amenity": "school", "building": null, "operator": "", "capacity": "", "addr_city": "", "country": "Yemen", "iso3": "YEM", "source": "HOTOSM/OSM", "latitude": 13.3129, "longitude": 43.7336 }, "geometry": { "type": "Point", "coordinates": [ 43.7336, 13.3129 ] } },
{ "type": "Feature", "properties": { "osm_id": 10132812017, "name": "مدرسة طيبة", "amenity": "school", "building": null, "operator": "", "capacity": "", "addr_city": "", "country": "Yemen", "iso3": "YEM", "source": "HOTOSM/OSM", "latitude": 13.585109, "longitude": 44.016517 }, "geometry": { "type": "Point", "coordinates": [ 44.0165173, 13.5851091 ] } },
{ "type": "Feature", "properties": { "osm_id": 5200289521, "name": "مدرسة زيد الموشكي", "amenity": "school", "building": null, "operator": "", "capacity": "", "addr_city": "", "country": "Yemen", "iso3": "YEM", "source": "HOTOSM/OSM", "latitude": 15.308487, "longitude": 44.197087 }, "geometry": { "type": "Point", "coordinates": [ 44.1970867, 15.3084866 ] } },
{ "type": "Feature", "properties": { "osm_id": 7700173113, "name": "مدرسة عمران", "amenity": "school", "building": null, "operator": "", "capacity": "", "addr_city": "", "country": "Yemen", "iso3": "YEM", "source": "HOTOSM/OSM", "latitude": 15.656631, "longitude": 43.955335 }, "geometry": { "type": "Point", "coordinates": [ 43.9553349, 15.6566306 ] } },
{ "type": "Feature", "properties": { "osm_id": 7700162192, "name": "مدرسة 11 أكتوبر", "amenity": "school", "building": null, "operator": "", "capacity": "", "addr_city": "", "country": "Yemen", "iso3": "YEM", "source": "HOTOSM/OSM", "latitude": 15.671687, "longitude": 43.810068 }, "geometry": { "type": "Point", "coordinates": [ 43.8100685, 15.6716871 ] } },
{ "type": "Feature", "properties": { "osm_id": 12200086077, "name": "مدرسة الشهيد حزام العصيمي", "amenity": "school", "building": null, "operator": "", "capacity": "", "addr_city": "", "country": "Yemen", "iso3": "YEM", "source": "HOTOSM/OSM", "latitude": 15.332765, "longitude": 44.21322 }, "geometry": { "type": "Point", "coordinates": [ 44.2132203, 15.3327648 ] } },
{ "type": "Feature", "properties": { "osm_id": 7690861022, "name": "", "amenity": "school", "building": null, "operator": "", "capacity": "", "addr_city": "", "country": "Yemen", "iso3": "YEM", "source": "HOTOSM/OSM", "latitude": 15.692684, "longitude": 43.603777 }, "geometry": { "type": "Point", "coordinates": [ 43.6037769, 15.6926841 ] } },
{ "type": "Feature", "properties": { "osm_id": 4811086422, "name": "مدرسة دار الحديث", "amenity": "school", "building": null, "operator": "", "capacity": "", "addr_city": "", "country": "Yemen", "iso3": "YEM", "source": "HOTOSM/OSM", "latitude": 14.792766, "longitude": 44.294656 }, "geometry": { "type": "Point", "coordinates": [ 44.294656, 14.7927663 ] } },
{ "type": "Feature", "properties": { "osm_id": 12572220946, "name": "مدرسة سماء النهضة الأهلية", "amenity": "school", "building": null, "operator": "", "capacity": "", "addr_city": "", "country": "Yemen", "iso3": "YEM", "source": "HOTOSM/OSM", "latitude": 15.397954, "longitude": 44.198409 }, "geometry": { "type": "Point", "coordinates": [ 44.1984086, 15.397954 ] } },
{ "type": "Feature", "properties": { "osm_id": 12599361319, "name": "مدرسة المسيلة النموذجية", "amenity": "school", "building": null, "operator": "", "capacity": "", "addr_city": "", "country": "Yemen", "iso3": "YEM", "source": "HOTOSM/OSM", "latitude": 15.401804, "longitude": 44.204006 }, "geometry": { "type": "Point", "coordinates": [ 44.2040065, 15.4018043 ] } },
{ "type": "Feature", "properties": { "osm_id": 12599361320, "name": "مدرسة إقراء الأهلية", "amenity": "school", "building": null, "operator": "", "capacity": "", "addr_city": "", "country": "Yemen", "iso3": "YEM", "source": "HOTOSM/OSM", "latitude": 15.40197, "longitude": 44.203178 }, "geometry": { "type": "Point", "coordinates": [ 44.2031778, 15.4019704 ] } },
{ "type": "Feature", "properties": { "osm_id": 12621500061, "name": "مدارس سما اليمن الدولية", "amenity": "school", "building": null, "operator": "", "capacity": "", "addr_city": "", "country": "Yemen", "iso3": "YEM", "source": "HOTOSM/OSM", "latitude": 15.286816, "longitude": 44.237227 }, "geometry": { "type": "Point", "coordinates": [ 44.2372272, 15.286816 ] } },
{ "type": "Feature", "properties": { "osm_id": 4876517125, "name": "مدارس النبراس النموذجية", "amenity": "school", "building": null, "operator": "", "capacity": "", "addr_city": "", "country": "Yemen", "iso3": "YEM", "source": "HOTOSM/OSM", "latitude": 15.302018, "longitude": 44.192721 }, "geometry": { "type": "Point", "coordinates": [ 44.1927207, 15.3020178 ] } },
{ "type": "Feature", "properties": { "osm_id": 9676888414, "name": "مدرسة الجبوبة", "amenity": "school", "building": null, "operator": "", "capacity": "", "addr_city": "", "country": "Yemen", "iso3": "YEM", "source": "HOTOSM/OSM", "latitude": 14.037579, "longitude": 44.508096 }, "geometry": { "type": "Point", "coordinates": [ 44.5080955, 14.0375795 ] } },
{ "type": "Feature", "properties": { "osm_id": 4811118426, "name": "مدرسة ناصر النموذجية", "amenity": "school", "building": null, "operator": "", "capacity": "", "addr_city": "", "country": "Yemen", "iso3": "YEM", "source": "HOTOSM/OSM", "latitude": 13.574798, "longitude": 44.01491 }, "geometry": { "type": "Point", "coordinates": [ 44.01491, 13.5747978 ] } },
{ "type": "Feature", "properties": { "osm_id": 8527513699, "name": "", "amenity": "school", "building": null, "operator": "", "capacity": "", "addr_city": "", "country": "Yemen", "iso3": "YEM", "source": "HOTOSM/OSM", "latitude": 15.805251, "longitude": 48.98469 }, "geometry": { "type": "Point", "coordinates": [ 48.9846897, 15.8052509 ] } },
{ "type": "Feature", "properties": { "osm_id": 4845953423, "name": "مدرسة الدريوم", "amenity": "school", "building": null, "operator": "", "capacity": "", "addr_city": "", "country": "Yemen", "iso3": "YEM", "source": "HOTOSM/OSM", "latitude": 14.484527, "longitude": 44.089711 }, "geometry": { "type": "Point", "coordinates": [ 44.089711, 14.4845273 ] } },
{ "type": "Feature", "properties": { "osm_id": 5878121447, "name": "الجامعة العربية للعلوم التقنية", "amenity": "university", "building": null, "operator": "", "capacity": "", "addr_city": "", "country": "Yemen", "iso3": "YEM", "source": "HOTOSM/OSM", "latitude": 15.326057, "longitude": 44.18674 }, "geometry": { "type": "Point", "coordinates": [ 44.18674, 15.3260568 ] } },
{ "type": "Feature", "properties": { "osm_id": 4681741998, "name": "مدرسة النسيبه الثانوية والأساسية للبنات", "amenity": "school", "building": null, "operator": "", "capacity": "", "addr_city": "", "country": "Yemen", "iso3": "YEM", "source": "HOTOSM/OSM", "latitude": 15.460233, "longitude": 43.355422 }, "geometry": { "type": "Point", "coordinates": [ 43.355422, 15.4602329 ] } },
{ "type": "Feature", "properties": { "osm_id": 12612207911, "name": "مدرسة الرملة", "amenity": "school", "building": null, "operator": "", "capacity": "", "addr_city": "", "country": "Yemen", "iso3": "YEM", "source": "HOTOSM/OSM", "latitude": 15.82531, "longitude": 48.27674 }, "geometry": { "type": "Point", "coordinates": [ 48.2767399, 15.82531 ] } },
{ "type": "Feature", "properties": { "osm_id": 4727521472, "name": "Female School", "amenity": "school", "building": null, "operator": "", "capacity": "", "addr_city": "", "country": "Yemen", "iso3": "YEM", "source": "HOTOSM/OSM", "latitude": 13.446431, "longitude": 43.270935 }, "geometry": { "type": "Point", "coordinates": [ 43.2709345, 13.4464315 ] } },
{ "type": "Feature", "properties": { "osm_id": 7610592776, "name": "مدرسة الانطلاق الشعبية", "amenity": "school", "building": null, "operator": "", "capacity": "", "addr_city": "", "country": "Yemen", "iso3": "YEM", "source": "HOTOSM/OSM", "latitude": 13.230749, "longitude": 44.385124 }, "geometry": { "type": "Point", "coordinates": [ 44.3851241, 13.2307488 ] } },
{ "type": "Feature", "properties": { "osm_id": 4528883789, "name": "رئاسة جامعة حضرموت", "amenity": "school", "building": null, "operator": "", "capacity": "", "addr_city": "", "country": "Yemen", "iso3": "YEM", "source": "HOTOSM/OSM", "latitude": 14.507532, "longitude": 49.06041 }, "geometry": { "type": "Point", "coordinates": [ 49.0604103, 14.5075318 ] } },
{ "type": "Feature", "properties": { "osm_id": 12622956099, "name": "مدرسة عذبان", "amenity": "school", "building": null, "operator": "", "capacity": "", "addr_city": "", "country": "Yemen", "iso3": "YEM", "source": "HOTOSM/OSM", "latitude": 14.785126, "longitude": 42.948048 }, "geometry": { "type": "Point", "coordinates": [ 42.9480478, 14.7851261 ] } },
{ "type": "Feature", "properties": { "osm_id": 4506246758, "name": "مدرسة الميثاق", "amenity": "school", "building": null, "operator": "", "capacity": "", "addr_city": "", "country": "Yemen", "iso3": "YEM", "source": "HOTOSM/OSM", "latitude": 15.953268, "longitude": 43.437853 }, "geometry": { "type": "Point", "coordinates": [ 43.4378533, 15.9532675 ] } },
{ "type": "Feature", "properties": { "osm_id": 8387846020, "name": "مدرسة صلاح الدين الايوبي", "amenity": "school", "building": null, "operator": "", "capacity": "", "addr_city": "", "country": "Yemen", "iso3": "YEM", "source": "HOTOSM/OSM", "latitude": 14.207308, "longitude": 44.566938 }, "geometry": { "type": "Point", "coordinates": [ 44.5669375, 14.2073081 ] } },
{ "type": "Feature", "properties": { "osm_id": 8383195517, "name": "مدارس الأمين الأهلية", "amenity": "school", "building": null, "operator": "", "capacity": "", "addr_city": "", "country": "Yemen", "iso3": "YEM", "source": "HOTOSM/OSM", "latitude": 15.304214, "longitude": 44.190762 }, "geometry": { "type": "Point", "coordinates": [ 44.1907625, 15.3042138 ] } },
{ "type": "Feature", "properties": { "osm_id": 12783580402, "name": "", "amenity": "school", "building": null, "operator": "", "capacity": "", "addr_city": "", "country": "Yemen", "iso3": "YEM", "source": "HOTOSM/OSM", "latitude": 12.862737, "longitude": 44.96212 }, "geometry": { "type": "Point", "coordinates": [ 44.9621201, 12.8627368 ] } },
{ "type": "Feature", "properties": { "osm_id": 6791685966, "name": "مدرسة الإرشاد مداكشه قبيطه", "amenity": "school", "building": null, "operator": "", "capacity": "", "addr_city": "", "country": "Yemen", "iso3": "YEM", "source": "HOTOSM/OSM", "latitude": 13.227958, "longitude": 44.405553 }, "geometry": { "type": "Point", "coordinates": [ 44.4055533, 13.2279581 ] } },
{ "type": "Feature", "properties": { "osm_id": 6604549608, "name": "معهد هايبراو للتدريب والتأهيل", "amenity": "school", "building": null, "operator": "", "capacity": "", "addr_city": "", "country": "Yemen", "iso3": "YEM", "source": "HOTOSM/OSM", "latitude": 13.706313, "longitude": 44.733527 }, "geometry": { "type": "Point", "coordinates": [ 44.7335272, 13.7063128 ] } },
{ "type": "Feature", "properties": { "osm_id": 4543483740, "name": "روضة الوهط", "amenity": "kindergarten", "building": null, "operator": "", "capacity": "", "addr_city": "", "country": "Yemen", "iso3": "YEM", "source": "HOTOSM/OSM", "latitude": 12.976049, "longitude": 44.893881 }, "geometry": { "type": "Point", "coordinates": [ 44.893881, 12.9760494 ] } },
{ "type": "Feature", "properties": { "osm_id": 1869319799, "name": "منتزة لاند", "amenity": "kindergarten", "building": null, "operator": "", "capacity": "", "addr_city": "", "country": "Yemen", "iso3": "YEM", "source": "HOTOSM/OSM", "latitude": 14.298494, "longitude": 44.36877 }, "geometry": { "type": "Point", "coordinates": [ 44.3687698, 14.2984942 ] } },
{ "type": "Feature", "properties": { "osm_id": 7575155644, "name": "", "amenity": "school", "building": null, "operator": "", "capacity": "", "addr_city": "", "country": "Yemen", "iso3": "YEM", "source": "HOTOSM/OSM", "latitude": 14.984156, "longitude": 50.000448 }, "geometry": { "type": "Point", "coordinates": [ 50.0004476, 14.9841563 ] } },
{ "type": "Feature", "properties": { "osm_id": 1841773443, "name": "", "amenity": "school", "building": null, "operator": "", "capacity": "", "addr_city": "", "country": "Yemen", "iso3": "YEM", "source": "HOTOSM/OSM", "latitude": 14.544892, "longitude": 49.129183 }, "geometry": { "type": "Point", "coordinates": [ 49.1291831, 14.5448925 ] } },
{ "type": "Feature", "properties": { "osm_id": 4463102789, "name": "", "amenity": "school", "building": null, "operator": "", "capacity": "", "addr_city": "", "country": "Yemen", "iso3": "YEM", "source": "HOTOSM/OSM", "latitude": 12.848034, "longitude": 44.917233 }, "geometry": { "type": "Point", "coordinates": [ 44.9172331, 12.8480337 ] } },
{ "type": "Feature", "properties": { "osm_id": 4298021894, "name": "مدارس الامجاد", "amenity": "school", "building": null, "operator": "", "capacity": "", "addr_city": "", "country": "Yemen", "iso3": "YEM", "source": "HOTOSM/OSM", "latitude": 14.497083, "longitude": 49.054516 }, "geometry": { "type": "Point", "coordinates": [ 49.0545162, 14.4970827 ] } },
{ "type": "Feature", "properties": { "osm_id": 1841772579, "name": "", "amenity": "university", "building": null, "operator": "", "capacity": "", "addr_city": "", "country": "Yemen", "iso3": "YEM", "source": "HOTOSM/OSM", "latitude": 14.483312, "longitude": 49.025402 }, "geometry": { "type": "Point", "coordinates": [ 49.0254017, 14.4833119 ] } },
{ "type": "Feature", "properties": { "osm_id": 4378929789, "name": "ادارة التربيه والتعليم", "amenity": "school", "building": null, "operator": "", "capacity": "", "addr_city": "", "country": "Yemen", "iso3": "YEM", "source": "HOTOSM/OSM", "latitude": 15.041839, "longitude": 50.475744 }, "geometry": { "type": "Point", "coordinates": [ 50.4757441, 15.0418385 ] } },
{ "type": "Feature", "properties": { "osm_id": 4285426389, "name": "مركز دار المصطفى للدراسات الاسلامية", "amenity": "school", "building": null, "operator": "", "capacity": "", "addr_city": "", "country": "Yemen", "iso3": "YEM", "source": "HOTOSM/OSM", "latitude": 16.050456, "longitude": 48.975404 }, "geometry": { "type": "Point", "coordinates": [ 48.975404, 16.0504555 ] } },
{ "type": "Feature", "properties": { "osm_id": 8758254742, "name": "", "amenity": "school", "building": null, "operator": "", "capacity": "", "addr_city": "", "country": "Yemen", "iso3": "YEM", "source": "HOTOSM/OSM", "latitude": 16.143954, "longitude": 49.1446 }, "geometry": { "type": "Point", "coordinates": [ 49.1446002, 16.143954 ] } },
{ "type": "Feature", "properties": { "osm_id": 4654147793, "name": "كلية الآداب", "amenity": "school", "building": null, "operator": "", "capacity": "", "addr_city": "", "country": "Yemen", "iso3": "YEM", "source": "HOTOSM/OSM", "latitude": 12.81229, "longitude": 45.036997 }, "geometry": { "type": "Point", "coordinates": [ 45.0369972, 12.8122905 ] } },